$GPRMC,84929.998,A,3956.3641,N,11624.4724,E,0.12,94.53,180812,A*5E,Svalue,227
$GPRMC,84930.998,A,3956.3751,N,11624.4901,E,1.09,23.59,180812,A*52,Svalue,240
$GPRMC,84931.998,A,3956.3758,N,11624.4991,E,1.43,44.87,180812,A*5F,Svalue,249
$GPRMC,84932.998,A,3956.3759,N,11624.5063,E,3.61,90.32,180812,A*5D,Svalue,256
$GPRMC,84933.998,A,3956.3765,N,11624.5089,E,1.75,61.58,180812,A*52,Svalue,261
$GPRMC,84934.998,A,3956.3753,N,11624.5082,E,1.83,38.86,180812,A*5D,Svalue,264
$GPRMC,84935.998,A,3956.3749,N,11624.5067,E,1.46,37.73,180812,A*50,Svalue,267
$GPRMC,84937,A,3956.3733,N,11624.5064,E,1.32,43.13,180812,A*52,Svalue,269
$GPRMC,84938,A,3956.3727,N,11624.5065,E,0.92,48.31,180812,A*59,Svalue,270
$GPRMC,84939,A,3956.3725,N,11624.507,E,0.65,52.59,180812,A*53,Svalue,270
$GPRMC,84940,A,3956.3724,N,11624.5074,E,0.22,72.08,180812,A*5D,Svalue,270
$GPRMC,84941,A,3956.3723,N,11624.5078,E,0.71,51.08,180812,A*50,Svalue,270
$GPRMC,84942,A,3956.3722,N,11624.508,E,0.7,50.37,180812,A*59,Svalue,270
$GPRMC,84943,A,3956.372,N,11624.508,E,0.77,49.61,180812,A*56,Svalue,269
$GPRMC,84944,A,3956.3718,N,11624.508,E,0.5,42.77,180812,A*53,Svalue,269
$GPRMC,84945,A,3956.3715,N,11624.5078,E,0.57,39.48,180812,A*5F,Svalue,268
$GPRMC,84946,A,3956.3715,N,11624.5079,E,0.86,41.17,180812,A*54,Svalue,268
$GPRMC,84947,A,3956.3711,N,11624.5077,E,0.36,44.4,180812,A*53,Svalue,267
$GPRMC,84948,A,3956.3707,N,11624.5074,E,0.1,153.33,180812,A*6F,Svalue,266
$GPRMC,84949,A,3956.3704,N,11624.5073,E,0.36,205.01,180812,A*6F,Svalue,265
$GPRMC,84950,A,3956.3704,N,11624.5073,E,0.12,87.27,180812,A*5D,Svalue,265
$GPRMC,84951,A,3956.3703,N,11624.5074,E,0.15,176.5,180812,A*64,Svalue,264
$GPRMC,84952,A,3956.37,N,11624.507,E,0.27,208.34,180812,A*69,Svalue,263
$GPRMC,84953,A,3956.3696,N,11624.5067,E,0.22,150.48,180812,A*60,Svalue,262
$GPRMC,84954,A,3956.3693,N,11624.5066,E,0.23,84.33,180812,A*56,Svalue,262
$GPRMC,84955,A,3956.3693,N,11624.5067,E,0.35,67.98,180812,A*5D,Svalue,261
$GPRMC,84956,A,3956.3694,N,11624.507,E,0.42,61.37,180812,A*5C,Svalue,260
$GPRMC,84957,A,3956.3695,N,11624.5074,E,0.73,56.21,180812,A*59,Svalue,260
$GPRMC,84958,A,3956.3695,N,11624.5077,E,0.3,59.18,180812,A*57,Svalue,259
$GPRMC,84959,A,3956.3695,N,11624.5077,E,0.11,77.7,180812,A*57,Svalue,258
$GPRMC,85000,A,3956.3696,N,11624.5079,E,0.22,221.62,180812,A*6C,Svalue,258
$GPRMC,85001,A,3956.3696,N,11624.5078,E,0.05,55.57,180812,A*5E,Svalue,257
$GPRMC,85002,A,3956.3695,N,11624.5078,E,0.32,58.98,180812,A*54,Svalue,257
$GPRMC,85003,A,3956.3694,N,11624.5077,E,0.46,55.84,180812,A*58,Svalue,256
$GPRMC,85004,A,3956.3693,N,11624.5078,E,0.36,60.81,180812,A*53,Svalue,256
$GPRMC,85005,A,3956.3695,N,11624.5079,E,0.4,53.33,180812,A*5D,Svalue,255
$GPRMC,85006,A,3956.3696,N,11624.5079,E,0.56,57.56,180812,A*5D,Svalue,255
$GPRMC,85007,A,3956.3695,N,11624.508,E,0.6,55.28,180812,A*57,Svalue,254
$GPRMC,85008,A,3956.3694,N,11624.5079,E,0.31,49.96,180812,A*53,Svalue,254
$GPRMC,85009,A,3956.3696,N,11624.5079,E,0.29,58.26,180812,A*52,Svalue,253
$GPRMC,85010,A,3956.3698,N,11624.5079,E,0.2,51.91,180812,A*58,Svalue,252
$GPRMC,85011,A,3956.3699,N,11624.508,E,0.28,56.01,180812,A*58,Svalue,252
$GPRMC,85012,A,3956.37,N,11624.508,E,0.21,57.39,180812,A*59,Svalue,251
$GPRMC,85013,A,3956.3702,N,11624.508,E,0.23,65.88,180812,A*53,Svalue,251
$GPRMC,85014,A,3956.3703,N,11624.508,E,0.17,58.27,180812,A*59,Svalue,250
$GPRMC,85015,A,3956.3704,N,11624.508,E,0.19,65.09,180812,A*53,Svalue,250
$GPRMC,85016,A,3956.3704,N,11624.5079,E,0.14,76.02,180812,A*52,Svalue,249
$GPRMC,85017,A,3956.3703,N,11624.5079,E,0.4,53.34,180812,A*57,Svalue,249
$GPRMC,85018,A,3956.3702,N,11624.5079,E,0.07,121.82,180812,A*63,Svalue,248
$GPRMC,85019,A,3956.3699,N,11624.5076,E,0.14,160.84,180812,A*6F,Svalue,248
$GPRMC,85020,A,3956.3697,N,11624.5075,E,0.17,179,180812,A*6F,Svalue,247
$GPRMC,85021,A,3956.3693,N,11624.5071,E,0.49,198.97,180812,A*64,Svalue,247
$GPRMC,85022,A,3956.3686,N,11624.5067,E,0.07,157.85,180812,A*6E,Svalue,246
$GPRMC,85023,A,3956.3679,N,11624.5061,E,0.02,4.62,180812,A*62,Svalue,246
$GPRMC,85024,A,3956.3674,N,11624.5056,E,0.86,214.6,180812,A*61,Svalue,246
$GPRMC,85025,A,3956.3663,N,11624.5043,E,0.69,212.96,180812,A*6C,Svalue,245
$GPRMC,85026,A,3956.3659,N,11624.5039,E,0.53,210.12,180812,A*6C,Svalue,245
$GPRMC,85027,A,3956.3657,N,11624.5036,E,0.26,201.55,180812,A*6D,Svalue,245
$GPRMC,85028,A,3956.3658,N,11624.5036,E,0.44,209.59,180812,A*6D,Svalue,244
$GPRMC,85029,A,3956.3661,N,11624.5038,E,0.18,132.85,180812,A*6B,Svalue,244
$GPRMC,85030,A,3956.3663,N,11624.504,E,0.72,208.68,180812,A*6B,Svalue,243
$GPRMC,85031,A,3956.3664,N,11624.5042,E,0.57,200.22,180812,A*6E,Svalue,243
$GPRMC,85032,A,3956.3665,N,11624.5044,E,0.8,209.01,180812,A*68,Svalue,243
$GPRMC,85033,A,3956.3668,N,11624.5044,E,0.51,197.9,180812,A*64,Svalue,243
$GPRMC,85034,A,3956.3671,N,11624.5044,E,0.97,218.84,180812,A*60,Svalue,242
$GPRMC,85035,A,3956.3674,N,11624.5043,E,0.71,218.59,180812,A*6B,Svalue,242
$GPRMC,85036,A,3956.3674,N,11624.5039,E,0.91,210.68,180812,A*61,Svalue,242
$GPRMC,85037,A,3956.3675,N,11624.5037,E,0.88,218.18,180812,A*68,Svalue,241
$GPRMC,85038,A,3956.3676,N,11624.5036,E,0.91,211.14,180812,A*68,Svalue,241
$GPRMC,85039,A,3956.3676,N,11624.5034,E,0.61,183.83,180812,A*62,Svalue,241
$GPRMC,85040,A,3956.3675,N,11624.5032,E,0.61,215.76,180812,A*6F,Svalue,241
$GPRMC,85041,A,3956.3676,N,11624.5031,E,0.23,97.14,180812,A*54,Svalue,240
$GPRMC,85042,A,3956.3676,N,11624.503,E,0.12,118.29,180812,A*6C,Svalue,240
$GPRMC,85043,A,3956.368,N,11624.5033,E,0.39,85.34,180812,A*57,Svalue,240
$GPRMC,85044,A,3956.3681,N,11624.5033,E,0.25,88.81,180812,A*5F,Svalue,240
$GPRMC,85045,A,3956.3683,N,11624.5034,E,0.19,89.27,180812,A*59,Svalue,239
$GPRMC,85046,A,3956.3685,N,11624.5033,E,0.65,228.89,180812,A*6D,Svalue,239
$GPRMC,85047,A,3956.3686,N,11624.5032,E,0.27,238.7,180812,A*6F,Svalue,239
$GPRMC,85048,A,3956.3688,N,11624.5032,E,0.4,162.94,180812,A*69,Svalue,239
$GPRMC,85049,A,3956.3689,N,11624.5031,E,0.14,237.82,180812,A*6F,Svalue,239
$GPRMC,85050,A,3956.3691,N,11624.5031,E,0.37,22.97,180812,A*5D,Svalue,239
$GPRMC,85051,A,3956.3694,N,11624.5031,E,0.23,334.51,180812,A*62,Svalue,238
$GPRMC,85052,A,3956.3697,N,11624.5032,E,0.29,279.91,180812,A*6F,Svalue,238
$GPRMC,85053,A,3956.3699,N,11624.5032,E,0.27,16.76,180812,A*5C,Svalue,238
$GPRMC,85054,A,3956.3701,N,11624.5033,E,0.03,263.69,180812,A*62,Svalue,238
$GPRMC,85055,A,3956.3703,N,11624.5034,E,0.67,27.07,180812,A*5E,Svalue,238
$GPRMC,85056,A,3956.3705,N,11624.5036,E,0.49,29.78,180812,A*53,Svalue,237
$GPRMC,85057,A,3956.3708,N,11624.5038,E,0.58,35.6,180812,A*55,Svalue,237
$GPRMC,85058,A,3956.3708,N,11624.504,E,0.17,147.25,180812,A*6B,Svalue,237
$GPRMC,85059,A,3956.3708,N,11624.5041,E,0.23,84.04,180812,A*51,Svalue,237
$GPRMC,85100,A,3956.3707,N,11624.504,E,0.37,101.68,180812,A*61,Svalue,237
$GPRMC,85101,A,3956.3705,N,11624.5039,E,0.27,124.55,180812,A*64,Svalue,236
$GPRMC,85102,A,3956.3704,N,11624.5038,E,0.35,80.71,180812,A*5D,Svalue,236
$GPRMC,85103,A,3956.3703,N,11624.5038,E,0.35,74.18,180812,A*5F,Svalue,236
$GPRMC,85104,A,3956.3702,N,11624.5039,E,0.14,110.08,180812,A*69,Svalue,236
$GPRMC,85105,A,3956.3701,N,11624.504,E,0.27,155.38,180812,A*67,Svalue,235
$GPRMC,85106,A,3956.37,N,11624.504,E,0.24,184.47,180812,A*62,Svalue,235
$GPRMC,85107,A,3956.3701,N,11624.5042,E,0.57,44.01,180812,A*5B,Svalue,235
$GPRMC,85108,A,3956.3702,N,11624.5045,E,0.54,40.28,180812,A*5C,Svalue,235
$GPRMC,85109,A,3956.3704,N,11624.5048,E,0.93,43.52,180812,A*53,Svalue,235
$GPRMC,85110,A,3956.3707,N,11624.5051,E,0.87,43.71,180812,A*54,Svalue,235
$GPRMC,85111,A,3956.3709,N,11624.5054,E,0.7,49.63,180812,A*5F,Svalue,236
$GPRMC,85112,A,3956.3712,N,11624.5057,E,0.47,51.38,180812,A*56,Svalue,236
$GPRMC,85113,A,3956.3714,N,11624.5059,E,0.45,61.17,180812,A*53,Svalue,237
$GPRMC,85114,A,3956.3716,N,11624.5061,E,0.12,106.75,180812,A*6B,Svalue,237
$GPRMC,85115,A,3956.3717,N,11624.5062,E,0.13,56.55,180812,A*5F,Svalue,237
$GPRMC,85116,A,3956.3718,N,11624.5063,E,0.07,207.31,180812,A*63,Svalue,237
$GPRMC,85117,A,3956.3719,N,11624.5064,E,0.35,40.09,180812,A*5F,Svalue,238
$GPRMC,85118,A,3956.3722,N,11624.5067,E,0.76,42.95,180812,A*5B,Svalue,238
$GPRMC,85119,A,3956.3724,N,11624.5069,E,0.67,41.54,180812,A*5C,Svalue,238
$GPRMC,85120,A,3956.3725,N,11624.5071,E,0.21,82.47,180812,A*51,Svalue,238
$GPRMC,85121,A,3956.3723,N,11624.5069,E,0.32,58.33,180812,A*59,Svalue,238
$GPRMC,85122,A,3956.3723,N,11624.5068,E,0.13,120.52,180812,A*61,Svalue,239
$GPRMC,85123,A,3956.3724,N,11624.5067,E,0.34,33.75,180812,A*5B,Svalue,239
$GPRMC,85124,A,3956.3725,N,11624.5067,E,0.18,338.17,180812,A*6F,Svalue,239
$GPRMC,85125,A,3956.3726,N,11624.5067,E,0.45,9.13,180812,A*60,Svalue,239
$GPRMC,85126,A,3956.3728,N,11624.5069,E,0.47,17.72,180812,A*59,Svalue,239
$GPRMC,85127,A,3956.373,N,11624.507,E,0.65,41.41,180812,A*5A,Svalue,239
$GPRMC,85128,A,3956.3731,N,11624.5071,E,0.49,64.3,180812,A*5A,Svalue,239
$GPRMC,85129,A,3956.3733,N,11624.5073,E,0.45,57.07,180812,A*53,Svalue,239
$GPRMC,85130,A,3956.3737,N,11624.5076,E,0.45,52.57,180812,A*5A,Svalue,239
$GPRMC,85131,A,3956.374,N,11624.5078,E,0.65,45.79,180812,A*5D,Svalue,239
$GPRMC,85132,A,3956.3742,N,11624.508,E,0.47,49.85,180812,A*54,Svalue,239
$GPRMC,85133,A,3956.3744,N,11624.5082,E,0.79,43.63,180812,A*5E,Svalue,239
$GPRMC,85134,A,3956.3746,N,11624.5084,E,0.5,40.55,180812,A*50,Svalue,239
$GPRMC,85135,A,3956.3747,N,11624.5086,E,0.88,40.92,180812,A*5C,Svalue,239
$GPRMC,85136,A,3956.3749,N,11624.5088,E,0.56,47.73,180812,A*54,Svalue,239
$GPRMC,85137,A,3956.3752,N,11624.5091,E,1.13,37.44,180812,A*54,Svalue,239
$GPRMC,85138,A,3956.3754,N,11624.5093,E,0.7,42.43,180812,A*5E,Svalue,239
$GPRMC,85139,A,3956.3756,N,11624.5096,E,0.98,44.6,180812,A*59,Svalue,239
$GPRMC,85140,A,3956.3757,N,11624.5097,E,0.64,44.1,180812,A*53,Svalue,239
$GPRMC,85141,A,3956.3758,N,11624.5099,E,1.14,46.86,180812,A*58,Svalue,239
$GPRMC,85142,A,3956.3759,N,11624.5101,E,0.76,46.26,180812,A*55,Svalue,238
$GPRMC,85143,A,3956.3759,N,11624.5102,E,0.83,47.18,180812,A*51,Svalue,238
$GPRMC,85144,A,3956.3759,N,11624.5103,E,0.91,43.28,180812,A*53,Svalue,238
$GPRMC,85145,A,3956.3758,N,11624.5105,E,0.87,46.02,180812,A*5F,Svalue,238
$GPRMC,85146,A,3956.3757,N,11624.5105,E,0.16,78.23,180812,A*55,Svalue,238
$GPRMC,85147,A,3956.3755,N,11624.5104,E,0.22,76.12,180812,A*5C,Svalue,238
$GPRMC,85148,A,3956.3755,N,11624.5105,E,0.51,45.96,180812,A*5A,Svalue,237
$GPRMC,85149,A,3956.3754,N,11624.5105,E,0.22,68.92,180812,A*55,Svalue,237
$GPRMC,85150,A,3956.3753,N,11624.5104,E,0.22,58.2,180812,A*51,Svalue,237
$GPRMC,85151,A,3956.3753,N,11624.5104,E,0.54,47.06,180812,A*5B,Svalue,237
$GPRMC,85152,A,3956.3752,N,11624.5103,E,0.24,41.65,180812,A*5A,Svalue,237
$GPRMC,85153,A,3956.3753,N,11624.51,E,0.1,236.9,180812,A*66,Svalue,237
$GPRMC,85154,A,3956.3751,N,11624.5098,E,0.1,78.85,180812,A*5F,Svalue,237
$GPRMC,85155,A,3956.3748,N,11624.5094,E,0.47,207.99,180812,A*6F,Svalue,237
$GPRMC,85156,A,3956.3746,N,11624.5091,E,0.26,199.63,180812,A*61,Svalue,237
$GPRMC,85157,A,3956.3744,N,11624.5087,E,0.25,220.55,180812,A*62,Svalue,237
$GPRMC,85158,A,3956.3743,N,11624.5084,E,0.45,244.62,180812,A*69,Svalue,237
$GPRMC,85159,A,3956.3741,N,11624.5079,E,0.6,237.98,180812,A*6E,Svalue,237
$GPRMC,85200,A,3956.3741,N,11624.5077,E,0.1,185.65,180812,A*60,Svalue,237
$GPRMC,85201,A,3956.3741,N,11624.5076,E,0.34,102.39,180812,A*60,Svalue,237
$GPRMC,85202,A,3956.3739,N,11624.5074,E,0.44,84.59,180812,A*50,Svalue,237
$GPRMC,85203,A,3956.3738,N,11624.5073,E,0.55,92.44,180812,A*5C,Svalue,237
$GPRMC,85204,A,3956.3734,N,11624.5068,E,0.17,170.63,180812,A*63,Svalue,237
$GPRMC,85205,A,3956.3731,N,11624.5063,E,0.06,169.26,180812,A*65,Svalue,237
$GPRMC,85206,A,3956.3728,N,11624.5057,E,0.28,218.71,180812,A*62,Svalue,237
$GPRMC,85207,A,3956.3723,N,11624.505,E,0.31,207.65,180812,A*6C,Svalue,237
$GPRMC,85208,A,3956.372,N,11624.5045,E,0.57,219.59,180812,A*64,Svalue,237
$GPRMC,85209,A,3956.3716,N,11624.504,E,0.2,178.68,180812,A*63,Svalue,237
$GPRMC,85210,A,3956.3714,N,11624.5036,E,0.39,213.82,180812,A*6A,Svalue,237
$GPRMC,85211,A,3956.3711,N,11624.5032,E,0.4,220.29,180812,A*65,Svalue,237
$GPRMC,85212,A,3956.3709,N,11624.5028,E,0.66,231.76,180812,A*6A,Svalue,237
$GPRMC,85213,A,3956.3705,N,11624.5022,E,0.89,233.03,180812,A*6C,Svalue,237
$GPRMC,85214,A,3956.3703,N,11624.5019,E,0.53,225.67,180812,A*67,Svalue,237
$GPRMC,85215,A,3956.3703,N,11624.5018,E,0.26,199.55,180812,A*60,Svalue,237
$GPRMC,85216,A,3956.3702,N,11624.5016,E,0.27,190.3,180812,A*67,Svalue,237
$GPRMC,85217,A,3956.3703,N,11624.5017,E,0.26,195.44,180812,A*61,Svalue,237
$GPRMC,85218,A,3956.3703,N,11624.5017,E,0.19,147.47,180812,A*6E,Svalue,237
$GPRMC,85219,A,3956.3703,N,11624.5017,E,0.32,93.89,180812,A*5C,Svalue,237
$GPRMC,85220,A,3956.3705,N,11624.5021,E,0.35,104.5,180812,A*69,Svalue,237
$GPRMC,85221,A,3956.3708,N,11624.5024,E,0.32,108.33,180812,A*6E,Svalue,237
$GPRMC,85222,A,3956.3707,N,11624.5024,E,0.21,89.6,180812,A*5E,Svalue,237
$GPRMC,85223,A,3956.3709,N,11624.5027,E,0.74,64.33,180812,A*57,Svalue,237
$GPRMC,85224,A,3956.3704,N,11624.5022,E,0.09,220.28,180812,A*6A,Svalue,237
$GPRMC,85225,A,3956.3696,N,11624.5013,E,0.48,239.11,180812,A*64,Svalue,237
$GPRMC,85226,A,3956.369,N,11624.5006,E,0.14,161.66,180812,A*62,Svalue,237
$GPRMC,85227,A,3956.3681,N,11624.4998,E,0.17,209.1,180812,A*63,Svalue,237
$GPRMC,85228,A,3956.3676,N,11624.4993,E,0.32,197.16,180812,A*6A,Svalue,236
$GPRMC,85229,A,3956.3673,N,11624.4991,E,0.36,196.61,180812,A*69,Svalue,236
$GPRMC,85230,A,3956.3673,N,11624.4991,E,0.34,199.67,180812,A*6A,Svalue,236
$GPRMC,85231,A,3956.3675,N,11624.4995,E,0.21,139.74,180812,A*65,Svalue,236
$GPRMC,85232,A,3956.3675,N,11624.4995,E,0.5,208.09,180812,A*6B,Svalue,236
$GPRMC,85233,A,3956.3674,N,11624.4995,E,0.29,189.99,180812,A*66,Svalue,236
$GPRMC,85234,A,3956.3669,N,11624.4991,E,0.44,220.96,180812,A*6D,Svalue,236
$GPRMC,85235,A,3956.3668,N,11624.4991,E,0.35,185.43,180812,A*6F,Svalue,236
$GPRMC,85236,A,3956.3664,N,11624.4988,E,0.17,170.94,180812,A*68,Svalue,236
$GPRMC,85237,A,3956.3664,N,11624.4989,E,0.24,183.32,180812,A*68,Svalue,235
$GPRMC,85238,A,3956.3661,N,11624.4988,E,0.29,197.33,180812,A*6A,Svalue,235
$GPRMC,85239,A,3956.3655,N,11624.4982,E,0.34,203.94,180812,A*69,Svalue,235
$GPRMC,85240,A,3956.3654,N,11624.4982,E,0.18,195.28,180812,A*63,Svalue,235
$GPRMC,85241,A,3956.3652,N,11624.4982,E,0.34,197.65,180812,A*61,Svalue,235
$GPRMC,85242,A,3956.3652,N,11624.498,E,0.33,209.43,180812,A*67,Svalue,234
$GPRMC,85243,A,3956.3652,N,11624.4978,E,0.37,207.02,180812,A*6E,Svalue,234
$GPRMC,85244,A,3956.3653,N,11624.4979,E,0.13,156.2,180812,A*68,Svalue,234
$GPRMC,85245,A,3956.3653,N,11624.4979,E,0.17,146.92,180812,A*65,Svalue,234
$GPRMC,85246,A,3956.3655,N,11624.498,E,0.38,212.92,180812,A*69,Svalue,234
$GPRMC,85247,A,3956.3654,N,11624.4979,E,0.35,209.15,180812,A*67,Svalue,234
$GPRMC,85248,A,3956.3656,N,11624.498,E,1.15,222.4,180812,A*66,Svalue,234
$GPRMC,85249,A,3956.3654,N,11624.4978,E,0.93,219.85,180812,A*6C,Svalue,234
$GPRMC,85250,A,3956.3657,N,11624.4982,E,0.83,222.36,180812,A*63,Svalue,234
$GPRMC,85251,A,3956.3661,N,11624.4986,E,0.07,171.74,180812,A*6C,Svalue,234
$GPRMC,85252,A,3956.3665,N,11624.4991,E,0.26,81.84,180812,A*5F,Svalue,234
$GPRMC,85253,A,3956.3668,N,11624.4995,E,0.17,143.75,180812,A*64,Svalue,234
$GPRMC,85254,A,3956.367,N,11624.4996,E,0.22,75.4,180812,A*5D,Svalue,234
$GPRMC,85255,A,3956.3683,N,11624.5009,E,0.16,62.71,180812,A*5D,Svalue,235
$GPRMC,85256,A,3956.369,N,11624.5016,E,0.45,227.99,180812,A*61,Svalue,235
$GPRMC,85257,A,3956.3694,N,11624.502,E,0.19,227.79,180812,A*66,Svalue,235
$GPRMC,85258,A,3956.3697,N,11624.5022,E,0.08,225.49,180812,A*69,Svalue,235
$GPRMC,85259,A,3956.37,N,11624.5027,E,0.27,64.77,180812,A*55,Svalue,234
$GPRMC,85300,A,3956.3703,N,11624.5031,E,0.03,24.22,180812,A*5E,Svalue,235
$GPRMC,85301,A,3956.3705,N,11624.5034,E,0.25,68.48,180812,A*5C,Svalue,235
$GPRMC,85302,A,3956.3707,N,11624.5036,E,0.02,281.9,180812,A*6A,Svalue,236
$GPRMC,85303,A,3956.3707,N,11624.5037,E,0.16,69.45,180812,A*53,Svalue,237
$GPRMC,85304,A,3956.3706,N,11624.5037,E,0.02,126.84,180812,A*67,Svalue,238
$GPRMC,85305,A,3956.3704,N,11624.5036,E,0.33,71,180812,A*58,Svalue,238
$GPRMC,85306,A,3956.3703,N,11624.5037,E,0.55,65.11,180812,A*58,Svalue,239
$GPRMC,85307,A,3956.3704,N,11624.5039,E,0.83,63.6,180812,A*5B,Svalue,239
$GPRMC,85308,A,3956.3703,N,11624.504,E,0.51,65.84,180812,A*5E,Svalue,239
$GPRMC,85309,A,3956.3702,N,11624.5041,E,0.76,60.78,180812,A*5C,Svalue,239
$GPRMC,85310,A,3956.3702,N,11624.5042,E,0.08,97.62,180812,A*5D,Svalue,240
$GPRMC,85311,A,3956.3701,N,11624.5042,E,0.07,203.29,180812,A*60,Svalue,240
$GPRMC,85312,A,3956.37,N,11624.5042,E,0.16,202.18,180812,A*61,Svalue,240
$GPRMC,85313,A,3956.3698,N,11624.5041,E,0.43,63.52,180812,A*58,Svalue,241
$GPRMC,85314,A,3956.3695,N,11624.504,E,0.08,161.34,180812,A*6F,Svalue,241
$GPRMC,85315,A,3956.3694,N,11624.504,E,0.33,62.37,180812,A*56,Svalue,241
$GPRMC,85316,A,3956.3694,N,11624.504,E,0.14,179.45,180812,A*6E,Svalue,241
$GPRMC,85317,A,3956.3693,N,11624.504,E,0.15,148.12,180812,A*69,Svalue,241
$GPRMC,85318,A,3956.3693,N,11624.5041,E,0.16,178.45,180812,A*65,Svalue,241
$GPRMC,85319,A,3956.3693,N,11624.5041,E,0.27,61.02,180812,A*5C,Svalue,241
$GPRMC,85320,A,3956.3695,N,11624.5041,E,0.41,5.74,180812,A*63,Svalue,241
$GPRMC,85321,A,3956.3695,N,11624.5042,E,0.88,12.04,180812,A*55,Svalue,241
$GPRMC,85322,A,3956.3696,N,11624.5043,E,0.58,22.72,180812,A*5B,Svalue,241
$GPRMC,85323,A,3956.3696,N,11624.5043,E,0.56,12.37,180812,A*56,Svalue,241
$GPRMC,85324,A,3956.3695,N,11624.5044,E,0.34,167.56,180812,A*65,Svalue,241
$GPRMC,85325,A,3956.369,N,11624.5043,E,0.86,182.46,180812,A*65,Svalue,241
$GPRMC,85326,A,3956.3686,N,11624.5042,E,0.71,190.21,180812,A*6A,Svalue,241
$GPRMC,85327,A,3956.3684,N,11624.5042,E,0.21,41.15,180812,A*56,Svalue,241
$GPRMC,85328,A,3956.3683,N,11624.5042,E,0.13,346.43,180812,A*68,Svalue,241
$GPRMC,85329,A,3956.3682,N,11624.5042,E,0.11,343.36,180812,A*6D,Svalue,241
$GPRMC,85330,A,3956.3683,N,11624.5043,E,0.86,9.74,180812,A*60,Svalue,241
$GPRMC,85331,A,3956.3684,N,11624.5045,E,0.63,358.93,180812,A*65,Svalue,241
$GPRMC,85332,A,3956.3689,N,11624.5048,E,0.96,7.34,180812,A*68,Svalue,241
$GPRMC,85333,A,3956.3693,N,11624.5051,E,0.95,5.33,180812,A*6C,Svalue,241
$GPRMC,85334,A,3956.3696,N,11624.5055,E,0.29,333.15,180812,A*6F,Svalue,242
$GPRMC,85335,A,3956.3697,N,11624.5057,E,0.33,175.97,180812,A*6C,Svalue,242
$GPRMC,85336,A,3956.3697,N,11624.5059,E,0.32,130.98,180812,A*6E,Svalue,243
$GPRMC,85337,A,3956.3699,N,11624.5061,E,0.26,227.26,180812,A*6F,Svalue,244
$GPRMC,85338,A,3956.3699,N,11624.5061,E,0.29,223.88,180812,A*6F,Svalue,246
$GPRMC,85339,A,3956.3698,N,11624.506,E,0.56,238.53,180812,A*6A,Svalue,263
$GPRMC,85340,A,3956.3695,N,11624.5054,E,0.78,292.6,180812,A*62,Svalue,266
$GPRMC,85341,A,3956.3694,N,11624.5049,E,0.96,271.81,180812,A*6C,Svalue,266
$GPRMC,85342,A,3956.3693,N,11624.5044,E,0.66,289.35,180812,A*62,Svalue,265
$GPRMC,85343,A,3956.3692,N,11624.5043,E,0.39,17.22,180812,A*5C,Svalue,264
$GPRMC,85344,A,3956.3692,N,11624.5042,E,0.99,337.34,180812,A*66,Svalue,263
$GPRMC,85345,A,3956.3693,N,11624.5039,E,0.9,318.22,180812,A*69,Svalue,262
$GPRMC,85346,A,3956.3692,N,11624.5033,E,1.02,305.69,180812,A*68,Svalue,260
$GPRMC,85347,A,3956.3691,N,11624.5027,E,1.26,298.71,180812,A*65,Svalue,258
$GPRMC,85348,A,3956.3685,N,11624.5012,E,2.86,267.53,180812,A*60,Svalue,256
$GPRMC,85349,A,3956.3678,N,11624.4994,E,2.66,267.79,180812,A*63,Svalue,255
$GPRMC,85350,A,3956.3673,N,11624.498,E,3.14,253.46,180812,A*6A,Svalue,254
$GPRMC,85351,A,3956.3672,N,11624.4969,E,3.31,262.37,180812,A*6E,Svalue,253
$GPRMC,85352,A,3956.367,N,11624.4955,E,3.82,262.43,180812,A*6B,Svalue,252
$GPRMC,85353,A,3956.3667,N,11624.4938,E,3.81,272.01,180812,A*63,Svalue,251
$GPRMC,85354,A,3956.3665,N,11624.4919,E,4.23,267.35,180812,A*69,Svalue,250
$GPRMC,85355,A,3956.3661,N,11624.49,E,4.23,264.98,180812,A*60,Svalue,249
$GPRMC,85356,A,3956.3657,N,11624.488,E,4.26,267.89,180812,A*69,Svalue,248
$GPRMC,85357,A,3956.3654,N,11624.486,E,4.38,266.05,180812,A*6F,Svalue,247
$GPRMC,85358,A,3956.3651,N,11624.4842,E,3.79,261.33,180812,A*65,Svalue,246
$GPRMC,85359,A,3956.3645,N,11624.4818,E,3.91,267.32,180812,A*6F,Svalue,246
$GPRMC,85400,A,3956.3637,N,11624.4793,E,4.37,267.98,180812,A*66,Svalue,245
$GPRMC,85401,A,3956.363,N,11624.4766,E,4.44,266.09,180812,A*67,Svalue,244
$GPRMC,85402,A,3956.3623,N,11624.4739,E,4.57,268.01,180812,A*68,Svalue,243
$GPRMC,85403,A,3956.3624,N,11624.4722,E,4.24,270.04,180812,A*6C,Svalue,243
$GPRMC,85404,A,3956.3623,N,11624.4705,E,4.16,267.68,180812,A*64,Svalue,244
$GPRMC,85405,A,3956.362,N,11624.4686,E,3.84,267.63,180812,A*6B,Svalue,244
$GPRMC,85406,A,3956.3616,N,11624.4667,E,3.68,261.2,180812,A*61,Svalue,244
$GPRMC,85407,A,3956.3616,N,11624.4653,E,3.34,270.92,180812,A*67,Svalue,245
$GPRMC,85408,A,3956.3618,N,11624.4641,E,3.04,279.73,180812,A*60,Svalue,246
$GPRMC,85409,A,3956.3622,N,11624.4631,E,2.97,291.9,180812,A*6F,Svalue,247
$GPRMC,85410,A,3956.3625,N,11624.4621,E,2.99,287.6,180812,A*67,Svalue,248
$GPRMC,85411,A,3956.363,N,11624.4613,E,2.74,295.36,180812,A*60,Svalue,249
$GPRMC,85412,A,3956.3636,N,11624.4607,E,2.95,306.02,180812,A*63,Svalue,250
$GPRMC,85413,A,3956.3643,N,11624.4599,E,3.31,300.47,180812,A*6C,Svalue,250
$GPRMC,85414,A,3956.3652,N,11624.4592,E,3.4,318.23,180812,A*6D,Svalue,250
$GPRMC,85415,A,3956.3664,N,11624.4587,E,3.92,331,180812,A*68,Svalue,251
$GPRMC,85416,A,3956.3676,N,11624.4582,E,4.29,335.07,180812,A*69,Svalue,251
$GPRMC,85417,A,3956.3688,N,11624.4572,E,4.82,331.74,180812,A*67,Svalue,251
$GPRMC,85418,A,3956.3696,N,11624.4555,E,5.09,326.08,180812,A*6D,Svalue,251
$GPRMC,85419,A,3956.3703,N,11624.4536,E,5.12,316.18,180812,A*6C,Svalue,251
$GPRMC,85420,A,3956.3711,N,11624.4517,E,5.26,315.42,180812,A*6D,Svalue,251
$GPRMC,85421,A,3956.3719,N,11624.4499,E,5.39,316.61,180812,A*6F,Svalue,251
$GPRMC,85422,A,3956.3728,N,11624.448,E,5.6,309.12,180812,A*60,Svalue,250
$GPRMC,85423,A,3956.3736,N,11624.4459,E,5.82,299.82,180812,A*67,Svalue,249
$GPRMC,85424,A,3956.3741,N,11624.4435,E,6.22,294.35,180812,A*62,Svalue,248
$GPRMC,85425,A,3956.3745,N,11624.441,E,6.08,284.99,180812,A*6F,Svalue,247
$GPRMC,85426,A,3956.3746,N,11624.4386,E,6.2,274.84,180812,A*6E,Svalue,247
$GPRMC,85427,A,3956.3745,N,11624.4361,E,6.22,270.85,180812,A*62,Svalue,246
$GPRMC,85428,A,3956.3745,N,11624.4336,E,6.35,268.54,180812,A*6C,Svalue,245
$GPRMC,85429,A,3956.3744,N,11624.431,E,6.21,268.66,180812,A*6C,Svalue,245
$GPRMC,85430,A,3956.3742,N,11624.4285,E,6.5,271.56,180812,A*62,Svalue,243
$GPRMC,85431,A,3956.3737,N,11624.426,E,5.97,266.64,180812,A*65,Svalue,242
$GPRMC,85432,A,3956.3733,N,11624.4237,E,5.7,255.49,180812,A*66,Svalue,241
$GPRMC,85433,A,3956.3731,N,11624.4216,E,5.71,267.51,180812,A*6F,Svalue,240
$GPRMC,85434,A,3956.373,N,11624.4193,E,5.77,268.53,180812,A*6C,Svalue,240
$GPRMC,85435,A,3956.3728,N,11624.4171,E,5.58,252.37,180812,A*6E,Svalue,240
$GPRMC,85436,A,3956.3724,N,11624.415,E,5.46,256.66,180812,A*6D,Svalue,239
$GPRMC,85437,A,3956.3719,N,11624.4129,E,5.71,260.92,180812,A*66,Svalue,239
$GPRMC,85438,A,3956.3716,N,11624.4108,E,5.61,263.1,180812,A*6D,Svalue,239
$GPRMC,85439,A,3956.3713,N,11624.4087,E,5.38,257.3,180812,A*66,Svalue,239
$GPRMC,85440,A,3956.3711,N,11624.4065,E,5.57,265.07,180812,A*6A,Svalue,240
$GPRMC,85441,A,3956.3711,N,11624.4042,E,5.48,265.82,180812,A*6D,Svalue,242
$GPRMC,85442,A,3956.3709,N,11624.402,E,5.77,265.49,180812,A*68,Svalue,243
$GPRMC,85443,A,3956.3707,N,11624.3996,E,5.76,270.9,180812,A*65,Svalue,243
$GPRMC,85444,A,3956.3706,N,11624.3971,E,6,270.13,180812,A*63,Svalue,247
$GPRMC,85445,A,3956.3706,N,11624.3946,E,6.1,274.75,180812,A*63,Svalue,249
$GPRMC,85446,A,3956.3708,N,11624.3922,E,6.32,270.06,180812,A*6C,Svalue,248
$GPRMC,85447,A,3956.371,N,11624.3898,E,5.95,270.84,180812,A*60,Svalue,247
$GPRMC,85448,A,3956.3712,N,11624.3873,E,6.37,268.31,180812,A*64,Svalue,246
$GPRMC,85449,A,3956.3712,N,11624.3847,E,6.3,267.37,180812,A*6C,Svalue,247
$GPRMC,85450,A,3956.3713,N,11624.3821,E,6.5,272.84,180812,A*6F,Svalue,248
$GPRMC,85451,A,3956.371,N,11624.3798,E,6.19,266.36,180812,A*61,Svalue,248
$GPRMC,85452,A,3956.3708,N,11624.3773,E,6.37,273.56,180812,A*60,Svalue,247
$GPRMC,85453,A,3956.371,N,11624.3745,E,6.46,273.7,180812,A*6F,Svalue,244
$GPRMC,85454,A,3956.3709,N,11624.3719,E,6.24,273.07,180812,A*6D,Svalue,240
$GPRMC,85455,A,3956.371,N,11624.3693,E,6.21,273.02,180812,A*67,Svalue,244
$GPRMC,85456,A,3956.3713,N,11624.3669,E,5.92,271.06,180812,A*6F,Svalue,242
$GPRMC,85457,A,3956.3714,N,11624.3646,E,6.23,268.34,180812,A*64,Svalue,241
$GPRMC,85458,A,3956.3715,N,11624.3624,E,6.08,267.79,180812,A*61,Svalue,240
$GPRMC,85459,A,3956.3712,N,11624.3603,E,5.74,263.4,180812,A*64,Svalue,238
$GPRMC,85500,A,3956.3711,N,11624.3582,E,5.64,263.32,180812,A*64,Svalue,239
$GPRMC,85501,A,3956.371,N,11624.356,E,5.49,262.82,180812,A*6D,Svalue,240
$GPRMC,85502,A,3956.3708,N,11624.3539,E,5.57,271.63,180812,A*69,Svalue,241
$GPRMC,85503,A,3956.3706,N,11624.352,E,5.02,264.52,180812,A*68,Svalue,240
$GPRMC,85504,A,3956.3704,N,11624.3502,E,4.93,266.39,180812,A*6B,Svalue,241
$GPRMC,85505,A,3956.3698,N,11624.3485,E,4.86,261.81,180812,A*60,Svalue,240
$GPRMC,85506,A,3956.3696,N,11624.3467,E,5.07,271.42,180812,A*67,Svalue,242
$GPRMC,85507,A,3956.3692,N,11624.3449,E,4.87,260.87,180812,A*6E,Svalue,243
$GPRMC,85508,A,3956.3691,N,11624.3429,E,4.95,268.46,180812,A*62,Svalue,244
$GPRMC,85509,A,3956.3692,N,11624.3409,E,5.3,269.74,180812,A*6C,Svalue,245
$GPRMC,85510,A,3956.3694,N,11624.3388,E,5.66,271.99,180812,A*65,Svalue,245
$GPRMC,85511,A,3956.3697,N,11624.3366,E,5.81,267.57,180812,A*6B,Svalue,245
$GPRMC,85512,A,3956.3696,N,11624.3345,E,5.75,263.03,180812,A*66,Svalue,246
$GPRMC,85513,A,3956.3697,N,11624.3322,E,5.78,256.74,180812,A*6C,Svalue,246
$GPRMC,85514,A,3956.3696,N,11624.33,E,5.75,253.44,180812,A*61,Svalue,246
$GPRMC,85515,A,3956.3692,N,11624.328,E,5.69,259.23,180812,A*6B,Svalue,248
$GPRMC,85516,A,3956.3691,N,11624.3258,E,5.88,262.8,180812,A*60,Svalue,251
$GPRMC,85517,A,3956.369,N,11624.3236,E,5.98,263.88,180812,A*60,Svalue,252
$GPRMC,85518,A,3956.3691,N,11624.3212,E,6.11,260.75,180812,A*6B,Svalue,254
$GPRMC,85519,A,3956.3692,N,11624.3188,E,5.88,261.83,180812,A*62,Svalue,254
$GPRMC,85520,A,3956.3694,N,11624.3163,E,6.12,263.35,180812,A*64,Svalue,255
$GPRMC,85521,A,3956.3694,N,11624.3139,E,6.19,269.73,180812,A*69,Svalue,256
$GPRMC,85522,A,3956.3696,N,11624.3113,E,6.14,271.54,180812,A*61,Svalue,257
$GPRMC,85523,A,3956.3695,N,11624.3089,E,5.93,267.36,180812,A*6E,Svalue,258
$GPRMC,85524,A,3956.3695,N,11624.3063,E,6.07,273.27,180812,A*66,Svalue,258
$GPRMC,85525,A,3956.3691,N,11624.3038,E,6.23,271.33,180812,A*6C,Svalue,258
$GPRMC,85526,A,3956.3689,N,11624.3015,E,6.08,274.32,180812,A*64,Svalue,257
$GPRMC,85527,A,3956.3689,N,11624.2992,E,6.14,273,180812,A*69,Svalue,257
$GPRMC,85528,A,3956.3692,N,11624.2969,E,6.26,274.03,180812,A*6D,Svalue,258
$GPRMC,85529,A,3956.3694,N,11624.2945,E,6.5,266.53,180812,A*63,Svalue,257
$GPRMC,85530,A,3956.3695,N,11624.292,E,6.58,264.88,180812,A*65,Svalue,256
$GPRMC,85531,A,3956.3695,N,11624.2897,E,6.2,269.96,180812,A*64,Svalue,255
$GPRMC,85532,A,3956.3696,N,11624.2875,E,5.69,271.38,180812,A*6B,Svalue,253
$GPRMC,85533,A,3956.3697,N,11624.2855,E,4.83,271.73,180812,A*63,Svalue,252
$GPRMC,85534,A,3956.3699,N,11624.2836,E,5.04,271.25,180812,A*62,Svalue,251
$GPRMC,85535,A,3956.3703,N,11624.2816,E,5.44,274.45,180812,A*64,Svalue,249
$GPRMC,85536,A,3956.3704,N,11624.2795,E,5.47,266.82,180812,A*6F,Svalue,250
$GPRMC,85537,A,3956.3704,N,11624.2774,E,5.93,265.4,180812,A*65,Svalue,248
$GPRMC,85538,A,3956.3703,N,11624.2752,E,6.2,263.52,180812,A*67,Svalue,247
$GPRMC,85539,A,3956.3703,N,11624.2729,E,6.24,267.93,180812,A*67,Svalue,248
$GPRMC,85540,A,3956.3703,N,11624.2706,E,6.3,266.39,180812,A*60,Svalue,248
$GPRMC,85541,A,3956.3704,N,11624.2683,E,6.12,266.49,180812,A*6D,Svalue,248
$GPRMC,85542,A,3956.3704,N,11624.2661,E,5.94,266.45,180812,A*63,Svalue,250
$GPRMC,85543,A,3956.3704,N,11624.2638,E,6.08,267.14,180812,A*6D,Svalue,249
$GPRMC,85544,A,3956.3705,N,11624.2615,E,6.16,268.19,180812,A*69,Svalue,250
$GPRMC,85545,A,3956.3706,N,11624.2592,E,6.21,269.05,180812,A*6F,Svalue,253
$GPRMC,85546,A,3956.3706,N,11624.2569,E,6.43,269.81,180812,A*60,Svalue,254
$GPRMC,85547,A,3956.3708,N,11624.2545,E,6.55,272.09,180812,A*6C,Svalue,254
$GPRMC,85548,A,3956.3708,N,11624.2522,E,6.32,270.81,180812,A*61,Svalue,255
$GPRMC,85549,A,3956.3709,N,11624.2499,E,6.31,272.3,180812,A*6B,Svalue,256
$GPRMC,85550,A,3956.3711,N,11624.2475,E,6.53,270.46,180812,A*6F,Svalue,254
$GPRMC,85551,A,3956.3713,N,11624.245,E,6.49,269.24,180812,A*6C,Svalue,252
$GPRMC,85552,A,3956.3715,N,11624.2425,E,6.33,273.55,180812,A*6B,Svalue,251
$GPRMC,85553,A,3956.3717,N,11624.2401,E,6.58,274.23,180812,A*65,Svalue,250
$GPRMC,85554,A,3956.3717,N,11624.2378,E,6.13,269.22,180812,A*69,Svalue,248
$GPRMC,85555,A,3956.3715,N,11624.2356,E,5.74,266.38,180812,A*60,Svalue,249
$GPRMC,85556,A,3956.3713,N,11624.2335,E,5.52,267.4,180812,A*6A,Svalue,252
$GPRMC,85557,A,3956.3712,N,11624.2315,E,5.27,268.66,180812,A*61,Svalue,253
$GPRMC,85558,A,3956.3711,N,11624.2296,E,5.37,270.19,180812,A*67,Svalue,249
$GPRMC,85559,A,3956.3711,N,11624.2276,E,5.43,272.59,180812,A*6D,Svalue,250
$GPRMC,85600,A,3956.371,N,11624.2257,E,5.34,271.82,180812,A*65,Svalue,251
$GPRMC,85601,A,3956.3707,N,11624.2238,E,5.29,260.99,180812,A*6D,Svalue,252
$GPRMC,85602,A,3956.3703,N,11624.2219,E,5.26,257.04,180812,A*66,Svalue,251
$GPRMC,85603,A,3956.3701,N,11624.2201,E,4.77,259.77,180812,A*63,Svalue,249
$GPRMC,85604,A,3956.3699,N,11624.2183,E,5.04,261.9,180812,A*6A,Svalue,249
$GPRMC,85605,A,3956.3698,N,11624.2164,E,5.09,265.85,180812,A*6E,Svalue,247
$GPRMC,85606,A,3956.3698,N,11624.2145,E,5.24,271.31,180812,A*6B,Svalue,247
$GPRMC,85607,A,3956.3699,N,11624.2125,E,5.44,270.62,180812,A*6C,Svalue,248
$GPRMC,85608,A,3956.3701,N,11624.2105,E,5.5,270.01,180812,A*61,Svalue,249
$GPRMC,85609,A,3956.3701,N,11624.2085,E,5.49,268.95,180812,A*65,Svalue,247
$GPRMC,85610,A,3956.3702,N,11624.2064,E,5.56,269.94,180812,A*6F,Svalue,247
$GPRMC,85611,A,3956.3703,N,11624.2043,E,5.67,266.59,180812,A*66,Svalue,247
$GPRMC,85612,A,3956.3703,N,11624.2022,E,5.55,266.07,180812,A*68,Svalue,247
$GPRMC,85613,A,3956.3704,N,11624.2001,E,5.68,265.79,180812,A*6B,Svalue,247
$GPRMC,85614,A,3956.3705,N,11624.1981,E,5.1,269.46,180812,A*60,Svalue,249
$GPRMC,85615,A,3956.3705,N,11624.1963,E,4.84,268.87,180812,A*6D,Svalue,251
$GPRMC,85616,A,3956.3706,N,11624.1946,E,4.43,268.3,180812,A*6D,Svalue,253
$GPRMC,85617,A,3956.3706,N,11624.193,E,4.35,266.46,180812,A*63,Svalue,255
$GPRMC,85618,A,3956.3706,N,11624.1913,E,4.71,268.27,180812,A*64,Svalue,257
$GPRMC,85619,A,3956.3707,N,11624.1895,E,5.26,267.24,180812,A*64,Svalue,259
$GPRMC,85620,A,3956.3707,N,11624.1875,E,5.33,266.83,180812,A*68,Svalue,260
$GPRMC,85621,A,3956.3706,N,11624.1857,E,5.01,260.74,180812,A*67,Svalue,261
$GPRMC,85622,A,3956.3705,N,11624.1838,E,5.05,266.11,180812,A*6F,Svalue,262
$GPRMC,85623,A,3956.3704,N,11624.1818,E,5.41,266.18,180812,A*64,Svalue,262
$GPRMC,85624,A,3956.3707,N,11624.1798,E,5.43,277.46,180812,A*6E,Svalue,261
$GPRMC,85625,A,3956.3709,N,11624.1778,E,5.56,270.8,180812,A*66,Svalue,261
$GPRMC,85626,A,3956.3709,N,11624.1757,E,5.71,264.59,180812,A*6C,Svalue,261
$GPRMC,85627,A,3956.371,N,11624.1736,E,5.72,270.38,180812,A*63,Svalue,261
$GPRMC,85628,A,3956.371,N,11624.1715,E,5.5,271.78,180812,A*68,Svalue,262
$GPRMC,85629,A,3956.3713,N,11624.1695,E,5.35,275.03,180812,A*68,Svalue,262
$GPRMC,85630,A,3956.3714,N,11624.1676,E,5.12,269.33,180812,A*61,Svalue,263
$GPRMC,85631,A,3956.3715,N,11624.1658,E,4.83,269.03,180812,A*67,Svalue,262
$GPRMC,85632,A,3956.3716,N,11624.1641,E,4.48,271.71,180812,A*64,Svalue,262
$GPRMC,85633,A,3956.3717,N,11624.1624,E,4.38,271.19,180812,A*6E,Svalue,262
$GPRMC,85634,A,3956.3718,N,11624.1608,E,4.25,269.73,180812,A*61,Svalue,262
$GPRMC,85635,A,3956.3718,N,11624.1593,E,4.14,271.96,180812,A*61,Svalue,261
$GPRMC,85636,A,3956.3718,N,11624.1578,E,3.78,265.63,180812,A*65,Svalue,261
$GPRMC,85637,A,3956.3718,N,11624.1565,E,3.07,269.53,180812,A*6F,Svalue,262
$GPRMC,85638,A,3956.3718,N,11624.1554,E,2.82,279.97,180812,A*67,Svalue,262
$GPRMC,85639,A,3956.372,N,11624.1545,E,2.34,293.57,180812,A*68,Svalue,261
$GPRMC,85640,A,3956.3722,N,11624.1541,E,0.56,332.64,180812,A*6C,Svalue,261
$GPRMC,85641,A,3956.3723,N,11624.154,E,0.07,204.75,180812,A*6D,Svalue,261
$GPRMC,85642,A,3956.3723,N,11624.154,E,0.12,214.92,180812,A*62,Svalue,261
$GPRMC,85643,A,3956.3722,N,11624.154,E,0.19,252.91,180812,A*68,Svalue,260
$GPRMC,85644,A,3956.3723,N,11624.1538,E,0.4,342.66,180812,A*65,Svalue,260
$GPRMC,85645,A,3956.3723,N,11624.1538,E,0.21,10.58,180812,A*5A,Svalue,260
$GPRMC,85646,A,3956.3723,N,11624.1538,E,0.12,32.82,180812,A*5E,Svalue,259
$GPRMC,85647,A,3956.3723,N,11624.1538,E,0.08,232.59,180812,A*60,Svalue,259
$GPRMC,85648,A,3956.3723,N,11624.1538,E,0.09,81.92,180812,A*53,Svalue,258
$GPRMC,85649,A,3956.3723,N,11624.1538,E,0.03,193.88,180812,A*61,Svalue,258
$GPRMC,85650,A,3956.3724,N,11624.1538,E,0.24,15.38,180812,A*5F,Svalue,257
$GPRMC,85651,A,3956.3724,N,11624.1538,E,0.23,47.07,180812,A*52,Svalue,257
$GPRMC,85652,A,3956.3725,N,11624.1538,E,0.27,18.04,180812,A*5D,Svalue,256
$GPRMC,85653,A,3956.3725,N,11624.1538,E,0.16,102.53,180812,A*66,Svalue,256
$GPRMC,85654,A,3956.3727,N,11624.1537,E,0.3,356.63,180812,A*68,Svalue,255
$GPRMC,85655,A,3956.3728,N,11624.1536,E,0.14,27.52,180812,A*56,Svalue,255
$GPRMC,85656,A,3956.3727,N,11624.1537,E,0.49,151.81,180812,A*6D,Svalue,254
$GPRMC,85657,A,3956.3725,N,11624.1538,E,0.17,126.12,180812,A*60,Svalue,254
$GPRMC,85658,A,3956.3724,N,11624.1539,E,0.18,48.22,180812,A*5A,Svalue,254
$GPRMC,85659,A,3956.3724,N,11624.154,E,0.24,12.55,180812,A*55,Svalue,253
$GPRMC,85700,A,3956.3722,N,11624.1541,E,0.07,57.32,180812,A*5E,Svalue,253
$GPRMC,85701,A,3956.3721,N,11624.1542,E,0.05,29.54,180812,A*54,Svalue,253
$GPRMC,85702,A,3956.3719,N,11624.1543,E,0.47,142.71,180812,A*60,Svalue,252
$GPRMC,85703,A,3956.3718,N,11624.1544,E,0.1,42.24,180812,A*54,Svalue,252
$GPRMC,85704,A,3956.3717,N,11624.1545,E,0.19,28.47,180812,A*5D,Svalue,252
$GPRMC,85705,A,3956.3717,N,11624.1546,E,0.36,13.27,180812,A*5C,Svalue,252
$GPRMC,85706,A,3956.3716,N,11624.1547,E,0.37,11.88,180812,A*59,Svalue,252
$GPRMC,85707,A,3956.3716,N,11624.1548,E,0.18,31.77,180812,A*58,Svalue,251
$GPRMC,85708,A,3956.3715,N,11624.1549,E,0.15,19.02,180812,A*50,Svalue,251
$GPRMC,85709,A,3956.3715,N,11624.1549,E,0.23,3.78,180812,A*62,Svalue,251
$GPRMC,85710,A,3956.3713,N,11624.155,E,0.1,118.02,180812,A*62,Svalue,251
$GPRMC,85711,A,3956.3712,N,11624.1551,E,0.26,151.22,180812,A*69,Svalue,251
$GPRMC,85712,A,3956.3711,N,11624.1552,E,0.24,141.79,180812,A*67,Svalue,250
$GPRMC,85713,A,3956.371,N,11624.1553,E,0.1,88.98,180812,A*5A,Svalue,250
$GPRMC,85714,A,3956.3709,N,11624.1554,E,0.17,25.96,180812,A*5C,Svalue,250
$GPRMC,85715,A,3956.3709,N,11624.1554,E,0.22,21.3,180812,A*53,Svalue,250
$GPRMC,85716,A,3956.3709,N,11624.1555,E,0.15,136.85,180812,A*6C,Svalue,250
$GPRMC,85717,A,3956.3708,N,11624.1556,E,0.31,151.76,180812,A*64,Svalue,250
$GPRMC,85718,A,3956.3706,N,11624.1557,E,0.43,159.24,180812,A*6E,Svalue,249
$GPRMC,85719,A,3956.3704,N,11624.1558,E,0.48,159.42,180812,A*69,Svalue,249
$GPRMC,85720,A,3956.3701,N,11624.1559,E,0.27,146.09,180812,A*6F,Svalue,249
$GPRMC,85721,A,3956.37,N,11624.156,E,0.23,146.72,180812,A*6D,Svalue,249
$GPRMC,85722,A,3956.3698,N,11624.1561,E,0.21,145.4,180812,A*6F,Svalue,249
$GPRMC,85723,A,3956.3696,N,11624.1562,E,0.22,145.71,180812,A*62,Svalue,249
$GPRMC,85724,A,3956.3695,N,11624.1563,E,0.22,144.61,180812,A*67,Svalue,248
$GPRMC,85725,A,3956.3694,N,11624.1564,E,0.11,54.59,180812,A*5B,Svalue,248
$GPRMC,85726,A,3956.3693,N,11624.1564,E,0.16,40.84,180812,A*5D,Svalue,248
$GPRMC,85727,A,3956.3693,N,11624.1565,E,0.16,152.03,180812,A*60,Svalue,248
$GPRMC,85728,A,3956.3691,N,11624.1566,E,0.4,165.03,180812,A*69,Svalue,249
$GPRMC,85729,A,3956.3691,N,11624.1566,E,0.13,27.41,180812,A*5F,Svalue,250
$GPRMC,85730,A,3956.369,N,11624.1567,E,0.13,107.46,180812,A*63,Svalue,251
$GPRMC,85731,A,3956.3689,N,11624.1567,E,0.14,145.25,180812,A*6E,Svalue,251
$GPRMC,85732,A,3956.3688,N,11624.1567,E,0.11,99.9,180812,A*57,Svalue,257
$GPRMC,85733,A,3956.3686,N,11624.1568,E,0.27,159.6,180812,A*60,Svalue,262
$GPRMC,85734,A,3956.3686,N,11624.1568,E,0.27,161.45,180812,A*6B,Svalue,262
$GPRMC,85735,A,3956.3685,N,11624.1568,E,0.13,127.7,180812,A*6A,Svalue,262
$GPRMC,85736,A,3956.3685,N,11624.1568,E,0.1,61.99,180812,A*5E,Svalue,261
$GPRMC,85737,A,3956.3685,N,11624.1568,E,0.13,50.08,180812,A*56,Svalue,261
$GPRMC,85738,A,3956.3686,N,11624.1567,E,0.21,21.2,180812,A*58,Svalue,260
$GPRMC,85739,A,3956.3686,N,11624.1568,E,0.05,88.34,180812,A*56,Svalue,262
$GPRMC,85740,A,3956.3686,N,11624.1568,E,0.17,168.06,180812,A*65,Svalue,262
$GPRMC,85741,A,3956.3686,N,11624.1568,E,0.14,97.12,180812,A*53,Svalue,263
$GPRMC,85742,A,3956.3685,N,11624.1568,E,0.6,164.05,180812,A*6B,Svalue,263
$GPRMC,85743,A,3956.3684,N,11624.1568,E,0.4,170.66,180812,A*69,Svalue,264
$GPRMC,85744,A,3956.3685,N,11624.1566,E,0.28,307.7,180812,A*6A,Svalue,265
$GPRMC,85745,A,3956.3687,N,11624.1565,E,0.22,20.78,180812,A*5E,Svalue,266
$GPRMC,85746,A,3956.3688,N,11624.1564,E,0.61,342.63,180812,A*69,Svalue,269
$GPRMC,85747,A,3956.3691,N,11624.1562,E,0.22,343.99,180812,A*65,Svalue,272
$GPRMC,85748,A,3956.3691,N,11624.1562,E,0.1,82.39,180812,A*5F,Svalue,274
$GPRMC,85749,A,3956.3688,N,11624.1564,E,0.38,122.1,180812,A*6A,Svalue,276
$GPRMC,85750,A,3956.3688,N,11624.1564,E,0.2,331.61,180812,A*6D,Svalue,277
$GPRMC,85751,A,3956.369,N,11624.1563,E,0.33,351.03,180812,A*62,Svalue,278
$GPRMC,85752,A,3956.3692,N,11624.1562,E,0.18,10.98,180812,A*5F,Svalue,278
$GPRMC,85753,A,3956.3694,N,11624.156,E,0.52,343.27,180812,A*65,Svalue,277
$GPRMC,85754,A,3956.3698,N,11624.1558,E,1.43,342.56,180812,A*63,Svalue,276
$GPRMC,85755,A,3956.3703,N,11624.1555,E,1.2,340.82,180812,A*62,Svalue,275
$GPRMC,85756,A,3956.3707,N,11624.1552,E,0.99,338.06,180812,A*62,Svalue,274
$GPRMC,85757,A,3956.371,N,11624.155,E,1.46,337.95,180812,A*61,Svalue,274
$GPRMC,85758,A,3956.371,N,11624.155,E,0.78,344.16,180812,A*6D,Svalue,274
$GPRMC,85759,A,3956.371,N,11624.1549,E,0.26,77.34,180812,A*5C,Svalue,274
$GPRMC,85800,A,3956.3706,N,11624.1552,E,0.13,78.71,180812,A*5A,Svalue,273
$GPRMC,85801,A,3956.3702,N,11624.1555,E,0.14,42.48,180812,A*5C,Svalue,272
$GPRMC,85802,A,3956.3698,N,11624.1556,E,0.11,5.66,180812,A*64,Svalue,272
$GPRMC,85803,A,3956.3695,N,11624.1558,E,0.19,350.21,180812,A*6E,Svalue,271
$GPRMC,85804,A,3956.3695,N,11624.1557,E,0.06,115.35,180812,A*6E,Svalue,271
$GPRMC,85805,A,3956.369,N,11624.156,E,0.3,152.07,180812,A*69,Svalue,270
$GPRMC,85806,A,3956.369,N,11624.1559,E,0.02,188.1,180812,A*60,Svalue,270
$GPRMC,85807,A,3956.369,N,11624.1559,E,0.15,357.51,180812,A*62,Svalue,270
$GPRMC,85808,A,3956.369,N,11624.1558,E,0.11,100.48,180812,A*60,Svalue,269
$GPRMC,85809,A,3956.3692,N,11624.1556,E,0.17,319.6,180812,A*6B,Svalue,269
$GPRMC,85810,A,3956.3694,N,11624.1555,E,0.36,342.23,180812,A*6C,Svalue,268
$GPRMC,85811,A,3956.3692,N,11624.1555,E,0.05,56.23,180812,A*5D,Svalue,268
$GPRMC,85812,A,3956.3691,N,11624.1555,E,0.2,345.71,180812,A*6C,Svalue,267
$GPRMC,85813,A,3956.3691,N,11624.1555,E,0.12,355.9,180812,A*62,Svalue,267
$GPRMC,85814,A,3956.3693,N,11624.1554,E,0.69,336.17,180812,A*60,Svalue,266
$GPRMC,85815,A,3956.3694,N,11624.1554,E,0.52,339.97,180812,A*69,Svalue,266
$GPRMC,85816,A,3956.3694,N,11624.1554,E,0.31,338.81,180812,A*69,Svalue,266
$GPRMC,85817,A,3956.3693,N,11624.1555,E,0.45,345.02,180812,A*6C,Svalue,266
$GPRMC,85818,A,3956.3691,N,11624.1558,E,0.37,91.93,180812,A*5B,Svalue,266
$GPRMC,85819,A,3956.369,N,11624.1559,E,0.26,125.3,180812,A*6D,Svalue,266
$GPRMC,85820,A,3956.3691,N,11624.1559,E,0.24,302.17,180812,A*66,Svalue,266
$GPRMC,85821,A,3956.369,N,11624.1558,E,0.23,156.65,180812,A*66,Svalue,267
$GPRMC,85822,A,3956.3688,N,11624.1559,E,0.55,176.57,180812,A*6F,Svalue,268
$GPRMC,85823,A,3956.3687,N,11624.1559,E,0.6,170.82,180812,A*69,Svalue,267
$GPRMC,85824,A,3956.3691,N,11624.1556,E,0.59,306.71,180812,A*63,Svalue,267
$GPRMC,85825,A,3956.3691,N,11624.1554,E,0.87,261.94,180812,A*68,Svalue,266
$GPRMC,85826,A,3956.3693,N,11624.1551,E,0.35,215.33,180812,A*6B,Svalue,266
$GPRMC,85827,A,3956.3695,N,11624.1549,E,0.33,212.19,180812,A*6C,Svalue,266
$GPRMC,85828,A,3956.3697,N,11624.1546,E,1.08,267.91,180812,A*65,Svalue,266
$GPRMC,85829,A,3956.3698,N,11624.1539,E,1.67,274.67,180812,A*61,Svalue,266
$GPRMC,85830,A,3956.3701,N,11624.1531,E,1.92,280.72,180812,A*65,Svalue,266
$GPRMC,85831,A,3956.3702,N,11624.1524,E,1.39,290.86,180812,A*68,Svalue,266
$GPRMC,85832,A,3956.3704,N,11624.1518,E,1.34,298.24,180812,A*6F,Svalue,266
$GPRMC,85833,A,3956.3707,N,11624.1513,E,1.19,317.18,180812,A*60,Svalue,265
$GPRMC,85834,A,3956.3709,N,11624.151,E,0.48,257.99,180812,A*63,Svalue,265
$GPRMC,85835,A,3956.3709,N,11624.1509,E,0.76,175.85,180812,A*69,Svalue,265
$GPRMC,85836,A,3956.3709,N,11624.1507,E,0.07,241.72,180812,A*6E,Svalue,265
$GPRMC,85837,A,3956.3713,N,11624.1505,E,0.35,156.28,180812,A*6D,Svalue,265
$GPRMC,85838,A,3956.3714,N,11624.1503,E,0.08,244.29,180812,A*6C,Svalue,265
$GPRMC,85839,A,3956.3715,N,11624.1502,E,0.39,333.9,180812,A*6C,Svalue,264
$GPRMC,85840,A,3956.3719,N,11624.1499,E,0.6,327.23,180812,A*6C,Svalue,264
$GPRMC,85841,A,3956.3721,N,11624.1498,E,0.03,152.34,180812,A*64,Svalue,263
$GPRMC,85842,A,3956.3722,N,11624.1497,E,0.47,354.56,180812,A*6B,Svalue,263
$GPRMC,85843,A,3956.3723,N,11624.1498,E,0.2,115.79,180812,A*6F,Svalue,263
$GPRMC,85844,A,3956.3722,N,11624.1498,E,0.4,150.75,180812,A*62,Svalue,263
$GPRMC,85845,A,3956.3722,N,11624.1499,E,0.42,354.28,180812,A*6E,Svalue,262
$GPRMC,85846,A,3956.3721,N,11624.1501,E,0.26,14.56,180812,A*52,Svalue,262
$GPRMC,85847,A,3956.3721,N,11624.1502,E,0.49,138.22,180812,A*65,Svalue,262
$GPRMC,85848,A,3956.372,N,11624.1502,E,0.61,333.19,180812,A*60,Svalue,262
$GPRMC,85849,A,3956.3723,N,11624.15,E,0.74,330.62,180812,A*6B,Svalue,262
$GPRMC,85850,A,3956.3725,N,11624.1499,E,1.02,334.21,180812,A*67,Svalue,261
$GPRMC,85851,A,3956.3725,N,11624.1498,E,0.52,329.54,180812,A*6D,Svalue,261
$GPRMC,85852,A,3956.3724,N,11624.1498,E,0.09,335.27,180812,A*68,Svalue,262
$GPRMC,85853,A,3956.3721,N,11624.15,E,0.95,145.16,180812,A*6E,Svalue,262
$GPRMC,85854,A,3956.3715,N,11624.1504,E,0.99,143.71,180812,A*61,Svalue,262
$GPRMC,85855,A,3956.371,N,11624.1507,E,0.84,155.92,180812,A*60,Svalue,262
$GPRMC,85856,A,3956.3706,N,11624.1508,E,0.03,262.73,180812,A*6C,Svalue,262
$GPRMC,85857,A,3956.3704,N,11624.1509,E,0.39,164.27,180812,A*63,Svalue,262
$GPRMC,85858,A,3956.3701,N,11624.151,E,0.6,155.95,180812,A*66,Svalue,262
$GPRMC,85859,A,3956.3698,N,11624.151,E,0.22,216.76,180812,A*69,Svalue,262
$GPRMC,85900,A,3956.3695,N,11624.1511,E,0.56,143.83,180812,A*62,Svalue,262
$GPRMC,85901,A,3956.3692,N,11624.1512,E,0.54,156.93,180812,A*60,Svalue,262
$GPRMC,85902,A,3956.3689,N,11624.1514,E,0.46,153.56,180812,A*60,Svalue,262
$GPRMC,85903,A,3956.3686,N,11624.1516,E,0.57,156.16,180812,A*6D,Svalue,261
$GPRMC,85904,A,3956.3683,N,11624.1518,E,0.63,157.33,180812,A*60,Svalue,260
$GPRMC,85905,A,3956.368,N,11624.152,E,0.38,136.1,180812,A*61,Svalue,260
$GPRMC,85906,A,3956.3679,N,11624.1521,E,0.32,151.81,180812,A*66,Svalue,259
$GPRMC,85907,A,3956.3678,N,11624.1522,E,0.16,126.4,180812,A*6E,Svalue,259
$GPRMC,85908,A,3956.3676,N,11624.1523,E,0.19,147.67,180812,A*63,Svalue,258
$GPRMC,85909,A,3956.3676,N,11624.1523,E,0.29,145.35,180812,A*64,Svalue,257
$GPRMC,85910,A,3956.3675,N,11624.1524,E,0.32,137.98,180812,A*60,Svalue,257
$GPRMC,85911,A,3956.3674,N,11624.1524,E,0.3,138.99,180812,A*6C,Svalue,256
$GPRMC,85912,A,3956.3672,N,11624.1526,E,0.35,137.36,180812,A*64,Svalue,256
$GPRMC,85913,A,3956.3675,N,11624.1523,E,0.24,339.86,180812,A*60,Svalue,255
$GPRMC,85914,A,3956.368,N,11624.1517,E,1.67,290.92,180812,A*6B,Svalue,255
$GPRMC,85915,A,3956.3683,N,11624.151,E,1.47,268.8,180812,A*68,Svalue,254
$GPRMC,85916,A,3956.3684,N,11624.1505,E,0.94,234.14,180812,A*63,Svalue,253
$GPRMC,85917,A,3956.3686,N,11624.15,E,1.21,263.64,180812,A*6F,Svalue,253
$GPRMC,85918,A,3956.3687,N,11624.1494,E,1.34,244.49,180812,A*63,Svalue,252
$GPRMC,85919,A,3956.3687,N,11624.149,E,0.56,259.18,180812,A*6B,Svalue,252
$GPRMC,85920,A,3956.3688,N,11624.1486,E,0.78,239.2,180812,A*68,Svalue,252
$GPRMC,85921,A,3956.369,N,11624.1484,E,0.26,114.82,180812,A*6D,Svalue,252
$GPRMC,85922,A,3956.3691,N,11624.1483,E,0.25,143.22,180812,A*63,Svalue,251
$GPRMC,85923,A,3956.3692,N,11624.1482,E,0.92,143.33,180812,A*6C,Svalue,251
$GPRMC,85924,A,3956.3691,N,11624.1483,E,0.59,142.33,180812,A*6F,Svalue,251
$GPRMC,85925,A,3956.3691,N,11624.1483,E,0.38,161.83,180812,A*63,Svalue,251
$GPRMC,85926,A,3956.3693,N,11624.1481,E,0.28,318.39,180812,A*6C,Svalue,251
$GPRMC,85927,A,3956.3697,N,11624.1477,E,0.37,339.97,180812,A*69,Svalue,250
$GPRMC,85928,A,3956.3699,N,11624.1476,E,0.18,62.94,180812,A*5A,Svalue,250
$GPRMC,85929,A,3956.3702,N,11624.1474,E,0.21,24.21,180812,A*5C,Svalue,250
$GPRMC,85930,A,3956.3705,N,11624.1472,E,0.08,15.78,180812,A*50,Svalue,250
$GPRMC,85931,A,3956.371,N,11624.1469,E,0.45,349.55,180812,A*63,Svalue,250
$GPRMC,85932,A,3956.3712,N,11624.1467,E,0.25,4.29,180812,A*6B,Svalue,249
$GPRMC,85933,A,3956.371,N,11624.1468,E,0.61,189.17,180812,A*6E,Svalue,249
$GPRMC,85934,A,3956.3709,N,11624.1464,E,2.05,261.53,180812,A*68,Svalue,249
$GPRMC,85935,A,3956.3711,N,11624.1454,E,2.07,277.92,180812,A*6B,Svalue,249
$GPRMC,85936,A,3956.3714,N,11624.1447,E,1.54,301.67,180812,A*60,Svalue,249
$GPRMC,85937,A,3956.3715,N,11624.1441,E,2.1,269.45,180812,A*6A,Svalue,248
$GPRMC,85938,A,3956.3714,N,11624.1435,E,1.88,255.21,180812,A*68,Svalue,248
$GPRMC,85939,A,3956.3714,N,11624.1427,E,2.44,249.03,180812,A*64,Svalue,248
$GPRMC,85940,A,3956.3714,N,11624.1417,E,2.31,264.12,180812,A*64,Svalue,248
$GPRMC,85941,A,3956.371,N,11624.141,E,2.65,234.37,180812,A*65,Svalue,248
$GPRMC,85942,A,3956.3705,N,11624.1402,E,2.78,240.9,180812,A*63,Svalue,248
$GPRMC,85943,A,3956.3702,N,11624.1392,E,3.02,249.64,180812,A*65,Svalue,247
$GPRMC,85944,A,3956.3697,N,11624.1383,E,2.97,248.16,180812,A*66,Svalue,246
$GPRMC,85945,A,3956.3693,N,11624.1372,E,3.43,251.6,180812,A*6C,Svalue,245
$GPRMC,85946,A,3956.3689,N,11624.1362,E,3.31,259.75,180812,A*6C,Svalue,245
$GPRMC,85947,A,3956.3684,N,11624.1352,E,3.54,253.9,180812,A*61,Svalue,244
$GPRMC,85948,A,3956.3679,N,11624.1342,E,3.08,238.34,180812,A*67,Svalue,245
$GPRMC,85949,A,3956.3676,N,11624.1332,E,3.3,244.97,180812,A*67,Svalue,244
$GPRMC,85950,A,3956.3671,N,11624.1321,E,3.08,238.24,180812,A*62,Svalue,244
$GPRMC,85951,A,3956.3667,N,11624.1312,E,2.99,249.44,180812,A*6D,Svalue,244
$GPRMC,85952,A,3956.3665,N,11624.13,E,3.26,247.98,180812,A*65,Svalue,245
$GPRMC,85953,A,3956.3663,N,11624.1289,E,3.19,254.77,180812,A*6D,Svalue,246
$GPRMC,85954,A,3956.3662,N,11624.1276,E,3.55,261.12,180812,A*66,Svalue,247
$GPRMC,85955,A,3956.3661,N,11624.1263,E,3.27,267.1,180812,A*61,Svalue,245
$GPRMC,85956,A,3956.3664,N,11624.1251,E,3.34,290.02,180812,A*6F,Svalue,243
$GPRMC,85957,A,3956.3667,N,11624.1237,E,3.56,279.18,180812,A*65,Svalue,241
$GPRMC,85958,A,3956.3666,N,11624.1222,E,4.25,260.66,180812,A*6D,Svalue,240
$GPRMC,85959,A,3956.3664,N,11624.1206,E,4.39,261.29,180812,A*6F,Svalue,239
$GPRMC,90000,A,3956.3663,N,11624.1188,E,4.55,270.44,180812,A*6D,Svalue,239
$GPRMC,90001,A,3956.3665,N,11624.1166,E,4.87,272.54,180812,A*66,Svalue,240
$GPRMC,90002,A,3956.3666,N,11624.1147,E,4.62,266.52,180812,A*6D,Svalue,240
$GPRMC,90003,A,3956.3666,N,11624.1128,E,4.79,267.16,180812,A*6E,Svalue,240
$GPRMC,90004,A,3956.3669,N,11624.1107,E,5.12,268.6,180812,A*69,Svalue,240
$GPRMC,90005,A,3956.367,N,11624.1085,E,4.82,260.91,180812,A*65,Svalue,240
$GPRMC,90006,A,3956.367,N,11624.1066,E,4.77,257.35,180812,A*6B,Svalue,242
$GPRMC,90007,A,3956.367,N,11624.1046,E,4.81,254.06,180812,A*62,Svalue,244
$GPRMC,90008,A,3956.3669,N,11624.1026,E,4.56,260.01,180812,A*69,Svalue,244
$GPRMC,90009,A,3956.3667,N,11624.1006,E,4.87,266.6,180812,A*69,Svalue,245
$GPRMC,90010,A,3956.3667,N,11624.0985,E,4.66,257.74,180812,A*6A,Svalue,245
$GPRMC,90011,A,3956.3667,N,11624.0964,E,5.13,262.49,180812,A*6F,Svalue,246
$GPRMC,90012,A,3956.3668,N,11624.0942,E,5.32,262.95,180812,A*65,Svalue,248
$GPRMC,90013,A,3956.367,N,11624.0919,E,5.41,260.33,180812,A*69,Svalue,249
$GPRMC,90014,A,3956.3672,N,11624.0896,E,5.52,270.69,180812,A*66,Svalue,249
$GPRMC,90015,A,3956.3678,N,11624.0871,E,6,275.18,180812,A*63,Svalue,250
$GPRMC,90016,A,3956.3679,N,11624.0848,E,5.99,271.98,180812,A*64,Svalue,251
$GPRMC,90017,A,3956.3683,N,11624.0823,E,6.11,277.31,180812,A*6B,Svalue,251
$GPRMC,90018,A,3956.3684,N,11624.0801,E,5.74,264.81,180812,A*6A,Svalue,252
$GPRMC,90019,A,3956.3682,N,11624.0779,E,5.61,267.54,180812,A*62,Svalue,252
$GPRMC,90020,A,3956.368,N,11624.0759,E,4.71,266.16,180812,A*6F,Svalue,252
$GPRMC,90021,A,3956.3678,N,11624.074,E,5.41,253.53,180812,A*64,Svalue,253
$GPRMC,90022,A,3956.3675,N,11624.072,E,5.2,250.54,180812,A*6F,Svalue,253
$GPRMC,90023,A,3956.3675,N,11624.0697,E,5.78,262.47,180812,A*6D,Svalue,254
$GPRMC,90024,A,3956.3675,N,11624.0675,E,4.91,261.34,180812,A*67,Svalue,256
$GPRMC,90025,A,3956.3673,N,11624.0658,E,3.99,252.52,180812,A*60,Svalue,257
$GPRMC,90026,A,3956.3672,N,11624.0641,E,3.87,256.89,180812,A*67,Svalue,258
$GPRMC,90027,A,3956.367,N,11624.0626,E,3.54,253.35,180812,A*69,Svalue,258
$GPRMC,90028,A,3956.367,N,11624.0609,E,4.35,258.1,180812,A*67,Svalue,258
$GPRMC,90029,A,3956.367,N,11624.059,E,4.81,268.1,180812,A*69,Svalue,257
$GPRMC,90030,A,3956.367,N,11624.0569,E,5.3,268.46,180812,A*6F,Svalue,256
$GPRMC,90031,A,3956.3671,N,11624.0546,E,5.43,263.15,180812,A*6B,Svalue,256
$GPRMC,90032,A,3956.367,N,11624.0525,E,4.97,253.71,180812,A*65,Svalue,256
$GPRMC,90033,A,3956.3664,N,11624.0506,E,4.89,244.78,180812,A*60,Svalue,255
$GPRMC,90034,A,3956.3661,N,11624.0486,E,5.11,248.78,180812,A*67,Svalue,253
$GPRMC,90035,A,3956.3657,N,11624.0467,E,5.12,249.25,180812,A*66,Svalue,253
$GPRMC,90036,A,3956.3653,N,11624.0448,E,5.2,250.29,180812,A*69,Svalue,252
$GPRMC,90037,A,3956.3651,N,11624.0427,E,5.27,255.26,180812,A*6E,Svalue,251
$GPRMC,90038,A,3956.3649,N,11624.0406,E,5.28,255.91,180812,A*68,Svalue,251
$GPRMC,90039,A,3956.3649,N,11624.0382,E,5.74,266.14,180812,A*66,Svalue,251
$GPRMC,90040,A,3956.3651,N,11624.0357,E,5.55,265.57,180812,A*6E,Svalue,252
$GPRMC,90041,A,3956.3651,N,11624.0337,E,4.77,259.86,180812,A*6B,Svalue,254
$GPRMC,90042,A,3956.3654,N,11624.0319,E,3.39,264.01,180812,A*6D,Svalue,256
$GPRMC,90043,A,3956.3653,N,11624.0305,E,2.76,265.55,180812,A*6C,Svalue,257
$GPRMC,90044,A,3956.365,N,11624.0295,E,2.82,252.2,180812,A*6D,Svalue,258
$GPRMC,90045,A,3956.3647,N,11624.0284,E,3.08,245.75,180812,A*6F,Svalue,258
$GPRMC,90046,A,3956.3646,N,11624.0272,E,2.97,275.71,180812,A*64,Svalue,258
$GPRMC,90047,A,3956.3647,N,11624.0259,E,3.47,264.89,180812,A*66,Svalue,259
$GPRMC,90048,A,3956.3644,N,11624.0243,E,4.03,258.88,180812,A*68,Svalue,259
$GPRMC,90049,A,3956.3644,N,11624.0226,E,4.5,254.89,180812,A*61,Svalue,259
$GPRMC,90050,A,3956.3641,N,11624.0208,E,4.74,250.83,180812,A*68,Svalue,259
$GPRMC,90051,A,3956.3637,N,11624.0187,E,5.05,259.09,180812,A*60,Svalue,260
$GPRMC,90052,A,3956.3636,N,11624.0168,E,4.9,265.06,180812,A*6E,Svalue,258
$GPRMC,90053,A,3956.3635,N,11624.0146,E,5.19,261.48,180812,A*6E,Svalue,257
$GPRMC,90054,A,3956.3636,N,11624.0125,E,4.96,251.72,180812,A*63,Svalue,258
$GPRMC,90055,A,3956.3635,N,11624.0104,E,5.37,263.25,180812,A*6B,Svalue,257
$GPRMC,90056,A,3956.3638,N,11624.0078,E,5.85,261.56,180812,A*60,Svalue,258
$GPRMC,90057,A,3956.3635,N,11624.0056,E,5.46,255.7,180812,A*6C,Svalue,258
$GPRMC,90058,A,3956.3635,N,11624.0033,E,5.52,258.57,180812,A*6D,Svalue,259
$GPRMC,90059,A,3956.3634,N,11624.001,E,5.98,260.34,180812,A*64,Svalue,260
$GPRMC,90100,A,3956.3636,N,11623.9985,E,5.81,261.36,180812,A*6B,Svalue,260
$GPRMC,90101,A,3956.3635,N,11623.9962,E,5.46,258.78,180812,A*6B,Svalue,261
$GPRMC,90102,A,3956.3633,N,11623.9939,E,5.44,253.58,180812,A*6B,Svalue,261
$GPRMC,90103,A,3956.3633,N,11623.9918,E,5.25,256.56,180812,A*65,Svalue,262
$GPRMC,90104,A,3956.3634,N,11623.9896,E,5.08,257.05,180812,A*6A,Svalue,262
$GPRMC,90105,A,3956.3638,N,11623.9874,E,4.93,257.49,180812,A*60,Svalue,262
$GPRMC,90106,A,3956.3636,N,11623.9856,E,4.69,258.86,180812,A*64,Svalue,262
$GPRMC,90107,A,3956.3636,N,11623.9838,E,4.31,259.71,180812,A*69,Svalue,262
$GPRMC,90108,A,3956.3637,N,11623.9819,E,4.51,260.43,180812,A*69,Svalue,262
$GPRMC,90109,A,3956.3639,N,11623.9799,E,4.97,265.63,180812,A*6C,Svalue,261
$GPRMC,90110,A,3956.3641,N,11623.9777,E,5.35,265.43,180812,A*60,Svalue,259
$GPRMC,90111,A,3956.3642,N,11623.9755,E,5.36,265.92,180812,A*6D,Svalue,259
$GPRMC,90112,A,3956.3641,N,11623.9734,E,5.21,256.54,180812,A*66,Svalue,258
$GPRMC,90113,A,3956.3643,N,11623.9712,E,5.02,264.31,180812,A*62,Svalue,257
$GPRMC,90114,A,3956.3641,N,11623.9692,E,5.19,254.88,180812,A*65,Svalue,256
$GPRMC,90115,A,3956.3639,N,11623.9671,E,5.1,254.7,180812,A*68,Svalue,256
$GPRMC,90116,A,3956.3637,N,11623.9651,E,4.73,254.83,180812,A*6F,Svalue,257
$GPRMC,90117,A,3956.3639,N,11623.9632,E,4.47,263.11,180812,A*6D,Svalue,257
$GPRMC,90118,A,3956.3641,N,11623.9612,E,4.56,265.22,180812,A*69,Svalue,258
$GPRMC,90119,A,3956.3642,N,11623.9595,E,4.14,267.21,180812,A*60,Svalue,258
$GPRMC,90120,A,3956.3643,N,11623.9577,E,3.95,267.17,180812,A*6C,Svalue,259
$GPRMC,90121,A,3956.3645,N,11623.956,E,3.85,255.52,180812,A*6C,Svalue,260
$GPRMC,90122,A,3956.3643,N,11623.9545,E,3.88,254.66,180812,A*65,Svalue,260
$GPRMC,90123,A,3956.3639,N,11623.9531,E,3.62,246.74,180812,A*6E,Svalue,261
$GPRMC,90124,A,3956.3638,N,11623.9516,E,3.89,255.39,180812,A*63,Svalue,263
$GPRMC,90125,A,3956.3639,N,11623.95,E,3.63,259.64,180812,A*64,Svalue,265
$GPRMC,90126,A,3956.364,N,11623.9486,E,3.16,266.08,180812,A*62,Svalue,268
$GPRMC,90127,A,3956.3642,N,11623.9473,E,2.85,270.47,180812,A*6C,Svalue,269
$GPRMC,90128,A,3956.3646,N,11623.9459,E,3.27,273.49,180812,A*6B,Svalue,270
$GPRMC,90129,A,3956.3651,N,11623.9445,E,3,278.66,180812,A*62,Svalue,270
$GPRMC,90130,A,3956.3655,N,11623.9436,E,1.21,310.53,180812,A*62,Svalue,270
$GPRMC,90131,A,3956.3658,N,11623.9432,E,0.29,356.1,180812,A*66,Svalue,270
$GPRMC,90132,A,3956.3661,N,11623.9429,E,0.08,234.88,180812,A*62,Svalue,270
$GPRMC,90133,A,3956.3664,N,11623.9425,E,0.06,59.8,180812,A*55,Svalue,269
$GPRMC,90134,A,3956.3666,N,11623.9423,E,0.24,161.36,180812,A*61,Svalue,269
$GPRMC,90135,A,3956.3669,N,11623.942,E,0.45,320.79,180812,A*67,Svalue,268
$GPRMC,90136,A,3956.3673,N,11623.9418,E,0.42,318.5,180812,A*63,Svalue,268
$GPRMC,90137,A,3956.3676,N,11623.9415,E,0.26,356.16,180812,A*60,Svalue,268
$GPRMC,90138,A,3956.3677,N,11623.9412,E,0.45,291.12,180812,A*62,Svalue,269
$GPRMC,90139,A,3956.3678,N,11623.9409,E,0.27,256.28,180812,A*60,Svalue,269
$GPRMC,90140,A,3956.3679,N,11623.9407,E,0.3,19.43,180812,A*53,Svalue,269
$GPRMC,90141,A,3956.368,N,11623.9408,E,0.81,72.87,180812,A*54,Svalue,268
$GPRMC,90142,A,3956.3682,N,11623.9408,E,0.39,69.38,180812,A*58,Svalue,268
$GPRMC,90143,A,3956.3684,N,11623.9406,E,0.1,80.32,180812,A*57,Svalue,269
$GPRMC,90144,A,3956.3686,N,11623.9404,E,0.31,282.78,180812,A*6D,Svalue,269
$GPRMC,90145,A,3956.3687,N,11623.94,E,0.1,335.83,180812,A*63,Svalue,270
$GPRMC,90146,A,3956.3688,N,11623.9398,E,0.31,248.56,180812,A*69,Svalue,270
$GPRMC,90147,A,3956.3689,N,11623.9396,E,0.34,213.38,180812,A*64,Svalue,270
$GPRMC,90148,A,3956.369,N,11623.9393,E,0.51,306.91,180812,A*63,Svalue,270
$GPRMC,90149,A,3956.3692,N,11623.9392,E,0.02,326.07,180812,A*6A,Svalue,270
$GPRMC,90150,A,3956.3693,N,11623.9391,E,0.13,62.31,180812,A*56,Svalue,269
$GPRMC,90151,A,3956.3693,N,11623.9392,E,0.37,110.99,180812,A*64,Svalue,269
$GPRMC,90152,A,3956.3694,N,11623.9391,E,0.33,328.56,180812,A*6D,Svalue,269
$GPRMC,90153,A,3956.3695,N,11623.939,E,0.28,336.92,180812,A*61,Svalue,269
$GPRMC,90154,A,3956.3696,N,11623.9389,E,0.09,198.61,180812,A*64,Svalue,269
$GPRMC,90155,A,3956.3696,N,11623.9389,E,0.57,117.3,180812,A*6D,Svalue,269
$GPRMC,90156,A,3956.3696,N,11623.9389,E,0.36,92.52,180812,A*51,Svalue,269
$GPRMC,90157,A,3956.3696,N,11623.9388,E,0.11,260.91,180812,A*64,Svalue,268
$GPRMC,90158,A,3956.3697,N,11623.9386,E,0.22,143.07,180812,A*69,Svalue,268
$GPRMC,90159,A,3956.3697,N,11623.9384,E,0.41,301.71,180812,A*6A,Svalue,268
$GPRMC,90200,A,3956.3698,N,11623.9381,E,0.41,341.7,180812,A*6A,Svalue,267
$GPRMC,90201,A,3956.37,N,11623.938,E,0.31,342.02,180812,A*6B,Svalue,267
$GPRMC,90202,A,3956.3701,N,11623.9379,E,0.1,216.17,180812,A*68,Svalue,266
$GPRMC,90203,A,3956.3701,N,11623.9379,E,0.34,122.01,180812,A*6C,Svalue,266
$GPRMC,90204,A,3956.3702,N,11623.9379,E,0.47,332.16,180812,A*69,Svalue,266
$GPRMC,90205,A,3956.3704,N,11623.9378,E,0.24,296.19,180812,A*6A,Svalue,265
$GPRMC,90206,A,3956.3704,N,11623.9377,E,0.14,343.32,180812,A*65,Svalue,265
$GPRMC,90207,A,3956.3704,N,11623.9376,E,0.27,359.19,180812,A*67,Svalue,264
$GPRMC,90208,A,3956.3704,N,11623.9374,E,0.35,284.31,180812,A*62,Svalue,264
$GPRMC,90209,A,3956.3705,N,11623.9374,E,0.02,130.68,180812,A*66,Svalue,264
$GPRMC,90210,A,3956.3705,N,11623.9372,E,0.37,256.12,180812,A*60,Svalue,264
$GPRMC,90211,A,3956.3706,N,11623.9372,E,0.09,325.11,180812,A*69,Svalue,263
$GPRMC,90212,A,3956.3706,N,11623.9373,E,0.35,59.45,180812,A*5D,Svalue,263
$GPRMC,90213,A,3956.3707,N,11623.9375,E,0.1,147.51,180812,A*67,Svalue,263
$GPRMC,90214,A,3956.3708,N,11623.9377,E,0.3,55.37,180812,A*5D,Svalue,262
$GPRMC,90215,A,3956.3709,N,11623.9378,E,0.06,213.99,180812,A*63,Svalue,261
$GPRMC,90216,A,3956.3709,N,11623.9379,E,0.05,102.03,180812,A*62,Svalue,261
$GPRMC,90217,A,3956.3709,N,11623.938,E,0.33,211.06,180812,A*64,Svalue,261
$GPRMC,90218,A,3956.3709,N,11623.9379,E,0.28,215.36,180812,A*60,Svalue,261
$GPRMC,90219,A,3956.3709,N,11623.9378,E,0.09,277.18,180812,A*6B,Svalue,260
$GPRMC,90220,A,3956.3709,N,11623.9379,E,0.43,156.1,180812,A*66,Svalue,260
$GPRMC,90221,A,3956.3708,N,11623.9381,E,0.42,62.46,180812,A*55,Svalue,259
$GPRMC,90222,A,3956.3708,N,11623.9384,E,0.48,64.47,180812,A*5E,Svalue,259
$GPRMC,90223,A,3956.3709,N,11623.9385,E,0.12,89.72,180812,A*55,Svalue,259
$GPRMC,90224,A,3956.371,N,11623.9387,E,0.3,87.53,180812,A*55,Svalue,258
$GPRMC,90225,A,3956.371,N,11623.9389,E,0.33,84.82,180812,A*56,Svalue,258
$GPRMC,90226,A,3956.371,N,11623.9391,E,0.4,87.67,180812,A*50,Svalue,258
$GPRMC,90227,A,3956.371,N,11623.9393,E,0.29,146.83,180812,A*6A,Svalue,257
$GPRMC,90228,A,3956.371,N,11623.9392,E,0.32,167.29,180812,A*6D,Svalue,257
$GPRMC,90229,A,3956.3709,N,11623.9391,E,0.02,125.23,180812,A*68,Svalue,257
$GPRMC,90230,A,3956.3708,N,11623.939,E,0.19,150.16,180812,A*6E,Svalue,257
$GPRMC,90231,A,3956.3707,N,11623.9389,E,0.34,165.36,180812,A*63,Svalue,256
$GPRMC,90232,A,3956.3706,N,11623.9389,E,0.26,155.04,180812,A*60,Svalue,256
$GPRMC,90233,A,3956.3705,N,11623.9389,E,0.29,147.23,180812,A*6B,Svalue,256
$GPRMC,90234,A,3956.3704,N,11623.9389,E,0.3,93.05,180812,A*59,Svalue,256
$GPRMC,90235,A,3956.3703,N,11623.9389,E,0.38,74.9,180812,A*52,Svalue,256
$GPRMC,90236,A,3956.3703,N,11623.939,E,0.53,70.95,180812,A*55,Svalue,256
$GPRMC,90237,A,3956.3702,N,11623.939,E,0.3,89.89,180812,A*5B,Svalue,255
$GPRMC,90238,A,3956.3701,N,11623.939,E,0.33,106.73,180812,A*67,Svalue,255
$GPRMC,90239,A,3956.3701,N,11623.939,E,0.34,174.68,180812,A*6E,Svalue,255
$GPRMC,90240,A,3956.37,N,11623.9389,E,0.26,169.19,180812,A*60,Svalue,255
$GPRMC,90241,A,3956.3699,N,11623.9387,E,0.36,198.3,180812,A*6A,Svalue,255
$GPRMC,90242,A,3956.3698,N,11623.9387,E,0.18,134.63,180812,A*64,Svalue,255
$GPRMC,90243,A,3956.3698,N,11623.9388,E,0.26,77.45,180812,A*55,Svalue,255
$GPRMC,90244,A,3956.3699,N,11623.9389,E,0.34,75.63,180812,A*57,Svalue,254
$GPRMC,90245,A,3956.37,N,11623.939,E,0.22,89.28,180812,A*54,Svalue,254
