$GPRMC,041245.488,V,,,,,,,180812,,,N*4D
373,
$GPRMC,041246.486,V,,,,,,,180812,,,N*40
396,
$GPRMC,041247.488,V,,,,,,,180812,,,N*4F
790,
$GPRMC,041248.493,V,,,,,,,180812,,,N*4A
538,
$GPRMC,041249.488,V,,,,,,,180812,,,N*41
487,
$GPRMC,041250.488,V,,,,,,,180812,,,N*49
458,
$GPRMC,041251.493,V,,,,,,,180812,,,N*42
444,
$GPRMC,041252.488,V,,,,,,,180812,,,N*4B
437,
$GPRMC,041253.488,V,,,,,,,180812,,,N*4A
434,
$GPRMC,041254.493,V,,,,,,,180812,,,N*47
432,
$GPRMC,041255.488,V,,,,,,,180812,,,N*4C
432,
$GPRMC,041256.488,V,,,,,,,180812,,,N*4F
431,
$GPRMC,041257.493,V,,,,,,,180812,,,N*44
429,
$GPRMC,041258.488,V,,,,,,,180812,,,N*41
427,
$GPRMC,041258.209,V,,,,,,,180812,,,N*4E
422,
$GPRMC,041259.214,V,,,,,,,180812,,,N*43
422,
$GPRMC,041300.209,V,,,,,,,180812,,,N*42
419,
$GPRMC,041301.209,V,,,,,,,180812,,,N*43
412,
$GPRMC,041302.214,V,,,,,,,180812,,,N*4C
418,
$GPRMC,041303.209,V,,,,,,,180812,,,N*41
424,
$GPRMC,041304.209,V,,,,,,,180812,,,N*46
428,
$GPRMC,041305.214,V,,,,,,,180812,,,N*4B
429,
$GPRMC,041306.209,V,,,,,,,180812,,,N*44
429,
$GPRMC,041307.209,V,,,,,,,180812,,,N*45
427,
$GPRMC,041308.214,V,,,,,,,180812,,,N*46
422,
$GPRMC,041309.209,V,,,,,,,180812,,,N*4B
416,
$GPRMC,041310.209,V,,,,,,,180812,,,N*43
414,
$GPRMC,041311.214,V,,,,,,,180812,,,N*4E
413,
$GPRMC,041312.209,V,,,,,,,180812,,,N*41
418,
$GPRMC,041313.209,V,,,,,,,180812,,,N*40
419,
$GPRMC,041314.214,V,,,,,,,180812,,,N*4B
419,
$GPRMC,041315.209,V,,,,,,,180812,,,N*46
417,
$GPRMC,041316.209,V,,,,,,,180812,,,N*45
322,
$GPRMC,041317.214,V,,,,,,,180812,,,N*48
380,
$GPRMC,041318.209,V,,,,,,,180812,,,N*4B
447,
$GPRMC,041319.209,V,,,,,,,180812,,,N*4A
502,
$GPRMC,041320.214,V,,,,,,,180812,,,N*4C
531,
$GPRMC,041321.209,V,,,,,,,180812,,,N*41
543,
$GPRMC,041322.209,V,,,,,,,180812,,,N*42
558,
$GPRMC,041323.214,V,,,,,,,180812,,,N*4F
569,
$GPRMC,041324.209,V,,,,,,,180812,,,N*44
571,
$GPRMC,041325.209,V,,,,,,,180812,,,N*45
571,
$GPRMC,041326.214,V,,,,,,,180812,,,N*4A
567,
$GPRMC,041327.209,V,,,,,,,180812,,,N*47
559,
$GPRMC,041328.209,V,,,,,,,180812,,,N*48
548,
$GPRMC,041329.214,V,,,,,,,180812,,,N*45
534,
$GPRMC,041330.209,V,,,,,,,180812,,,N*41
518,
$GPRMC,041331.209,V,,,,,,,180812,,,N*40
499,
$GPRMC,041332.214,V,,,,,,,180812,,,N*4F
477,
$GPRMC,041333.214,V,,,,,,,180812,,,N*4E
456,
$GPRMC,041334.209,V,,,,,,,180812,,,N*45
436,
$GPRMC,041335.209,V,,,,,,,180812,,,N*44
418,
$GPRMC,041336.209,V,,,,,,,180812,,,N*47
400,
$GPRMC,041337.209,V,,,,,,,180812,,,N*46
383,
$GPRMC,041338.209,V,,,,,,,180812,,,N*49
365,
$GPRMC,041339.209,V,,,,,,,180812,,,N*48
349,
$GPRMC,041340.214,V,,,,,,,180812,,,N*4A
332,
$GPRMC,041341.209,V,,,,,,,180812,,,N*47
318,
$GPRMC,041342.209,V,,,,,,,180812,,,N*44
305,
$GPRMC,041343.214,V,,,,,,,180812,,,N*49
294,
$GPRMC,041344.209,V,,,,,,,180812,,,N*42
283,
$GPRMC,041345.209,V,,,,,,,180812,,,N*43
272,
$GPRMC,041346.209,V,,,,,,,180812,,,N*40
262,
$GPRMC,041347.209,V,,,,,,,180812,,,N*41
252,
$GPRMC,041348.209,V,,,,,,,180812,,,N*4E
244,
$GPRMC,041349.209,V,,,,,,,180812,,,N*4F
236,
$GPRMC,041350.214,V,,,,,,,180812,,,N*4B
228,
$GPRMC,041351.209,V,,,,,,,180812,,,N*46
222,
$GPRMC,041352.209,V,,,,,,,180812,,,N*45
219,
$GPRMC,041353.209,V,,,,,,,180812,,,N*44
216,
$GPRMC,041354.209,V,,,,,,,180812,,,N*43
229,
$GPRMC,041355.209,V,,,,,,,180812,,,N*42
230,
$GPRMC,041356.209,V,,,,,,,180812,,,N*41
224,
$GPRMC,041357.214,V,,,,,,,180812,,,N*4C
221,
$GPRMC,041358.209,V,,,,,,,180812,,,N*4F
215,
$GPRMC,041359.209,V,,,,,,,180812,,,N*4E
205,
$GPRMC,041400.209,V,,,,,,,180812,,,N*45
195,
$GPRMC,041401.209,V,,,,,,,180812,,,N*44
189,
$GPRMC,041402.209,V,,,,,,,180812,,,N*47
185,
$GPRMC,041403.211,V,,,,,,,180812,,,N*4F
181,
$GPRMC,041404.211,V,,,,,,,180812,,,N*48
177,
$GPRMC,041405.211,V,,,,,,,180812,,,N*49
174,
$GPRMC,041406.211,V,,,,,,,180812,,,N*4A
172,
$GPRMC,041407.211,V,,,,,,,180812,,,N*4B
170,
$GPRMC,041408.211,V,,,,,,,180812,,,N*44
167,
$GPRMC,041409.211,V,,,,,,,180812,,,N*45
165,
$GPRMC,041410.211,V,,,,,,,180812,,,N*4D
166,
$GPRMC,041411.211,V,,,,,,,180812,,,N*4C
164,
$GPRMC,041412.215,V,,,,,,,180812,,,N*4B
160,
$GPRMC,041413.211,V,,,,,,,180812,,,N*4E
159,
$GPRMC,041414.211,V,,,,,,,180812,,,N*49
159,
$GPRMC,041415.211,V,,,,,,,180812,,,N*48
157,
$GPRMC,041416.211,V,,,,,,,180812,,,N*4B
156,
$GPRMC,041417.215,V,,,,,,,180812,,,N*4E
155,
$GPRMC,041418.211,V,,,,,,,180812,,,N*45
153,
$GPRMC,041419.211,V,,,,,,,180812,,,N*44
150,
$GPRMC,041420.211,V,,,,,,,180812,,,N*4E
148,
$GPRMC,041421.211,V,,,,,,,180812,,,N*4F
146,
$GPRMC,041422.211,V,,,,,,,180812,,,N*4C
145,
$GPRMC,041423.211,V,,,,,,,180812,,,N*4D
146,
$GPRMC,041424.211,V,,,,,,,180812,,,N*4A
167,
$GPRMC,041425.211,V,,,,,,,180812,,,N*4B
163,
$GPRMC,041426.211,V,,,,,,,180812,,,N*48
153,
$GPRMC,041427.215,V,,,,,,,180812,,,N*4D
148,
$GPRMC,041428.211,V,,,,,,,180812,,,N*46
145,
$GPRMC,041429.215,V,,,,,,,180812,,,N*43
148,
$GPRMC,041430.211,V,,,,,,,180812,,,N*4F
154,
$GPRMC,041431.211,V,,,,,,,180812,,,N*4E
153,
$GPRMC,041432.212,A,3956.3491,N,11623.9328,E,0.29,35.03,180812,,,A*52
152,
$GPRMC,041433.208,A,3956.3494,N,11623.9348,E,0.19,36.07,180812,,,A*5F
150,
$GPRMC,041434.208,A,3956.3467,N,11623.9340,E,0.22,350.50,180812,,,A*65
143,
$GPRMC,041435.208,A,3956.3473,N,11623.9351,E,0.64,128.10,180812,,,A*6A
143,
$GPRMC,041436.208,A,3956.3483,N,11623.9343,E,0.45,108.69,180812,,,A*6A
149,
$GPRMC,041437.212,A,3956.3487,N,11623.9343,E,0.23,89.10,180812,,,A*52
152,
$GPRMC,041438.208,A,3956.3494,N,11623.9345,E,0.17,57.61,180812,,,A*50
150,
$GPRMC,041439.208,A,3956.3508,N,11623.9353,E,0.42,34.23,180812,,,A*51
147,
$GPRMC,041440.208,A,3956.3517,N,11623.9358,E,0.48,30.05,180812,,,A*50
144,
$GPRMC,041441.208,A,3956.3515,N,11623.9357,E,0.39,36.77,180812,,,A*59
142,
$GPRMC,041442.212,A,3956.3517,N,11623.9359,E,0.36,44.00,180812,,,A*57
143,
$GPRMC,041443.208,A,3956.3517,N,11623.9359,E,0.37,26.88,180812,,,A*58
140,
$GPRMC,041444.208,A,3956.3510,N,11623.9355,E,0.12,63.16,180812,,,A*55
137,
$GPRMC,041445.208,A,3956.3501,N,11623.9351,E,0.11,123.08,180812,,,A*69
138,
$GPRMC,041446.208,A,3956.3497,N,11623.9347,E,0.20,147.80,180812,,,A*63
141,
$GPRMC,041447.212,A,3956.3497,N,11623.9344,E,1.11,323.85,180812,,,A*6C
142,
$GPRMC,041448.208,A,3956.3499,N,11623.9340,E,0.44,340.49,180812,,,A*66
143,
$GPRMC,041449.208,A,3956.3500,N,11623.9337,E,0.23,339.32,180812,,,A*65
142,
$GPRMC,041450.208,A,3956.3498,N,11623.9336,E,0.99,320.71,180812,,,A*62
137,
$GPRMC,041451.208,A,3956.3498,N,11623.9334,E,0.08,326.34,180812,,,A*6E
133,
$GPRMC,041452.212,A,3956.3497,N,11623.9331,E,0.27,144.14,180812,,,A*65
133,
$GPRMC,041453.208,A,3956.3498,N,11623.9327,E,0.17,269.32,180812,,,A*6C
134,
$GPRMC,041454.208,A,3956.3498,N,11623.9324,E,0.08,218.48,180812,,,A*6D
126,
$GPRMC,041455.208,A,3956.3498,N,11623.9322,E,0.11,228.40,180812,,,A*69
119,
$GPRMC,041456.208,A,3956.3498,N,11623.9321,E,0.15,203.95,180812,,,A*6C
116,
$GPRMC,041457.212,A,3956.3492,N,11623.9317,E,0.54,197.56,180812,,,A*6D
115,
$GPRMC,041458.208,A,3956.3496,N,11623.9318,E,0.20,205.47,180812,,,A*69
117,
$GPRMC,041459.208,A,3956.3496,N,11623.9318,E,0.03,269.97,180812,,,A*6E
117,
$GPRMC,041500.208,A,3956.3494,N,11623.9319,E,0.22,191.50,180812,,,A*6C
113,
$GPRMC,041501.207,A,3956.3493,N,11623.9318,E,0.57,165.93,180812,,,A*62
114,
$GPRMC,041502.208,A,3956.3490,N,11623.9317,E,0.33,199.17,180812,,,A*6F
113,
$GPRMC,041503.208,A,3956.3488,N,11623.9317,E,0.36,189.98,180812,,,A*64
114,
$GPRMC,041504.208,A,3956.3483,N,11623.9321,E,0.39,183.19,180812,,,A*61
111,
$GPRMC,041505.208,A,3956.3481,N,11623.9323,E,0.38,182.34,180812,,,A*6F
111,
$GPRMC,041506.208,A,3956.3474,N,11623.9322,E,0.41,187.93,180812,,,A*61
110,
$GPRMC,041507.208,A,3956.3479,N,11623.9319,E,0.46,280.73,180812,,,A*68
110,
$GPRMC,041508.208,A,3956.3476,N,11623.9317,E,0.23,193.71,180812,,,A*66
109,
$GPRMC,041509.208,A,3956.3474,N,11623.9317,E,0.78,176.08,180812,,,A*6E
109,
$GPRMC,041510.208,A,3956.3474,N,11623.9317,E,0.54,179.57,180812,,,A*6D
108,
$GPRMC,041511.208,A,3956.3472,N,11623.9317,E,0.84,205.74,180812,,,A*6E
108,
$GPRMC,041512.212,A,3956.3474,N,11623.9321,E,1.35,198.57,180812,,,A*68
107,
$GPRMC,041513.212,A,3956.3470,N,11623.9325,E,2.27,152.66,180812,,,A*6D
108,
$GPRMC,041514.208,A,3956.3467,N,11623.9330,E,2.55,157.52,180812,,,A*64
107,
$GPRMC,041515.208,A,3956.3464,N,11623.9336,E,2.63,138.21,180812,,,A*68
106,
$GPRMC,041516.208,A,3956.3456,N,11623.9344,E,3.49,152.43,180812,,,A*6E
106,
$GPRMC,041517.212,A,3956.3454,N,11623.9346,E,2.46,177.27,180812,,,A*6F
1023,
$GPRMC,041518.208,A,3956.3454,N,11623.9352,E,1.88,152.98,180812,,,A*6C
1023,
$GPRMC,041519.208,A,3956.3453,N,11623.9355,E,1.67,153.80,180812,,,A*64
93,
$GPRMC,041520.212,A,3956.3454,N,11623.9358,E,1.54,124.67,180812,,,A*66
99,
$GPRMC,041521.212,A,3956.3456,N,11623.9358,E,0.62,118.28,180812,,,A*65
102,
$GPRMC,041522.208,A,3956.3458,N,11623.9357,E,0.33,172.59,180812,,,A*62
102,
$GPRMC,041523.208,A,3956.3462,N,11623.9350,E,1.31,322.53,180812,,,A*63
102,
$GPRMC,041524.212,A,3956.3464,N,11623.9342,E,1.15,318.53,180812,,,A*65
101,
$GPRMC,041525.212,A,3956.3466,N,11623.9339,E,0.62,283.15,180812,,,A*6A
101,
$GPRMC,041526.208,A,3956.3472,N,11623.9339,E,0.28,305.69,180812,,,A*6D
100,
$GPRMC,041527.208,A,3956.3477,N,11623.9336,E,0.51,318.29,180812,,,A*60
99,
$GPRMC,041528.208,A,3956.3482,N,11623.9333,E,0.36,327.54,180812,,,A*67
98,
$GPRMC,041529.212,A,3956.3484,N,11623.9333,E,0.43,147.10,180812,,,A*6D
98,
$GPRMC,041530.208,A,3956.3486,N,11623.9335,E,0.72,140.15,180812,,,A*6A
97,
$GPRMC,041531.208,A,3956.3486,N,11623.9339,E,0.67,150.14,180812,,,A*63
97,
$GPRMC,041532.212,A,3956.3488,N,11623.9339,E,0.52,146.46,180812,,,A*63
97,
$GPRMC,041533.208,A,3956.3491,N,11623.9340,E,0.41,145.08,180812,,,A*64
97,
$GPRMC,041534.208,A,3956.3492,N,11623.9340,E,0.59,138.75,180812,,,A*69
97,
$GPRMC,041535.208,A,3956.3494,N,11623.9341,E,0.40,138.96,180812,,,A*6A
96,
$GPRMC,041536.208,A,3956.3494,N,11623.9345,E,1.50,140.22,180812,,,A*6D
96,
$GPRMC,041537.212,A,3956.3499,N,11623.9348,E,0.83,117.14,180812,,,A*6F
96,
$GPRMC,041538.208,A,3956.3503,N,11623.9350,E,0.29,16.09,180812,,,A*5C
97,
$GPRMC,041539.208,A,3956.3504,N,11623.9350,E,0.39,96.40,180812,,,A*5E
96,
$GPRMC,041540.212,A,3956.3505,N,11623.9352,E,0.19,27.20,180812,,,A*56
96,
$GPRMC,041541.212,A,3956.3505,N,11623.9354,E,0.25,59.05,180812,,,A*50
95,
$GPRMC,041542.208,A,3956.3509,N,11623.9353,E,0.58,339.84,180812,,,A*65
95,
$GPRMC,041543.208,A,3956.3514,N,11623.9350,E,0.37,24.85,180812,,,A*5C
95,
$GPRMC,041544.208,A,3956.3515,N,11623.9353,E,0.35,19.72,180812,,,A*5D
95,
$GPRMC,041545.212,A,3956.3519,N,11623.9352,E,1.12,12.23,180812,,,A*51
95,
$GPRMC,041546.208,A,3956.3527,N,11623.9347,E,1.79,358.87,180812,,,A*6E
94,
$GPRMC,041547.208,A,3956.3529,N,11623.9348,E,0.44,358.75,180812,,,A*6C
95,
$GPRMC,041548.208,A,3956.3529,N,11623.9349,E,0.85,124.75,180812,,,A*66
94,
$GPRMC,041549.212,A,3956.3526,N,11623.9351,E,1.87,136.07,180812,,,A*6F
93,
$GPRMC,041550.208,A,3956.3525,N,11623.9350,E,1.67,140.16,180812,,,A*61
93,
$GPRMC,041551.208,A,3956.3525,N,11623.9350,E,1.22,137.63,180812,,,A*63
93,
$GPRMC,041552.212,A,3956.3529,N,11623.9343,E,0.17,96.89,180812,,,A*5C
93,
$GPRMC,041553.208,A,3956.3535,N,11623.9331,E,0.26,11.81,180812,,,A*5B
94,
$GPRMC,041554.208,A,3956.3539,N,11623.9323,E,0.26,24.10,180812,,,A*5D
94,
$GPRMC,041555.208,A,3956.3539,N,11623.9320,E,0.22,23.83,180812,,,A*56
93,
$GPRMC,041556.208,A,3956.3539,N,11623.9316,E,0.23,25.50,180812,,,A*59
93,
$GPRMC,041557.212,A,3956.3539,N,11623.9313,E,0.21,33.26,180812,,,A*52
92,
$GPRMC,041558.208,A,3956.3537,N,11623.9312,E,0.11,34.56,180812,,,A*5A
92,
$GPRMC,041559.208,A,3956.3535,N,11623.9310,E,0.10,51.67,180812,,,A*5B
92,
$GPRMC,041600.208,A,3956.3533,N,11623.9309,E,0.07,101.97,180812,,,A*67
91,
$GPRMC,041601.207,A,3956.3532,N,11623.9308,E,0.04,153.03,180812,,,A*60
92,
$GPRMC,041602.211,A,3956.3530,N,11623.9306,E,0.10,138.83,180812,,,A*68
91,
$GPRMC,041603.208,A,3956.3528,N,11623.9305,E,0.08,200.64,180812,,,A*63
91,
$GPRMC,041604.208,A,3956.3526,N,11623.9303,E,0.12,195.15,180812,,,A*6E
91,
$GPRMC,041605.212,A,3956.3524,N,11623.9302,E,0.15,190.94,180812,,,A*6C
91,
$GPRMC,041606.208,A,3956.3522,N,11623.9301,E,0.17,205.48,180812,,,A*6D
90,
$GPRMC,041607.211,A,3956.3520,N,11623.9299,E,0.20,192.32,180812,,,A*62
90,
$GPRMC,041608.208,A,3956.3518,N,11623.9298,E,0.25,209.71,180812,,,A*6C
90,
$GPRMC,041609.208,A,3956.3516,N,11623.9297,E,0.26,196.42,180812,,,A*6A
90,
$GPRMC,041610.208,A,3956.3514,N,11623.9295,E,0.26,211.74,180812,,,A*6B
89,
$GPRMC,041611.208,A,3956.3512,N,11623.9294,E,0.27,198.02,180812,,,A*6F
89,
$GPRMC,041612.211,A,3956.3510,N,11623.9294,E,0.33,196.78,180812,,,A*60
89,
$GPRMC,041613.208,A,3956.3509,N,11623.9293,E,0.31,206.02,180812,,,A*63
90,
$GPRMC,041614.208,A,3956.3507,N,11623.9292,E,0.31,209.66,180812,,,A*66
89,
$GPRMC,041615.208,A,3956.3513,N,11623.9296,E,0.14,213.42,180812,,,A*6C
88,
$GPRMC,041616.208,A,3956.3514,N,11623.9296,E,0.16,205.93,180812,,,A*61
88,
$GPRMC,041617.211,A,3956.3515,N,11623.9297,E,0.15,176.44,180812,,,A*66
88,
$GPRMC,041618.208,A,3956.3514,N,11623.9298,E,0.16,222.62,180812,,,A*6A
88,
$GPRMC,041619.208,A,3956.3514,N,11623.9298,E,0.13,193.45,180812,,,A*62
88,
$GPRMC,041620.208,A,3956.3514,N,11623.9299,E,0.12,202.47,180812,,,A*61
87,
$GPRMC,041621.208,A,3956.3513,N,11623.9299,E,0.13,195.06,180812,,,A*6E
88,
$GPRMC,041622.211,A,3956.3512,N,11623.9299,E,0.16,177.89,180812,,,A*6A
87,
$GPRMC,041623.208,A,3956.3511,N,11623.9299,E,0.17,197.26,180812,,,A*6A
87,
$GPRMC,041624.208,A,3956.3509,N,11623.9299,E,0.16,196.24,180812,,,A*66
87,
$GPRMC,041625.208,A,3956.3506,N,11623.9298,E,0.17,196.43,180812,,,A*69
87,
$GPRMC,041626.208,A,3956.3504,N,11623.9297,E,0.22,195.91,180812,,,A*6D
87,
$GPRMC,041627.211,A,3956.3505,N,11623.9298,E,0.15,183.03,180812,,,A*62
86,
$GPRMC,041628.208,A,3956.3508,N,11623.9300,E,0.09,238.68,180812,,,A*6B
86,
$GPRMC,041629.208,A,3956.3502,N,11623.9297,E,0.16,210.76,180812,,,A*64
86,
$GPRMC,041630.208,A,3956.3501,N,11623.9297,E,0.24,338.26,180812,,,A*60
85,
$GPRMC,041631.208,A,3956.3500,N,11623.9297,E,0.05,223.02,180812,,,A*6E
85,
$GPRMC,041632.211,A,3956.3502,N,11623.9298,E,0.17,170.58,180812,,,A*61
85,
$GPRMC,041633.208,A,3956.3504,N,11623.9300,E,0.06,322.50,180812,,,A*63
85,
$GPRMC,041634.000,A,3956.3503,N,11623.9300,E,0.10,7.81,180812,,,A*66
84,
$GPRMC,041635.000,A,3956.3497,N,11623.9296,E,0.16,184.82,180812,,,A*6A
84,
$GPRMC,041636.000,A,3956.3500,N,11623.9298,E,0.14,192.87,180812,,,A*68
84,
$GPRMC,041637.000,A,3956.3501,N,11623.9299,E,0.28,182.79,180812,,,A*66
84,
$GPRMC,041638.000,A,3956.3501,N,11623.9300,E,0.10,225.69,180812,,,A*6C
83,
$GPRMC,041639.000,A,3956.3503,N,11623.9301,E,0.09,331.95,180812,,,A*61
83,
$GPRMC,041640.000,A,3956.3506,N,11623.9304,E,0.08,140.01,180812,,,A*67
83,
$GPRMC,041641.000,A,3956.3509,N,11623.9306,E,0.08,131.89,180812,,,A*6D
83,
$GPRMC,041642.000,A,3956.3512,N,11623.9309,E,0.25,14.00,180812,,,A*53
82,
$GPRMC,041643.000,A,3956.3512,N,11623.9308,E,0.12,39.45,180812,,,A*59
83,
$GPRMC,041644.000,A,3956.3511,N,11623.9308,E,0.07,98.90,180812,,,A*5A
82,
$GPRMC,041645.000,A,3956.3510,N,11623.9308,E,0.14,167.88,180812,,,A*60
82,
$GPRMC,041646.000,A,3956.3514,N,11623.9312,E,0.19,24.60,180812,,,A*51
82,
$GPRMC,041647.000,A,3956.3513,N,11623.9312,E,0.11,59.24,180812,,,A*55
82,
$GPRMC,041648.000,A,3956.3515,N,11623.9313,E,0.13,43.11,180812,,,A*52
81,
$GPRMC,041649.000,A,3956.3516,N,11623.9315,E,0.16,39.06,180812,,,A*58
81,
$GPRMC,041650.000,A,3956.3518,N,11623.9316,E,0.37,16.93,180812,,,A*5F
80,
$GPRMC,041651.000,A,3956.3520,N,11623.9318,E,0.23,35.63,180812,,,A*50
81,
$GPRMC,041652.000,A,3956.3523,N,11623.9320,E,0.19,60.86,180812,,,A*59
81,
$GPRMC,041653.000,A,3956.3522,N,11623.9320,E,0.19,117.55,180812,,,A*66
80,
$GPRMC,041654.000,A,3956.3524,N,11623.9322,E,0.15,86.12,180812,,,A*53
80,
$GPRMC,041655.000,A,3956.3526,N,11623.9324,E,0.25,32.46,180812,,,A*5B
80,
$GPRMC,041656.000,A,3956.3529,N,11623.9327,E,0.33,36.47,180812,,,A*56
80,
$GPRMC,041657.000,A,3956.3532,N,11623.9329,E,0.22,58.70,180812,,,A*5F
80,
$GPRMC,041658.000,A,3956.3534,N,11623.9331,E,0.34,31.69,180812,,,A*5F
79,
$GPRMC,041659.000,A,3956.3538,N,11623.9334,E,0.49,30.59,180812,,,A*5F
79,
$GPRMC,041700.000,A,3956.3542,N,11623.9337,E,0.50,30.03,180812,,,A*5B
79,
$GPRMC,041701.000,A,3956.3544,N,11623.9338,E,0.59,29.19,180812,,,A*59
79,
$GPRMC,041702.000,A,3956.3545,N,11623.9340,E,0.55,35.06,180812,,,A*5B
79,
$GPRMC,041703.000,A,3956.3546,N,11623.9341,E,0.60,26.84,180812,,,A*56
79,
$GPRMC,041704.000,A,3956.3548,N,11623.9342,E,0.56,35.11,180812,,,A*57
79,
$GPRMC,041705.000,A,3956.3549,N,11623.9344,E,0.48,45.39,180812,,,A*53
79,
$GPRMC,041706.000,A,3956.3549,N,11623.9344,E,0.37,56.41,180812,,,A*55
78,
$GPRMC,041707.000,A,3956.3551,N,11623.9346,E,0.38,55.09,180812,,,A*5F
78,
$GPRMC,041708.000,A,3956.3552,N,11623.9347,E,0.38,50.89,180812,,,A*5F
77,
$GPRMC,041709.000,A,3956.3553,N,11623.9349,E,0.37,55.16,180812,,,A*5D
78,
$GPRMC,041710.000,A,3956.3553,N,11623.9349,E,0.37,43.32,180812,,,A*54
77,
$GPRMC,041711.000,A,3956.3552,N,11623.9349,E,0.26,82.39,180812,,,A*52
77,
$GPRMC,041712.000,A,3956.3550,N,11623.9348,E,0.22,95.33,180812,,,A*5A
77,
$GPRMC,041713.000,A,3956.3545,N,11623.9345,E,0.17,127.01,180812,,,A*6D
77,
$GPRMC,041714.000,A,3956.3543,N,11623.9344,E,0.14,124.73,180812,,,A*68
77,
$GPRMC,041715.000,A,3956.3541,N,11623.9343,E,0.10,121.02,180812,,,A*6B
76,
$GPRMC,041716.000,A,3956.3538,N,11623.9342,E,0.18,163.22,180812,,,A*6B
76,
$GPRMC,041717.000,A,3956.3535,N,11623.9340,E,0.25,183.17,180812,,,A*63
76,
$GPRMC,041718.000,A,3956.3532,N,11623.9338,E,0.11,189.89,180812,,,A*6E
75,
$GPRMC,041719.000,A,3956.3531,N,11623.9338,E,0.01,87.77,180812,,,A*53
76,
$GPRMC,041720.000,A,3956.3530,N,11623.9337,E,0.02,126.95,180812,,,A*62
75,
$GPRMC,041721.000,A,3956.3531,N,11623.9338,E,0.10,5.04,180812,,,A*66
75,
$GPRMC,041722.000,A,3956.3532,N,11623.9339,E,0.12,22.25,180812,,,A*53
75,
$GPRMC,041723.000,A,3956.3531,N,11623.9339,E,0.18,177.04,180812,,,A*69
74,
$GPRMC,041724.000,A,3956.3530,N,11623.9338,E,0.18,182.56,180812,,,A*63
74,
$GPRMC,041725.000,A,3956.3528,N,11623.9337,E,0.16,177.87,180812,,,A*6C
74,
$GPRMC,041726.000,A,3956.3524,N,11623.9334,E,0.34,196.42,180812,,,A*66
74,
$GPRMC,041727.000,A,3956.3520,N,11623.9332,E,0.28,196.26,180812,,,A*6A
74,
$GPRMC,041728.000,A,3956.3517,N,11623.9330,E,0.23,207.15,180812,,,A*63
73,
$GPRMC,041729.000,A,3956.3515,N,11623.9329,E,0.21,199.61,180812,,,A*6D
73,
$GPRMC,041730.000,A,3956.3515,N,11623.9330,E,0.11,218.22,180812,,,A*63
73,
$GPRMC,041731.000,A,3956.3516,N,11623.9331,E,0.06,235.16,180812,,,A*6E
73,
$GPRMC,041732.000,A,3956.3517,N,11623.9331,E,0.05,281.78,180812,,,A*68
73,
$GPRMC,041733.000,A,3956.3517,N,11623.9331,E,0.10,193.61,180812,,,A*65
73,
$GPRMC,041734.000,A,3956.3516,N,11623.9331,E,0.18,196.96,180812,,,A*66
73,
$GPRMC,041735.000,A,3956.3515,N,11623.9331,E,0.18,192.39,180812,,,A*65
72,
$GPRMC,041736.000,A,3956.3514,N,11623.9330,E,0.16,202.11,180812,,,A*68
72,
$GPRMC,041737.000,A,3956.3512,N,11623.9330,E,0.25,198.78,180812,,,A*60
72,
$GPRMC,041738.000,A,3956.3510,N,11623.9329,E,0.34,194.56,180812,,,A*65
72,
$GPRMC,041739.000,A,3956.3509,N,11623.9329,E,0.30,195.10,180812,,,A*6B
71,
$GPRMC,041740.000,A,3956.3509,N,11623.9329,E,0.26,199.98,180812,,,A*6E
71,
$GPRMC,041741.000,A,3956.3510,N,11623.9330,E,0.20,197.20,180812,,,A*64
71,
$GPRMC,041742.000,A,3956.3511,N,11623.9331,E,0.21,196.36,180812,,,A*60
71,
$GPRMC,041743.000,A,3956.3513,N,11623.9333,E,0.13,200.35,180812,,,A*6F
71,
$GPRMC,041744.000,A,3956.3512,N,11623.9333,E,0.13,180.89,180812,,,A*65
70,
$GPRMC,041745.000,A,3956.3512,N,11623.9333,E,0.14,191.21,180812,,,A*61
71,
$GPRMC,041746.000,A,3956.3512,N,11623.9333,E,0.10,190.65,180812,,,A*67
70,
$GPRMC,041747.000,A,3956.3511,N,11623.9334,E,0.05,211.46,180812,,,A*6D
70,
$GPRMC,041748.000,A,3956.3511,N,11623.9334,E,0.08,203.43,180812,,,A*69
70,
$GPRMC,041749.000,A,3956.3511,N,11623.9334,E,0.06,189.41,180812,,,A*65
69,
$GPRMC,041750.000,A,3956.3510,N,11623.9333,E,0.14,194.33,180812,,,A*61
69,
$GPRMC,041751.000,A,3956.3508,N,11623.9333,E,0.16,181.96,180812,,,A*60
69,
$GPRMC,041752.000,A,3956.3505,N,11623.9331,E,0.22,192.48,180812,,,A*6A
69,
$GPRMC,041753.000,A,3956.3503,N,11623.9330,E,0.40,194.85,180812,,,A*6F
69,
$GPRMC,041754.000,A,3956.3499,N,11623.9329,E,0.31,191.03,180812,,,A*6F
69,
$GPRMC,041755.000,A,3956.3494,N,11623.9326,E,0.51,199.73,180812,,,A*65
69,
$GPRMC,041756.000,A,3956.3490,N,11623.9324,E,0.53,200.55,180812,,,A*65
69,
$GPRMC,041757.000,A,3956.3489,N,11623.9324,E,0.53,193.33,180812,,,A*65
70,
$GPRMC,041758.000,A,3956.3481,N,11623.9322,E,0.79,192.75,180812,,,A*6F
69,
$GPRMC,041759.000,A,3956.3477,N,11623.9323,E,0.78,189.12,180812,,,A*6C
69,
$GPRMC,041800.000,A,3956.3477,N,11623.9324,E,0.58,189.43,180812,,,A*6E
72,
$GPRMC,041801.000,A,3956.3476,N,11623.9323,E,0.36,184.58,180812,,,A*66
367,
$GPRMC,041802.000,A,3956.3477,N,11623.9322,E,0.47,185.54,180812,,,A*6E
349,
$GPRMC,041803.000,A,3956.3480,N,11623.9322,E,0.18,190.36,180812,,,A*6D
352,
$GPRMC,041804.000,A,3956.3485,N,11623.9324,E,0.08,171.33,180812,,,A*62
357,
$GPRMC,041805.000,A,3956.3486,N,11623.9323,E,0.25,225.58,180812,,,A*67
176,
$GPRMC,041806.000,A,3956.3487,N,11623.9322,E,0.28,209.07,180812,,,A*6D
133,
$GPRMC,041807.000,A,3956.3487,N,11623.9321,E,0.45,206.93,180812,,,A*66
208,
$GPRMC,041808.000,A,3956.3490,N,11623.9322,E,0.08,122.75,180812,,,A*68
130,
$GPRMC,041809.000,A,3956.3493,N,11623.9323,E,0.23,207.22,180812,,,A*64
130,
$GPRMC,041810.000,A,3956.3490,N,11623.9321,E,0.20,198.09,180812,,,A*62
149,
$GPRMC,041811.000,A,3956.3492,N,11623.9322,E,0.18,193.11,180812,,,A*6B
151,
$GPRMC,041812.000,A,3956.3494,N,11623.9323,E,0.13,195.29,180812,,,A*69
432,
$GPRMC,041813.000,A,3956.3495,N,11623.9323,E,0.15,201.07,180812,,,A*6D
279,
$GPRMC,041814.000,A,3956.3494,N,11623.9323,E,0.19,192.09,180812,,,A*60
317,
$GPRMC,041815.000,A,3956.3495,N,11623.9324,E,0.06,148.02,180812,,,A*65
289,
$GPRMC,041816.000,A,3956.3494,N,11623.9324,E,0.17,175.52,180812,,,A*6C
308,
$GPRMC,041817.000,A,3956.3499,N,11623.9327,E,0.09,9.07,180812,,,A*66
311,
$GPRMC,041818.000,A,3956.3502,N,11623.9329,E,0.28,84.74,180812,,,A*56
382,
$GPRMC,041819.000,A,3956.3499,N,11623.9328,E,0.36,228.70,180812,,,A*6A
447,
$GPRMC,041820.000,A,3956.3500,N,11623.9328,E,0.08,32.80,180812,,,A*5A
498,
$GPRMC,041821.000,A,3956.3505,N,11623.9330,E,0.08,344.08,180812,,,A*65
535,
$GPRMC,041822.000,A,3956.3507,N,11623.9332,E,0.19,39.30,180812,,,A*54
560,
$GPRMC,041823.000,A,3956.3506,N,11623.9332,E,0.43,98.80,180812,,,A*5B
584,
$GPRMC,041824.000,A,3956.3501,N,11623.9332,E,0.51,153.67,180812,,,A*67
603,
$GPRMC,041825.000,A,3956.3494,N,11623.9330,E,0.79,141.69,180812,,,A*6E
619,
$GPRMC,041826.000,A,3956.3495,N,11623.9334,E,0.78,127.09,180812,,,A*6F
632,
$GPRMC,041827.000,A,3956.3494,N,11623.9332,E,0.46,223.97,180812,,,A*64
641,
$GPRMC,041828.000,A,3956.3492,N,11623.9331,E,0.51,142.94,180812,,,A*6F
648,
$GPRMC,041829.000,A,3956.3497,N,11623.9332,E,0.21,153.16,180812,,,A*65
653,
$GPRMC,041830.000,A,3956.3501,N,11623.9336,E,0.45,112.70,180812,,,A*60
656,
$GPRMC,041831.000,A,3956.3500,N,11623.9334,E,0.26,310.49,180812,,,A*6D
658,
$GPRMC,041832.000,A,3956.3499,N,11623.9334,E,0.91,40.35,180812,,,A*5E
659,
$GPRMC,041833.000,A,3956.3502,N,11623.9336,E,1.33,22.45,180812,,,A*54
659,
$GPRMC,041834.000,A,3956.3512,N,11623.9339,E,1.78,23.53,180812,,,A*54
657,
$GPRMC,041835.000,A,3956.3518,N,11623.9343,E,1.79,22.48,180812,,,A*58
654,
$GPRMC,041836.000,A,3956.3527,N,11623.9350,E,2.77,49.00,180812,,,A*59
652,
$GPRMC,041837.000,A,3956.3533,N,11623.9355,E,1.62,47.97,180812,,,A*5F
648,
$GPRMC,041838.000,A,3956.3533,N,11623.9356,E,0.72,26.16,180812,,,A*5D
644,
$GPRMC,041839.000,A,3956.3537,N,11623.9361,E,0.46,70.48,180812,,,A*53
642,
$GPRMC,041840.000,A,3956.3535,N,11623.9360,E,0.21,19.07,180812,,,A*5B
640,
$GPRMC,041841.000,A,3956.3538,N,11623.9362,E,0.38,29.21,180812,,,A*5A
639,
$GPRMC,041842.000,A,3956.3535,N,11623.9360,E,0.43,23.26,180812,,,A*57
638,
$GPRMC,041843.000,A,3956.3538,N,11623.9361,E,0.54,45.97,180812,,,A*56
630,
$GPRMC,041844.000,A,3956.3539,N,11623.9363,E,0.53,60.03,180812,,,A*5F
623,
$GPRMC,041845.000,A,3956.3539,N,11623.9363,E,0.22,57.89,180812,,,A*5E
618,
$GPRMC,041846.000,A,3956.3537,N,11623.9362,E,0.24,56.68,180812,,,A*5A
612,
$GPRMC,041847.000,A,3956.3539,N,11623.9363,E,0.03,108.03,180812,,,A*66
607,
$GPRMC,041848.000,A,3956.3533,N,11623.9359,E,0.14,74.64,180812,,,A*57
603,
$GPRMC,041849.000,A,3956.3529,N,11623.9358,E,0.09,92.90,180812,,,A*53
598,
$GPRMC,041850.000,A,3956.3530,N,11623.9357,E,0.51,32.74,180812,,,A*51
592,
$GPRMC,041851.000,A,3956.3527,N,11623.9356,E,0.24,206.41,180812,,,A*66
587,
$GPRMC,041852.000,A,3956.3523,N,11623.9354,E,0.22,189.46,180812,,,A*66
583,
$GPRMC,041853.000,A,3956.3519,N,11623.9349,E,0.49,163.11,180812,,,A*69
583,
$GPRMC,041854.000,A,3956.3516,N,11623.9351,E,0.41,186.65,180812,,,A*68
583,
$GPRMC,041855.000,A,3956.3513,N,11623.9352,E,0.20,190.05,180812,,,A*69
581,
$GPRMC,041856.000,A,3956.3511,N,11623.9353,E,0.15,146.42,180812,,,A*67
580,
$GPRMC,041857.000,A,3956.3510,N,11623.9352,E,0.13,246.65,180812,,,A*66
578,
$GPRMC,041858.000,A,3956.3513,N,11623.9354,E,0.08,44.96,180812,,,A*5A
575,
$GPRMC,041859.000,A,3956.3517,N,11623.9356,E,0.20,26.73,180812,,,A*58
571,
$GPRMC,041900.000,A,3956.3517,N,11623.9356,E,0.03,170.49,180812,,,A*6F
566,
$GPRMC,041901.000,A,3956.3522,N,11623.9356,E,0.31,28.51,180812,,,A*5C
559,
$GPRMC,041902.000,A,3956.3523,N,11623.9356,E,0.27,44.67,180812,,,A*56
555,
$GPRMC,041903.000,A,3956.3525,N,11623.9355,E,0.21,27.95,180812,,,A*5C
551,
$GPRMC,041904.000,A,3956.3523,N,11623.9351,E,0.62,244.30,180812,,,A*66
547,
$GPRMC,041905.000,A,3956.3521,N,11623.9346,E,0.32,218.06,180812,,,A*6A
543,
$GPRMC,041906.000,A,3956.3521,N,11623.9347,E,0.22,158.42,180812,,,A*6E
539,
$GPRMC,041907.000,A,3956.3520,N,11623.9347,E,0.68,193.65,180812,,,A*62
536,
$GPRMC,041908.000,A,3956.3518,N,11623.9349,E,0.86,180.25,180812,,,A*6E
533,
$GPRMC,041909.000,A,3956.3519,N,11623.9351,E,0.24,175.43,180812,,,A*65
530,
$GPRMC,041910.000,A,3956.3524,N,11623.9353,E,0.48,3.30,180812,,,A*6F
527,
$GPRMC,041911.000,A,3956.3520,N,11623.9354,E,0.21,140.14,180812,,,A*62
524,
$GPRMC,041912.000,A,3956.3522,N,11623.9357,E,0.10,91.97,180812,,,A*54
521,
$GPRMC,041913.000,A,3956.3528,N,11623.9361,E,0.18,39.22,180812,,,A*5E
518,
$GPRMC,041914.000,A,3956.3531,N,11623.9361,E,0.09,157.78,180812,,,A*67
515,
$GPRMC,041915.000,A,3956.3537,N,11623.9364,E,0.32,87.35,180812,,,A*58
513,
$GPRMC,041916.000,A,3956.3542,N,11623.9366,E,1.02,64.41,180812,,,A*57
510,
$GPRMC,041917.000,A,3956.3543,N,11623.9369,E,1.23,61.63,180812,,,A*5E
507,
$GPRMC,041918.000,A,3956.3543,N,11623.9371,E,0.23,88.60,180812,,,A*5D
504,
$GPRMC,041919.000,A,3956.3537,N,11623.9364,E,1.39,222.99,180812,,,A*65
502,
$GPRMC,041920.000,A,3956.3530,N,11623.9358,E,1.46,216.49,180812,,,A*65
499,
$GPRMC,041921.000,A,3956.3524,N,11623.9353,E,2.19,211.03,180812,,,A*6A
497,
$GPRMC,041922.000,A,3956.3518,N,11623.9347,E,2.19,198.33,180812,,,A*62
495,
$GPRMC,041923.000,A,3956.3511,N,11623.9342,E,2.05,193.94,180812,,,A*64
493,
$GPRMC,041924.000,A,3956.3512,N,11623.9340,E,1.33,181.20,180812,,,A*68
491,
$GPRMC,041925.000,A,3956.3508,N,11623.9337,E,1.02,166.15,180812,,,A*6F
488,
$GPRMC,041926.000,A,3956.3508,N,11623.9339,E,0.69,64.62,180812,,,A*5D
486,
$GPRMC,041927.000,A,3956.3506,N,11623.9337,E,0.26,203.34,180812,,,A*67
485,
$GPRMC,041928.000,A,3956.3501,N,11623.9334,E,0.58,145.42,180812,,,A*65
483,
$GPRMC,041929.000,A,3956.3496,N,11623.9330,E,0.50,237.59,180812,,,A*6B
481,
$GPRMC,041930.000,A,3956.3491,N,11623.9327,E,0.55,234.29,180812,,,A*63
479,
$GPRMC,041931.000,A,3956.3489,N,11623.9322,E,1.18,231.11,180812,,,A*68
479,
$GPRMC,041932.000,A,3956.3496,N,11623.9324,E,0.67,211.24,180812,,,A*6E
477,
$GPRMC,041933.000,A,3956.3496,N,11623.9325,E,1.21,208.57,180812,,,A*61
475,
$GPRMC,041934.000,A,3956.3503,N,11623.9325,E,0.57,188.75,180812,,,A*60
473,
$GPRMC,041935.000,A,3956.3495,N,11623.9323,E,1.89,197.14,180812,,,A*62
472,
$GPRMC,041936.000,A,3956.3486,N,11623.9318,E,1.48,203.96,180812,,,A*62
470,
$GPRMC,041937.000,A,3956.3479,N,11623.9319,E,1.09,203.46,180812,,,A*6A
468,
$GPRMC,041938.000,A,3956.3471,N,11623.9319,E,1.36,200.42,180812,,,A*66
467,
$GPRMC,041939.000,A,3956.3456,N,11623.9315,E,2.62,197.17,180812,,,A*61
465,
$GPRMC,041940.000,A,3956.3448,N,11623.9313,E,1.97,198.68,180812,,,A*68
464,
$GPRMC,041941.000,A,3956.3445,N,11623.9312,E,1.61,200.72,180812,,,A*65
463,
$GPRMC,041942.000,A,3956.3443,N,11623.9312,E,1.56,201.72,180812,,,A*65
461,
$GPRMC,041943.000,A,3956.3441,N,11623.9312,E,1.60,200.17,180812,,,A*61
460,
$GPRMC,041944.000,A,3956.3440,N,11623.9311,E,1.28,204.62,180812,,,A*6E
458,
$GPRMC,041945.000,A,3956.3440,N,11623.9312,E,0.94,208.70,180812,,,A*65
457,
$GPRMC,041946.000,A,3956.3441,N,11623.9311,E,0.43,230.35,180812,,,A*64
455,
$GPRMC,041947.000,A,3956.3439,N,11623.9310,E,0.95,208.48,180812,,,A*61
454,
$GPRMC,041948.000,A,3956.3439,N,11623.9307,E,1.13,204.07,180812,,,A*60
453,
$GPRMC,041949.000,A,3956.3433,N,11623.9303,E,1.71,198.42,180812,,,A*6C
451,
$GPRMC,041950.000,A,3956.3433,N,11623.9303,E,0.91,199.38,180812,,,A*67
450,
$GPRMC,041951.000,A,3956.3436,N,11623.9295,E,0.89,298.20,180812,,,A*6F
449,
$GPRMC,041952.000,A,3956.3437,N,11623.9290,E,0.95,337.56,180812,,,A*60
448,
$GPRMC,041953.000,A,3956.3438,N,11623.9289,E,0.29,325.64,180812,,,A*63
446,
$GPRMC,041954.000,A,3956.3440,N,11623.9289,E,0.08,149.82,180812,,,A*68
445,
$GPRMC,041955.000,A,3956.3435,N,11623.9285,E,1.41,191.58,180812,,,A*69
444,
$GPRMC,041956.000,A,3956.3428,N,11623.9285,E,1.74,184.41,180812,,,A*6C
443,
$GPRMC,041957.000,A,3956.3422,N,11623.9279,E,1.39,197.51,180812,,,A*6E
442,
$GPRMC,041958.000,A,3956.3419,N,11623.9275,E,1.26,201.93,180812,,,A*69
441,
$GPRMC,041959.000,A,3956.3416,N,11623.9272,E,1.51,202.15,180812,,,A*6D
439,
$GPRMC,042000.000,A,3956.3416,N,11623.9271,E,1.24,202.96,180812,,,A*61
438,
$GPRMC,042001.000,A,3956.3416,N,11623.9267,E,0.77,242.64,180812,,,A*69
437,
$GPRMC,042002.000,A,3956.3412,N,11623.9264,E,0.53,222.78,180812,,,A*60
436,
$GPRMC,042003.000,A,3956.3413,N,11623.9259,E,0.61,203.41,180812,,,A*66
435,
$GPRMC,042004.000,A,3956.3412,N,11623.9262,E,0.82,199.71,180812,,,A*66
434,
$GPRMC,042005.000,A,3956.3416,N,11623.9266,E,0.39,183.07,180812,,,A*6D
432,
$GPRMC,042006.000,A,3956.3408,N,11623.9262,E,0.27,210.50,180812,,,A*61
431,
$GPRMC,042007.000,A,3956.3414,N,11623.9264,E,0.40,348.35,180812,,,A*65
430,
$GPRMC,042008.000,A,3956.3418,N,11623.9266,E,0.18,285.22,180812,,,A*6F
429,
$GPRMC,042009.000,A,3956.3423,N,11623.9267,E,0.65,205.23,180812,,,A*64
428,
$GPRMC,042010.000,A,3956.3424,N,11623.9263,E,0.09,320.83,180812,,,A*69
427,
$GPRMC,042011.000,A,3956.3423,N,11623.9262,E,0.28,288.24,180812,,,A*63
426,
$GPRMC,042012.000,A,3956.3431,N,11623.9261,E,1.10,321.08,180812,,,A*66
426,
$GPRMC,042013.000,A,3956.3433,N,11623.9265,E,0.11,186.69,180812,,,A*69
425,
$GPRMC,042014.000,A,3956.3442,N,11623.9271,E,0.55,308.53,180812,,,A*60
424,
$GPRMC,042015.000,A,3956.3450,N,11623.9272,E,0.43,276.55,180812,,,A*68
423,
$GPRMC,042016.000,A,3956.3460,N,11623.9276,E,0.81,335.65,180812,,,A*67
422,
$GPRMC,042017.000,A,3956.3460,N,11623.9274,E,0.49,163.34,180812,,,A*65
421,
$GPRMC,042018.000,A,3956.3459,N,11623.9279,E,0.25,197.89,180812,,,A*6A
420,
$GPRMC,042019.000,A,3956.3464,N,11623.9280,E,0.36,72.71,180812,,,A*5C
419,
$GPRMC,042020.000,A,3956.3469,N,11623.9283,E,0.78,10.30,180812,,,A*53
418,
$GPRMC,042021.000,A,3956.3472,N,11623.9285,E,0.06,267.79,180812,,,A*68
417,
$GPRMC,042022.000,A,3956.3482,N,11623.9288,E,0.74,2.63,180812,,,A*66
416,
$GPRMC,042023.000,A,3956.3493,N,11623.9291,E,0.54,18.89,180812,,,A*52
415,
$GPRMC,042024.000,A,3956.3500,N,11623.9297,E,0.63,87.08,180812,,,A*53
414,
$GPRMC,042025.000,A,3956.3499,N,11623.9296,E,0.84,136.31,180812,,,A*6A
414,
$GPRMC,042026.000,A,3956.3498,N,11623.9296,E,0.73,110.05,180812,,,A*63
412,
$GPRMC,042027.000,A,3956.3491,N,11623.9303,E,2.52,148.84,180812,,,A*63
411,
$GPRMC,042028.000,A,3956.3495,N,11623.9313,E,0.81,72.41,180812,,,A*54
411,
$GPRMC,042029.000,A,3956.3496,N,11623.9312,E,0.51,33.74,180812,,,A*59
410,
$GPRMC,042030.000,A,3956.3503,N,11623.9315,E,1.25,343.36,180812,,,A*6B
409,
$GPRMC,042031.000,A,3956.3500,N,11623.9320,E,0.41,58.82,180812,,,A*5A
408,
$GPRMC,042032.000,A,3956.3493,N,11623.9318,E,1.02,349.52,180812,,,A*61
407,
$GPRMC,042033.000,A,3956.3487,N,11623.9314,E,0.40,356.32,180812,,,A*66
406,
$GPRMC,042034.000,A,3956.3493,N,11623.9315,E,1.60,356.88,180812,,,A*67
405,
$GPRMC,042035.000,A,3956.3497,N,11623.9318,E,0.59,46.25,180812,,,A*51
405,
$GPRMC,042036.000,A,3956.3496,N,11623.9319,E,1.44,355.71,180812,,,A*6F
404,
$GPRMC,042037.000,A,3956.3484,N,11623.9315,E,0.30,328.92,180812,,,A*64
403,
$GPRMC,042038.000,A,3956.3485,N,11623.9310,E,0.75,329.44,180812,,,A*64
402,
$GPRMC,042039.000,A,3956.3482,N,11623.9309,E,0.48,123.86,180812,,,A*62
401,
$GPRMC,042040.000,A,3956.3481,N,11623.9314,E,0.59,106.02,180812,,,A*68
400,
$GPRMC,042041.000,A,3956.3474,N,11623.9311,E,0.33,172.62,180812,,,A*6F
399,
$GPRMC,042042.000,A,3956.3472,N,11623.9313,E,0.21,68.63,180812,,,A*50
399,
$GPRMC,042043.000,A,3956.3477,N,11623.9312,E,0.23,226.96,180812,,,A*65
398,
$GPRMC,042044.000,A,3956.3481,N,11623.9313,E,0.50,322.24,180812,,,A*62
398,
$GPRMC,042045.000,A,3956.3479,N,11623.9309,E,1.08,150.22,180812,,,A*62
397,
$GPRMC,042046.000,A,3956.3486,N,11623.9309,E,0.80,289.91,180812,,,A*6F
396,
$GPRMC,042047.000,A,3956.3489,N,11623.9309,E,1.62,280.21,180812,,,A*6E
395,
$GPRMC,042048.000,A,3956.3492,N,11623.9309,E,0.52,254.59,180812,,,A*6F
395,
$GPRMC,042049.000,A,3956.3496,N,11623.9313,E,0.57,167.70,180812,,,A*6C
394,
$GPRMC,042050.000,A,3956.3499,N,11623.9319,E,0.90,212.01,180812,,,A*6D
394,
$GPRMC,042051.000,A,3956.3496,N,11623.9317,E,0.51,232.37,180812,,,A*67
393,
$GPRMC,042052.000,A,3956.3495,N,11623.9316,E,0.45,46.78,180812,,,A*59
392,
$GPRMC,042053.000,A,3956.3502,N,11623.9318,E,0.23,23.43,180812,,,A*52
391,
$GPRMC,042054.000,A,3956.3509,N,11623.9316,E,1.61,337.05,180812,,,A*63
391,
$GPRMC,042055.000,A,3956.3517,N,11623.9314,E,0.62,280.90,180812,,,A*6C
390,
$GPRMC,042056.000,A,3956.3525,N,11623.9311,E,1.04,304.29,180812,,,A*65
389,
$GPRMC,042057.000,A,3956.3532,N,11623.9305,E,1.17,254.52,180812,,,A*6D
389,
$GPRMC,042058.000,A,3956.3539,N,11623.9300,E,1.59,322.00,180812,,,A*61
388,
$GPRMC,042059.000,A,3956.3553,N,11623.9296,E,2.00,333.31,180812,,,A*6F
387,
$GPRMC,042100.000,A,3956.3560,N,11623.9296,E,2.15,5.42,180812,,,A*64
387,
$GPRMC,042101.000,A,3956.3568,N,11623.9303,E,2.29,33.68,180812,,,A*52
386,
$GPRMC,042102.000,A,3956.3570,N,11623.9313,E,2.60,32.89,180812,,,A*5A
386,
$GPRMC,042103.000,A,3956.3564,N,11623.9320,E,1.56,45.10,180812,,,A*58
385,
$GPRMC,042104.000,A,3956.3566,N,11623.9316,E,1.80,5.99,180812,,,A*66
384,
$GPRMC,042105.000,A,3956.3562,N,11623.9313,E,1.11,307.98,180812,,,A*6E
384,
$GPRMC,042106.000,A,3956.3551,N,11623.9310,E,1.73,250.69,180812,,,A*67
383,
$GPRMC,042107.000,A,3956.3547,N,11623.9306,E,2.21,197.82,180812,,,A*6F
383,
$GPRMC,042108.000,A,3956.3554,N,11623.9306,E,0.81,216.99,180812,,,A*6A
382,
$GPRMC,042109.000,A,3956.3563,N,11623.9305,E,1.00,322.36,180812,,,A*67
381,
$GPRMC,042110.000,A,3956.3570,N,11623.9306,E,1.57,351.80,180812,,,A*65
380,
$GPRMC,042111.000,A,3956.3579,N,11623.9312,E,1.76,7.92,180812,,,A*68
380,
$GPRMC,042112.000,A,3956.3584,N,11623.9320,E,2.61,21.73,180812,,,A*56
379,
$GPRMC,042113.000,A,3956.3586,N,11623.9333,E,2.33,57.52,180812,,,A*52
378,
$GPRMC,042114.000,A,3956.3590,N,11623.9343,E,2.94,45.99,180812,,,A*5C
378,
$GPRMC,042115.000,A,3956.3578,N,11623.9341,E,1.97,41.46,180812,,,A*5F
378,
$GPRMC,042116.000,A,3956.3583,N,11623.9347,E,1.96,47.96,180812,,,A*54
377,
$GPRMC,042117.000,A,3956.3577,N,11623.9355,E,1.34,70.32,180812,,,A*5F
376,
$GPRMC,042118.000,A,3956.3574,N,11623.9359,E,1.12,117.44,180812,,,A*6A
376,
$GPRMC,042119.000,A,3956.3573,N,11623.9361,E,1.10,174.13,180812,,,A*62
375,
$GPRMC,042120.000,A,3956.3573,N,11623.9359,E,0.41,236.04,180812,,,A*65
375,
$GPRMC,042121.000,A,3956.3577,N,11623.9352,E,0.33,38.47,180812,,,A*55
374,
$GPRMC,042122.000,A,3956.3585,N,11623.9342,E,1.22,356.00,180812,,,A*63
374,
$GPRMC,042123.000,A,3956.3589,N,11623.9336,E,1.62,328.46,180812,,,A*62
373,
$GPRMC,042124.000,A,3956.3590,N,11623.9328,E,1.90,333.09,180812,,,A*6E
372,
$GPRMC,042125.000,A,3956.3589,N,11623.9328,E,0.28,114.98,180812,,,A*6A
372,
$GPRMC,042126.000,A,3956.3581,N,11623.9330,E,1.58,139.98,180812,,,A*61
371,
$GPRMC,042127.000,A,3956.3574,N,11623.9332,E,1.26,160.24,180812,,,A*6A
371,
$GPRMC,042128.000,A,3956.3572,N,11623.9337,E,0.25,152.04,180812,,,A*67
370,
$GPRMC,042129.000,A,3956.3566,N,11623.9344,E,0.42,349.66,180812,,,A*6A
369,
$GPRMC,042130.000,A,3956.3560,N,11623.9349,E,0.41,147.04,180812,,,A*62
369,
$GPRMC,042131.000,A,3956.3554,N,11623.9353,E,0.88,154.35,180812,,,A*6A
368,
$GPRMC,042132.000,A,3956.3554,N,11623.9350,E,0.81,306.22,180812,,,A*60
368,
$GPRMC,042133.000,A,3956.3558,N,11623.9349,E,1.14,26.70,180812,,,A*5E
367,
$GPRMC,042134.000,A,3956.3560,N,11623.9347,E,1.99,44.72,180812,,,A*5F
367,
$GPRMC,042135.000,A,3956.3569,N,11623.9347,E,2.12,27.58,180812,,,A*5A
366,
$GPRMC,042136.000,A,3956.3571,N,11623.9351,E,1.43,64.83,180812,,,A*51
366,
$GPRMC,042137.000,A,3956.3571,N,11623.9353,E,0.92,61.47,180812,,,A*52
366,
$GPRMC,042138.000,A,3956.3569,N,11623.9346,E,0.59,320.25,180812,,,A*65
365,
$GPRMC,042139.000,A,3956.3574,N,11623.9336,E,1.05,277.48,180812,,,A*6F
364,
$GPRMC,042140.000,A,3956.3575,N,11623.9334,E,0.69,234.35,180812,,,A*64
364,
$GPRMC,042141.000,A,3956.3575,N,11623.9334,E,0.14,178.84,180812,,,A*6E
363,
$GPRMC,042142.000,A,3956.3571,N,11623.9338,E,1.13,23.52,180812,,,A*57
363,
$GPRMC,042143.000,A,3956.3576,N,11623.9343,E,1.62,40.48,180812,,,A*55
364,
$GPRMC,042144.000,A,3956.3588,N,11623.9351,E,1.81,21.21,180812,,,A*55
363,
$GPRMC,042145.000,A,3956.3592,N,11623.9354,E,1.25,16.77,180812,,,A*53
362,
$GPRMC,042146.000,A,3956.3590,N,11623.9358,E,1.20,101.62,180812,,,A*68
362,
$GPRMC,042147.000,A,3956.3586,N,11623.9351,E,0.58,221.98,180812,,,A*6D
361,
$GPRMC,042148.000,A,3956.3579,N,11623.9347,E,1.04,184.19,180812,,,A*68
361,
$GPRMC,042149.000,A,3956.3574,N,11623.9343,E,1.05,196.21,180812,,,A*69
360,
$GPRMC,042150.000,A,3956.3574,N,11623.9337,E,0.59,352.51,180812,,,A*67
359,
$GPRMC,042151.000,A,3956.3581,N,11623.9333,E,1.51,342.35,180812,,,A*62
359,
$GPRMC,042152.000,A,3956.3581,N,11623.9333,E,0.81,10.11,180812,,,A*5F
358,
$GPRMC,042153.000,A,3956.3580,N,11623.9334,E,2.03,335.30,180812,,,A*67
358,
$GPRMC,042154.000,A,3956.3578,N,11623.9331,E,1.87,346.28,180812,,,A*60
357,
$GPRMC,042155.000,A,3956.3573,N,11623.9332,E,1.04,335.17,180812,,,A*6A
356,
$GPRMC,042156.000,A,3956.3572,N,11623.9331,E,2.31,321.77,180812,,,A*6D
356,
$GPRMC,042157.000,A,3956.3581,N,11623.9331,E,0.62,19.33,180812,,,A*5C
356,
$GPRMC,042158.000,A,3956.3583,N,11623.9336,E,0.62,57.66,180812,,,A*5C
355,
$GPRMC,042159.000,A,3956.3578,N,11623.9332,E,0.41,263.64,180812,,,A*6B
355,
$GPRMC,042200.000,A,3956.3571,N,11623.9332,E,1.43,116.65,180812,,,A*6E
354,
$GPRMC,042201.000,A,3956.3575,N,11623.9339,E,1.86,102.17,180812,,,A*69
354,
$GPRMC,042202.000,A,3956.3573,N,11623.9344,E,0.67,116.00,180812,,,A*6B
353,
$GPRMC,042203.000,A,3956.3571,N,11623.9341,E,0.61,318.32,180812,,,A*66
353,
$GPRMC,042204.000,A,3956.3569,N,11623.9335,E,0.53,353.77,180812,,,A*64
352,
$GPRMC,042205.000,A,3956.3566,N,11623.9322,E,0.55,358.06,180812,,,A*67
352,
$GPRMC,042206.000,A,3956.3569,N,11623.9320,E,0.82,340.48,180812,,,A*60
352,
$GPRMC,042207.000,A,3956.3562,N,11623.9317,E,1.00,288.18,180812,,,A*65
352,
$GPRMC,042208.000,A,3956.3554,N,11623.9319,E,1.16,209.41,180812,,,A*63
351,
$GPRMC,042209.000,A,3956.3544,N,11623.9324,E,1.57,193.94,180812,,,A*60
351,
$GPRMC,042210.000,A,3956.3548,N,11623.9326,E,2.36,185.40,180812,,,A*6C
351,
$GPRMC,042211.000,A,3956.3547,N,11623.9331,E,1.95,156.83,180812,,,A*6F
350,
$GPRMC,042212.000,A,3956.3553,N,11623.9336,E,1.44,107.02,180812,,,A*6F
350,
$GPRMC,042213.000,A,3956.3549,N,11623.9340,E,1.06,156.83,180812,,,A*6F
349,
$GPRMC,042214.000,A,3956.3551,N,11623.9339,E,0.60,36.64,180812,,,A*50
349,
$GPRMC,042215.000,A,3956.3547,N,11623.9341,E,1.01,125.64,180812,,,A*6C
348,
$GPRMC,042216.000,A,3956.3550,N,11623.9345,E,0.65,136.70,180812,,,A*69
348,
$GPRMC,042217.000,A,3956.3550,N,11623.9350,E,1.54,157.38,180812,,,A*64
347,
$GPRMC,042218.000,A,3956.3552,N,11623.9348,E,1.26,204.39,180812,,,A*61
347,
$GPRMC,042219.000,A,3956.3562,N,11623.9340,E,1.66,295.58,180812,,,A*60
346,
$GPRMC,042220.000,A,3956.3573,N,11623.9338,E,1.99,320.11,180812,,,A*67
346,
$GPRMC,042221.000,A,3956.3582,N,11623.9332,E,2.50,324.50,180812,,,A*65
345,
$GPRMC,042222.000,A,3956.3581,N,11623.9329,E,1.19,352.41,180812,,,A*60
345,
$GPRMC,042223.000,A,3956.3574,N,11623.9333,E,0.60,315.38,180812,,,A*62
345,
$GPRMC,042224.000,A,3956.3572,N,11623.9331,E,0.29,89.55,180812,,,A*51
344,
$GPRMC,042225.000,A,3956.3569,N,11623.9333,E,0.14,198.38,180812,,,A*6C
344,
$GPRMC,042226.000,A,3956.3564,N,11623.9331,E,0.80,226.21,180812,,,A*63
343,
$GPRMC,042227.000,A,3956.3561,N,11623.9330,E,0.48,219.63,180812,,,A*68
343,
$GPRMC,042228.000,A,3956.3559,N,11623.9331,E,0.21,185.08,180812,,,A*69
343,
$GPRMC,042229.000,A,3956.3556,N,11623.9331,E,0.55,218.22,180812,,,A*6B
342,
$GPRMC,042230.000,A,3956.3552,N,11623.9332,E,0.66,209.88,180812,,,A*64
342,
$GPRMC,042231.000,A,3956.3551,N,11623.9334,E,0.35,87.52,180812,,,A*55
341,
$GPRMC,042232.000,A,3956.3550,N,11623.9337,E,0.88,61.12,180812,,,A*5E
341,
$GPRMC,042233.000,A,3956.3547,N,11623.9338,E,0.22,194.84,180812,,,A*62
341,
$GPRMC,042234.000,A,3956.3547,N,11623.9342,E,0.33,63.70,180812,,,A*5A
340,
$GPRMC,042235.000,A,3956.3545,N,11623.9343,E,0.17,153.48,180812,,,A*67
340,
$GPRMC,042236.000,A,3956.3543,N,11623.9345,E,0.34,69.49,180812,,,A*5C
339,
$GPRMC,042237.000,A,3956.3543,N,11623.9348,E,0.34,70.24,180812,,,A*53
339,
$GPRMC,042238.000,A,3956.3541,N,11623.9349,E,0.39,72.70,180812,,,A*51
339,
$GPRMC,042239.000,A,3956.3539,N,11623.9349,E,1.09,64.47,180812,,,A*5E
338,
$GPRMC,042240.000,A,3956.3534,N,11623.9347,E,0.51,205.44,180812,,,A*69
338,
$GPRMC,042241.000,A,3956.3527,N,11623.9341,E,1.04,218.25,180812,,,A*66
337,
$GPRMC,042242.000,A,3956.3523,N,11623.9339,E,0.26,112.05,180812,,,A*64
337,
$GPRMC,042243.000,A,3956.3524,N,11623.9342,E,0.98,57.95,180812,,,A*52
336,
$GPRMC,042244.000,A,3956.3522,N,11623.9342,E,0.32,91.13,180812,,,A*57
336,
$GPRMC,042245.000,A,3956.3525,N,11623.9346,E,0.98,54.69,180812,,,A*51
336,
$GPRMC,042246.000,A,3956.3526,N,11623.9348,E,0.18,220.63,180812,,,A*6C
336,
$GPRMC,042247.000,A,3956.3527,N,11623.9350,E,1.18,223.21,180812,,,A*61
335,
$GPRMC,042248.000,A,3956.3529,N,11623.9352,E,0.39,212.62,180812,,,A*65
335,
$GPRMC,042249.000,A,3956.3529,N,11623.9353,E,0.30,209.43,180812,,,A*65
335,
$GPRMC,042250.000,A,3956.3530,N,11623.9355,E,0.74,59.08,180812,,,A*5B
334,
$GPRMC,042251.000,A,3956.3533,N,11623.9360,E,1.98,51.43,180812,,,A*5B
334,
$GPRMC,042252.000,A,3956.3537,N,11623.9366,E,2.92,48.47,180812,,,A*5F
333,
$GPRMC,042253.000,A,3956.3548,N,11623.9370,E,2.46,13.72,180812,,,A*50
333,
$GPRMC,042254.000,A,3956.3550,N,11623.9371,E,1.66,9.75,180812,,,A*62
333,
$GPRMC,042255.000,A,3956.3550,N,11623.9370,E,0.56,355.92,180812,,,A*63
332,
$GPRMC,042256.000,A,3956.3552,N,11623.9366,E,0.95,28.95,180812,,,A*54
332,
$GPRMC,042257.000,A,3956.3557,N,11623.9366,E,1.11,3.91,180812,,,A*60
332,
$GPRMC,042258.000,A,3956.3559,N,11623.9367,E,1.48,25.61,180812,,,A*57
331,
$GPRMC,042259.000,A,3956.3557,N,11623.9369,E,1.27,22.56,180812,,,A*5C
332,
$GPRMC,042300.000,A,3956.3552,N,11623.9369,E,0.97,337.27,180812,,,A*6F
332,
$GPRMC,042301.000,A,3956.3542,N,11623.9363,E,0.60,24.24,180812,,,A*5F
333,
$GPRMC,042302.000,A,3956.3533,N,11623.9361,E,1.23,206.67,180812,,,A*6B
333,
$GPRMC,042303.000,A,3956.3534,N,11623.9362,E,0.41,214.56,180812,,,A*6A
334,
$GPRMC,042304.000,A,3956.3540,N,11623.9361,E,2.47,312.04,180812,,,A*69
334,
$GPRMC,042305.000,A,3956.3540,N,11623.9358,E,2.19,285.96,180812,,,A*6D
334,
$GPRMC,042306.000,A,3956.3528,N,11623.9354,E,1.57,208.03,180812,,,A*6C
334,
$GPRMC,042307.000,A,3956.3525,N,11623.9348,E,2.31,207.30,180812,,,A*61
334,
$GPRMC,042308.000,A,3956.3517,N,11623.9339,E,2.36,192.62,180812,,,A*66
333,
$GPRMC,042309.000,A,3956.3503,N,11623.9337,E,1.59,209.44,180812,,,A*63
333,
$GPRMC,042310.000,A,3956.3499,N,11623.9334,E,0.35,180.81,180812,,,A*6A
333,
$GPRMC,042311.000,A,3956.3501,N,11623.9331,E,0.83,335.96,180812,,,A*69
332,
$GPRMC,042312.000,A,3956.3500,N,11623.9332,E,1.04,10.87,180812,,,A*52
332,
$GPRMC,042313.000,A,3956.3499,N,11623.9333,E,0.34,356.07,180812,,,A*68
332,
$GPRMC,042314.000,A,3956.3499,N,11623.9331,E,1.19,255.53,180812,,,A*60
332,
$GPRMC,042315.000,A,3956.3503,N,11623.9321,E,2.58,265.68,180812,,,A*6F
330,
$GPRMC,042316.000,A,3956.3502,N,11623.9320,E,0.85,250.51,180812,,,A*62
330,
$GPRMC,042317.000,A,3956.3497,N,11623.9323,E,1.75,141.45,180812,,,A*65
328,
$GPRMC,042318.000,A,3956.3501,N,11623.9310,E,1.48,295.30,180812,,,A*62
338,
$GPRMC,042319.000,A,3956.3506,N,11623.9295,E,3.80,283.43,180812,,,A*6D
333,
$GPRMC,042320.000,A,3956.3509,N,11623.9283,E,3.54,281.74,180812,,,A*60
328,
$GPRMC,042321.000,A,3956.3502,N,11623.9278,E,0.59,257.26,180812,,,A*6C
326,
$GPRMC,042322.000,A,3956.3506,N,11623.9277,E,0.78,346.20,180812,,,A*60
325,
$GPRMC,042323.000,A,3956.3505,N,11623.9282,E,0.16,287.04,180812,,,A*6A
324,
$GPRMC,042324.000,A,3956.3506,N,11623.9286,E,0.09,140.70,180812,,,A*6F
323,
$GPRMC,042325.000,A,3956.3509,N,11623.9289,E,0.38,174.65,180812,,,A*6F
322,
$GPRMC,042326.000,A,3956.3512,N,11623.9291,E,0.61,357.56,180812,,,A*60
321,
$GPRMC,042327.000,A,3956.3521,N,11623.9296,E,1.27,353.61,180812,,,A*65
322,
$GPRMC,042328.000,A,3956.3536,N,11623.9303,E,1.13,14.76,180812,,,A*50
322,
$GPRMC,042329.000,A,3956.3552,N,11623.9311,E,1.41,23.68,180812,,,A*5C
322,
$GPRMC,042330.000,A,3956.3562,N,11623.9317,E,1.38,24.57,180812,,,A*54
322,
$GPRMC,042331.000,A,3956.3570,N,11623.9322,E,1.22,24.50,180812,,,A*5C
321,
$GPRMC,042332.000,A,3956.3569,N,11623.9323,E,1.11,28.67,180812,,,A*5E
321,
$GPRMC,042333.000,A,3956.3565,N,11623.9322,E,0.63,31.67,180812,,,A*5E
321,
$GPRMC,042334.000,A,3956.3564,N,11623.9323,E,0.19,154.30,180812,,,A*64
320,
$GPRMC,042335.000,A,3956.3560,N,11623.9322,E,0.91,198.57,180812,,,A*61
320,
$GPRMC,042336.000,A,3956.3558,N,11623.9322,E,0.42,167.73,180812,,,A*61
319,
$GPRMC,042337.000,A,3956.3554,N,11623.9322,E,0.65,188.14,180812,,,A*69
319,
$GPRMC,042338.000,A,3956.3554,N,11623.9323,E,0.46,170.09,180812,,,A*6D
319,
$GPRMC,042339.000,A,3956.3554,N,11623.9324,E,0.33,160.57,180812,,,A*63
318,
$GPRMC,042340.000,A,3956.3555,N,11623.9325,E,0.22,62.79,180812,,,A*52
318,
$GPRMC,042341.000,A,3956.3562,N,11623.9330,E,0.72,29.91,180812,,,A*5F
318,
$GPRMC,042342.000,A,3956.3568,N,11623.9334,E,1.08,25.41,180812,,,A*5F
317,
$GPRMC,042343.000,A,3956.3572,N,11623.9337,E,0.80,25.47,180812,,,A*51
317,
$GPRMC,042344.000,A,3956.3566,N,11623.9335,E,0.93,27.17,180812,,,A*54
317,
$GPRMC,042345.000,A,3956.3565,N,11623.9335,E,0.47,27.84,180812,,,A*55
316,
$GPRMC,042346.000,A,3956.3569,N,11623.9336,E,1.03,20.04,180812,,,A*57
316,
$GPRMC,042347.000,A,3956.3575,N,11623.9339,E,0.93,24.12,180812,,,A*5F
316,
$GPRMC,042348.000,A,3956.3566,N,11623.9338,E,1.43,115.50,180812,,,A*6A
315,
$GPRMC,042349.000,A,3956.3567,N,11623.9344,E,0.72,163.51,180812,,,A*62
315,
$GPRMC,042350.000,A,3956.3575,N,11623.9351,E,1.14,115.56,180812,,,A*6A
315,
$GPRMC,042351.000,A,3956.3568,N,11623.9358,E,1.05,128.76,180812,,,A*62
315,
$GPRMC,042352.000,A,3956.3580,N,11623.9364,E,1.41,12.06,180812,,,A*57
314,
$GPRMC,042353.000,A,3956.3584,N,11623.9361,E,0.89,1.94,180812,,,A*6B
314,
$GPRMC,042354.000,A,3956.3586,N,11623.9361,E,1.18,51.48,180812,,,A*53
314,
$GPRMC,042355.000,A,3956.3578,N,11623.9359,E,0.80,140.70,180812,,,A*62
313,
$GPRMC,042356.000,A,3956.3583,N,11623.9353,E,0.71,338.27,180812,,,A*6E
313,
$GPRMC,042357.000,A,3956.3581,N,11623.9348,E,0.32,42.45,180812,,,A*5A
313,
$GPRMC,042358.000,A,3956.3591,N,11623.9344,E,1.28,25.40,180812,,,A*56
313,
$GPRMC,042359.000,A,3956.3596,N,11623.9347,E,1.48,38.98,180812,,,A*5C
313,
$GPRMC,042400.000,A,3956.3600,N,11623.9349,E,1.15,327.80,180812,,,A*69
312,
$GPRMC,042401.000,A,3956.3604,N,11623.9343,E,1.23,292.27,180812,,,A*61
312,
$GPRMC,042402.000,A,3956.3609,N,11623.9343,E,0.91,345.96,180812,,,A*66
312,
$GPRMC,042403.000,A,3956.3608,N,11623.9341,E,0.42,314.27,180812,,,A*64
312,
$GPRMC,042404.000,A,3956.3607,N,11623.9336,E,1.56,274.32,180812,,,A*6B
312,
$GPRMC,042405.000,A,3956.3604,N,11623.9337,E,0.60,317.00,180812,,,A*69
311,
$GPRMC,042406.000,A,3956.3602,N,11623.9337,E,0.50,207.82,180812,,,A*65
311,
$GPRMC,042407.000,A,3956.3599,N,11623.9341,E,1.01,211.64,180812,,,A*6E
310,
$GPRMC,042408.000,A,3956.3600,N,11623.9343,E,0.51,95.15,180812,,,A*5C
310,
$GPRMC,042409.000,A,3956.3598,N,11623.9344,E,0.79,186.08,180812,,,A*6D
310,
$GPRMC,042410.000,A,3956.3594,N,11623.9345,E,1.37,199.83,180812,,,A*6E
309,
$GPRMC,042411.000,A,3956.3593,N,11623.9340,E,0.96,226.82,180812,,,A*61
309,
$GPRMC,042412.000,A,3956.3594,N,11623.9342,E,0.36,218.00,180812,,,A*6A
309,
$GPRMC,042413.000,A,3956.3597,N,11623.9342,E,0.31,203.00,180812,,,A*65
309,
$GPRMC,042414.000,A,3956.3594,N,11623.9341,E,0.50,29.00,180812,,,A*5F
308,
$GPRMC,042415.000,A,3956.3596,N,11623.9343,E,0.29,6.33,180812,,,A*6D
308,
$GPRMC,042416.000,A,3956.3598,N,11623.9344,E,0.25,213.44,180812,,,A*6D
307,
$GPRMC,042417.000,A,3956.3590,N,11623.9340,E,0.02,252.91,180812,,,A*68
307,
$GPRMC,042418.000,A,3956.3582,N,11623.9337,E,0.26,198.28,180812,,,A*65
306,
$GPRMC,042419.000,A,3956.3576,N,11623.9335,E,0.24,199.93,180812,,,A*6E
306,
$GPRMC,042420.000,A,3956.3575,N,11623.9336,E,0.43,205.08,180812,,,A*61
306,
$GPRMC,042421.000,A,3956.3573,N,11623.9335,E,0.06,23.97,180812,,,A*54
305,
$GPRMC,042422.000,A,3956.3579,N,11623.9337,E,0.15,332.61,180812,,,A*67
305,
$GPRMC,042423.000,A,3956.3579,N,11623.9336,E,0.09,295.17,180812,,,A*67
305,
$GPRMC,042424.000,A,3956.3571,N,11623.9333,E,0.82,207.64,180812,,,A*61
304,
$GPRMC,042425.000,A,3956.3564,N,11623.9330,E,0.72,199.39,180812,,,A*64
304,
$GPRMC,042426.000,A,3956.3557,N,11623.9328,E,0.69,199.19,180812,,,A*66
303,
$GPRMC,042427.000,A,3956.3552,N,11623.9326,E,0.62,200.79,180812,,,A*62
303,
$GPRMC,042428.000,A,3956.3548,N,11623.9325,E,0.57,201.57,180812,,,A*6E
303,
$GPRMC,042429.000,A,3956.3545,N,11623.9324,E,0.52,201.36,180812,,,A*61
303,
$GPRMC,042430.000,A,3956.3543,N,11623.9323,E,0.49,207.81,180812,,,A*68
302,
$GPRMC,042431.000,A,3956.3541,N,11623.9323,E,0.51,201.96,180812,,,A*62
302,
$GPRMC,042432.000,A,3956.3539,N,11623.9322,E,0.47,203.07,180812,,,A*62
301,
$GPRMC,042433.000,A,3956.3537,N,11623.9321,E,0.47,203.23,180812,,,A*68
301,
$GPRMC,042434.000,A,3956.3536,N,11623.9321,E,0.44,202.07,180812,,,A*6A
301,
$GPRMC,042435.000,A,3956.3535,N,11623.9321,E,0.42,206.47,180812,,,A*6E
301,
$GPRMC,042436.000,A,3956.3533,N,11623.9320,E,0.41,205.34,180812,,,A*6E
301,
$GPRMC,042437.000,A,3956.3532,N,11623.9320,E,0.40,205.80,180812,,,A*60
301,
$GPRMC,042438.000,A,3956.3530,N,11623.9320,E,0.38,200.19,180812,,,A*67
300,
$GPRMC,042439.000,A,3956.3529,N,11623.9320,E,0.37,201.54,180812,,,A*69
300,
$GPRMC,042440.000,A,3956.3527,N,11623.9320,E,0.39,203.59,180812,,,A*68
300,
$GPRMC,042441.000,A,3956.3526,N,11623.9320,E,0.32,201.49,180812,,,A*60
299,
$GPRMC,042442.000,A,3956.3525,N,11623.9320,E,0.35,201.16,180812,,,A*6D
299,
$GPRMC,042443.000,A,3956.3524,N,11623.9320,E,0.33,200.28,180812,,,A*67
299,
$GPRMC,042444.000,A,3956.3523,N,11623.9320,E,0.31,201.74,180812,,,A*6D
299,
$GPRMC,042445.000,A,3956.3522,N,11623.9320,E,0.30,197.64,180812,,,A*61
299,
$GPRMC,042446.000,A,3956.3521,N,11623.9320,E,0.29,202.08,180812,,,A*6C
298,
$GPRMC,042447.000,A,3956.3519,N,11623.9320,E,0.38,174.33,180812,,,A*6C
298,
$GPRMC,042448.000,A,3956.3515,N,11623.9321,E,0.37,176.37,180812,,,A*67
298,
$GPRMC,042449.000,A,3956.3514,N,11623.9321,E,0.45,164.07,180812,,,A*62
297,
$GPRMC,042450.000,A,3956.3514,N,11623.9322,E,0.33,194.75,180812,,,A*62
297,
$GPRMC,042451.000,A,3956.3514,N,11623.9322,E,0.27,197.42,180812,,,A*61
297,
$GPRMC,042452.000,A,3956.3516,N,11623.9321,E,0.24,232.98,180812,,,A*6B
297,
$GPRMC,042453.000,A,3956.3516,N,11623.9321,E,0.16,202.07,180812,,,A*6E
297,
$GPRMC,042454.000,A,3956.3515,N,11623.9321,E,0.19,198.74,180812,,,A*61
296,
$GPRMC,042455.000,A,3956.3513,N,11623.9322,E,0.17,195.50,180812,,,A*60
296,
$GPRMC,042456.000,A,3956.3513,N,11623.9322,E,0.17,194.99,180812,,,A*67
296,
$GPRMC,042457.000,A,3956.3512,N,11623.9322,E,0.17,192.75,180812,,,A*63
296,
$GPRMC,042458.000,A,3956.3511,N,11623.9323,E,0.17,196.23,180812,,,A*69
296,
$GPRMC,042459.000,A,3956.3509,N,11623.9323,E,0.17,185.49,180812,,,A*6F
295,
$GPRMC,042500.000,A,3956.3507,N,11623.9323,E,0.19,180.59,180812,,,A*66
295,
$GPRMC,042501.000,A,3956.3505,N,11623.9324,E,0.19,184.26,180812,,,A*6E
295,
$GPRMC,042502.000,A,3956.3503,N,11623.9324,E,0.22,188.84,180812,,,A*67
295,
$GPRMC,042503.000,A,3956.3501,N,11623.9325,E,0.18,191.86,180812,,,A*66
295,
$GPRMC,042504.000,A,3956.3499,N,11623.9325,E,0.16,191.86,180812,,,A*6F
295,
$GPRMC,042505.000,A,3956.3498,N,11623.9325,E,0.17,193.99,180812,,,A*62
294,
$GPRMC,042506.000,A,3956.3497,N,11623.9326,E,0.16,197.34,180812,,,A*6F
294,
$GPRMC,042507.000,A,3956.3496,N,11623.9326,E,0.17,186.84,180812,,,A*65
294,
$GPRMC,042508.000,A,3956.3495,N,11623.9326,E,0.15,194.52,180812,,,A*63
294,
$GPRMC,042509.000,A,3956.3495,N,11623.9327,E,0.20,196.15,180812,,,A*64
293,
$GPRMC,042510.000,A,3956.3496,N,11623.9328,E,0.35,203.99,180812,,,A*6F
293,
$GPRMC,042511.000,A,3956.3494,N,11623.9327,E,0.23,186.10,180812,,,A*6B
293,
$GPRMC,042512.000,A,3956.3490,N,11623.9326,E,0.26,195.08,180812,,,A*63
293,
$GPRMC,042513.000,A,3956.3488,N,11623.9325,E,0.27,191.85,180812,,,A*68
292,
$GPRMC,042514.000,A,3956.3486,N,11623.9324,E,0.24,201.00,180812,,,A*64
292,
$GPRMC,042515.000,A,3956.3485,N,11623.9324,E,0.23,192.92,180812,,,A*63
292,
$GPRMC,042516.000,A,3956.3481,N,11623.9322,E,0.46,200.71,180812,,,A*64
292,
$GPRMC,042517.000,A,3956.3480,N,11623.9321,E,0.80,199.73,180812,,,A*6C
292,
$GPRMC,042518.000,A,3956.3482,N,11623.9321,E,0.40,198.19,180812,,,A*60
292,
$GPRMC,042519.000,A,3956.3486,N,11623.9322,E,0.36,197.20,180812,,,A*62
291,
$GPRMC,042520.000,A,3956.3486,N,11623.9323,E,0.39,150.85,180812,,,A*62
291,
$GPRMC,042521.000,A,3956.3489,N,11623.9323,E,0.49,158.61,180812,,,A*69
291,
$GPRMC,042522.000,A,3956.3494,N,11623.9324,E,0.38,231.93,180812,,,A*66
291,
$GPRMC,042523.000,A,3956.3501,N,11623.9325,E,0.32,314.68,180812,,,A*63
290,
$GPRMC,042524.000,A,3956.3502,N,11623.9325,E,0.28,239.90,180812,,,A*65
290,
$GPRMC,042525.000,A,3956.3503,N,11623.9326,E,0.20,153.37,180812,,,A*6C
290,
$GPRMC,042526.000,A,3956.3501,N,11623.9327,E,0.27,175.24,180812,,,A*6D
290,
$GPRMC,042527.000,A,3956.3501,N,11623.9328,E,0.41,142.07,180812,,,A*66
290,
$GPRMC,042528.000,A,3956.3504,N,11623.9328,E,0.18,226.21,180812,,,A*65
290,
$GPRMC,042529.000,A,3956.3506,N,11623.9327,E,0.37,336.85,180812,,,A*6A
289,
$GPRMC,042530.000,A,3956.3505,N,11623.9327,E,0.23,107.21,180812,,,A*6A
289,
$GPRMC,042531.000,A,3956.3506,N,11623.9327,E,0.73,232.10,180812,,,A*6A
289,
$GPRMC,042532.000,A,3956.3507,N,11623.9327,E,0.33,199.52,180812,,,A*68
289,
$GPRMC,042533.000,A,3956.3509,N,11623.9326,E,1.13,16.73,180812,,,A*50
289,
$GPRMC,042534.000,A,3956.3508,N,11623.9325,E,0.89,18.91,180812,,,A*55
289,
$GPRMC,042535.000,A,3956.3502,N,11623.9324,E,0.44,124.85,180812,,,A*65
289,
$GPRMC,042536.000,A,3956.3496,N,11623.9322,E,0.67,192.08,180812,,,A*65
289,
$GPRMC,042537.000,A,3956.3497,N,11623.9317,E,0.79,211.10,180812,,,A*6D
288,
$GPRMC,042538.000,A,3956.3496,N,11623.9313,E,0.96,196.57,180812,,,A*69
288,
$GPRMC,042539.000,A,3956.3490,N,11623.9310,E,2.08,185.44,180812,,,A*68
288,
$GPRMC,042540.000,A,3956.3482,N,11623.9306,E,2.91,189.65,180812,,,A*6D
288,
$GPRMC,042541.000,A,3956.3478,N,11623.9304,E,2.70,188.81,180812,,,A*6F
287,
$GPRMC,042542.000,A,3956.3472,N,11623.9304,E,3.55,188.06,180812,,,A*6F
287,
$GPRMC,042543.000,A,3956.3468,N,11623.9303,E,2.65,197.26,180812,,,A*6C
287,
$GPRMC,042544.000,A,3956.3467,N,11623.9301,E,2.08,200.53,180812,,,A*62
287,
$GPRMC,042545.000,A,3956.3471,N,11623.9300,E,1.18,213.16,180812,,,A*64
286,
$GPRMC,042546.000,A,3956.3479,N,11623.9305,E,0.10,342.47,180812,,,A*62
286,
$GPRMC,042547.000,A,3956.3487,N,11623.9311,E,0.53,80.54,180812,,,A*5F
285,
$GPRMC,042548.000,A,3956.3504,N,11623.9320,E,1.15,21.46,180812,,,A*53
285,
$GPRMC,042549.000,A,3956.3509,N,11623.9323,E,2.32,358.07,180812,,,A*62
285,
$GPRMC,042550.000,A,3956.3514,N,11623.9323,E,3.61,334.05,180812,,,A*69
284,
$GPRMC,042551.000,A,3956.3532,N,11623.9320,E,3.31,332.82,180812,,,A*63
284,
$GPRMC,042552.000,A,3956.3547,N,11623.9316,E,2.27,348.89,180812,,,A*67
284,
$GPRMC,042553.000,A,3956.3551,N,11623.9315,E,2.60,350.33,180812,,,A*69
284,
$GPRMC,042554.000,A,3956.3557,N,11623.9318,E,2.48,5.65,180812,,,A*6F
283,
$GPRMC,042555.000,A,3956.3557,N,11623.9326,E,1.88,72.76,180812,,,A*5E
283,
$GPRMC,042556.000,A,3956.3547,N,11623.9335,E,2.27,123.98,180812,,,A*6D
283,
$GPRMC,042557.000,A,3956.3533,N,11623.9339,E,3.38,155.27,180812,,,A*69
282,
$GPRMC,042558.000,A,3956.3521,N,11623.9339,E,2.91,163.27,180812,,,A*62
282,
$GPRMC,042559.000,A,3956.3514,N,11623.9341,E,2.85,155.72,180812,,,A*6A
282,
$GPRMC,042600.000,A,3956.3513,N,11623.9346,E,1.14,142.14,180812,,,A*68
282,
$GPRMC,042601.000,A,3956.3522,N,11623.9347,E,0.90,46.77,180812,,,A*57
282,
$GPRMC,042602.000,A,3956.3518,N,11623.9338,E,0.73,22.92,180812,,,A*51
282,
$GPRMC,042603.000,A,3956.3518,N,11623.9336,E,0.58,82.29,180812,,,A*5D
282,
$GPRMC,042604.000,A,3956.3530,N,11623.9338,E,1.67,0.73,180812,,,A*66
282,
$GPRMC,042605.000,A,3956.3530,N,11623.9341,E,0.74,33.33,180812,,,A*5E
282,
$GPRMC,042606.000,A,3956.3536,N,11623.9345,E,1.38,28.98,180812,,,A*5D
281,
$GPRMC,042607.000,A,3956.3548,N,11623.9353,E,1.80,7.94,180812,,,A*60
281,
$GPRMC,042608.000,A,3956.3560,N,11623.9358,E,1.28,29.14,180812,,,A*58
281,
$GPRMC,042609.000,A,3956.3566,N,11623.9365,E,1.54,48.57,180812,,,A*5A
281,
$GPRMC,042610.000,A,3956.3570,N,11623.9367,E,1.10,40.44,180812,,,A*5D
280,
$GPRMC,042611.000,A,3956.3575,N,11623.9368,E,0.80,26.17,180812,,,A*58
280,
$GPRMC,042612.000,A,3956.3580,N,11623.9371,E,1.23,18.29,180812,,,A*51
280,
$GPRMC,042613.000,A,3956.3575,N,11623.9369,E,0.10,104.21,180812,,,A*66
280,
$GPRMC,042614.000,A,3956.3578,N,11623.9372,E,0.46,87.05,180812,,,A*59
280,
$GPRMC,042615.000,A,3956.3573,N,11623.9370,E,0.45,29.71,180812,,,A*55
280,
$GPRMC,042616.000,A,3956.3564,N,11623.9365,E,0.26,33.57,180812,,,A*5E
280,
$GPRMC,042617.000,A,3956.3558,N,11623.9363,E,0.29,67.78,180812,,,A*55
280,
$GPRMC,042618.000,A,3956.3555,N,11623.9361,E,0.56,31.64,180812,,,A*53
280,
$GPRMC,042619.000,A,3956.3549,N,11623.9360,E,0.26,359.46,180812,,,A*64
279,
