$PSRFTXT,Version:GSW3.5.0_3.5.00.00-SDK-3EP2.01 *46
233,
$GPRMC,073341.119,A,3956.1075,N,11623.5057,E,0.12,197.30,180812,,,A*62
272,
$GPRMC,073342.119,A,3956.1074,N,11623.5068,E,0.16,106.33,180812,,,A*63
282,
$GPRMC,073343.119,A,3956.1067,N,11623.5072,E,0.16,148.51,180812,,,A*65
287,
$GPRMC,073344.119,A,3956.1065,N,11623.5073,E,0.36,169.98,180812,,,A*65
289,
$GPRMC,073345.119,A,3956.1061,N,11623.5070,E,0.13,44.72,180812,,,A*5E
290,
$GPRMC,073346.119,A,3956.1068,N,11623.5069,E,0.15,0.37,180812,,,A*6B
289,
$GPRMC,073347.119,A,3956.1077,N,11623.5064,E,0.12,177.23,180812,,,A*6A
287,
$GPRMC,073348.119,A,3956.1082,N,11623.5056,E,0.07,328.02,180812,,,A*61
285,
$GPRMC,073349.119,A,3956.1087,N,11623.5049,E,0.11,221.45,180812,,,A*67
283,
$GPRMC,073350.119,A,3956.1087,N,11623.5045,E,0.19,220.37,180812,,,A*6F
280,
$GPRMC,073351.119,A,3956.1085,N,11623.5042,E,0.50,244.30,180812,,,A*63
278,
$GPRMC,073352.119,A,3956.1086,N,11623.5038,E,0.74,267.26,180812,,,A*6E
276,
$GPRMC,073353.000,A,3956.1085,N,11623.5036,E,1.01,268.13,180812,,,A*61
273,
$GPRMC,073354.000,A,3956.1084,N,11623.5033,E,0.86,280.06,180812,,,A*6E
271,
$GPRMC,073355.000,A,3956.1084,N,11623.5029,E,1.14,284.17,180812,,,A*6A
269,
$GPRMC,073356.000,A,3956.1085,N,11623.5023,E,2.29,274.45,180812,,,A*67
268,
$GPRMC,073357.000,A,3956.1088,N,11623.5014,E,2.53,262.00,180812,,,A*64
266,
$GPRMC,073358.000,A,3956.1089,N,11623.5006,E,2.36,262.43,180812,,,A*6D
265,
$GPRMC,073359.000,A,3956.1092,N,11623.4997,E,2.92,279.24,180812,,,A*63
264,
$GPRMC,073400.000,A,3956.1095,N,11623.4986,E,3.28,276.23,180812,,,A*67
263,
$GPRMC,073401.000,A,3956.1099,N,11623.4974,E,3.53,275.89,180812,,,A*68
262,
$GPRMC,073402.000,A,3956.1099,N,11623.4961,E,3.60,275.53,180812,,,A*68
261,
$GPRMC,073403.000,A,3956.1104,N,11623.4948,E,3.31,276.00,180812,,,A*66
260,
$GPRMC,073404.000,A,3956.1108,N,11623.4935,E,3.87,269.25,180812,,,A*63
260,
$GPRMC,073405.000,A,3956.1110,N,11623.4920,E,3.51,272.63,180812,,,A*6C
260,
$GPRMC,073406.000,A,3956.1112,N,11623.4906,E,3.22,270.07,180812,,,A*6D
260,
$GPRMC,073407.000,A,3956.1116,N,11623.4892,E,3.01,273.47,180812,,,A*62
260,
$GPRMC,073408.000,A,3956.1118,N,11623.4880,E,2.99,273.04,180812,,,A*67
260,
$GPRMC,073409.000,A,3956.1122,N,11623.4868,E,2.96,273.77,180812,,,A*62
261,
$GPRMC,073410.000,A,3956.1125,N,11623.4856,E,3.13,277.06,180812,,,A*6E
260,
$GPRMC,073411.000,A,3956.1132,N,11623.4844,E,3.30,285.79,180812,,,A*6E
258,
$GPRMC,073412.000,A,3956.1136,N,11623.4831,E,3.76,282.44,180812,,,A*60
257,
$GPRMC,073413.000,A,3956.1140,N,11623.4818,E,3.45,290.28,180812,,,A*62
257,
$GPRMC,073414.000,A,3956.1143,N,11623.4805,E,3.52,275.81,180812,,,A*64
256,
$GPRMC,073415.000,A,3956.1146,N,11623.4791,E,3.77,281.40,180812,,,A*63
260,
$GPRMC,073416.000,A,3956.1145,N,11623.4779,E,3.76,270.27,180812,,,A*6B
260,
$GPRMC,073417.000,A,3956.1148,N,11623.4763,E,4.59,273.66,180812,,,A*60
259,
$GPRMC,073418.000,A,3956.1149,N,11623.4746,E,4.56,264.11,180812,,,A*60
257,
$GPRMC,073419.000,A,3956.1152,N,11623.4728,E,4.78,275.85,180812,,,A*62
256,
$GPRMC,073420.000,A,3956.1155,N,11623.4708,E,5.05,273.81,180812,,,A*64
255,
$GPRMC,073421.000,A,3956.1160,N,11623.4688,E,4.89,282.73,180812,,,A*6C
254,
$GPRMC,073422.000,A,3956.1163,N,11623.4673,E,3.46,277.75,180812,,,A*60
253,
$GPRMC,073423.000,A,3956.1165,N,11623.4655,E,4.90,276.90,180812,,,A*65
252,
$GPRMC,073424.000,A,3956.1166,N,11623.4636,E,4.38,277.92,180812,,,A*65
251,
$GPRMC,073425.000,A,3956.1170,N,11623.4619,E,4.14,298.50,180812,,,A*6F
251,
$GPRMC,073426.000,A,3956.1174,N,11623.4605,E,3.83,297.80,180812,,,A*6E
250,
$GPRMC,073427.000,A,3956.1177,N,11623.4588,E,4.25,276.12,180812,,,A*65
249,
$GPRMC,073428.000,A,3956.1176,N,11623.4570,E,4.14,267.39,180812,,,A*67
249,
$GPRMC,073429.000,A,3956.1177,N,11623.4552,E,4.51,277.38,180812,,,A*66
248,
$GPRMC,073430.000,A,3956.1176,N,11623.4534,E,4.15,260.20,180812,,,A*60
248,
$GPRMC,073431.000,A,3956.1169,N,11623.4520,E,4.67,229.01,180812,,,A*61
247,
$GPRMC,073432.000,A,3956.1159,N,11623.4507,E,4.41,231.33,180812,,,A*68
247,
$GPRMC,073433.000,A,3956.1149,N,11623.4495,E,4.13,231.31,180812,,,A*67
247,
$GPRMC,073434.000,A,3956.1139,N,11623.4484,E,3.73,227.74,180812,,,A*60
244,
$GPRMC,073435.000,A,3956.1127,N,11623.4475,E,4.05,220.31,180812,,,A*60
245,
$GPRMC,073436.000,A,3956.1116,N,11623.4467,E,3.09,225.36,180812,,,A*6B
244,
$GPRMC,073437.000,A,3956.1109,N,11623.4456,E,3.62,235.09,180812,,,A*66
244,
$GPRMC,073438.000,A,3956.1105,N,11623.4443,E,3.12,271.48,180812,,,A*63
244,
$GPRMC,073439.000,A,3956.1104,N,11623.4430,E,3.40,272.75,180812,,,A*6D
243,
$GPRMC,073440.000,A,3956.1103,N,11623.4415,E,3.87,271.51,180812,,,A*6D
243,
$GPRMC,073441.000,A,3956.1103,N,11623.4400,E,4.19,278.62,180812,,,A*61
243,
$GPRMC,073442.000,A,3956.1103,N,11623.4382,E,4.61,274.92,180812,,,A*63
244,
$GPRMC,073443.000,A,3956.1104,N,11623.4364,E,4.92,276.57,180812,,,A*6A
243,
$GPRMC,073444.000,A,3956.1105,N,11623.4344,E,5.00,275.23,180812,,,A*64
242,
$GPRMC,073445.000,A,3956.1106,N,11623.4325,E,5.05,271.04,180812,,,A*65
242,
$GPRMC,073446.000,A,3956.1106,N,11623.4306,E,5.18,274.56,180812,,,A*69
242,
$GPRMC,073447.000,A,3956.1108,N,11623.4286,E,5.24,281.10,180812,,,A*68
241,
$GPRMC,073448.000,A,3956.1110,N,11623.4266,E,5.36,280.62,180812,,,A*67
241,
$GPRMC,073449.000,A,3956.1112,N,11623.4246,E,5.52,282.48,180812,,,A*6E
241,
$GPRMC,073450.000,A,3956.1115,N,11623.4226,E,5.33,279.86,180812,,,A*66
240,
$GPRMC,073451.000,A,3956.1117,N,11623.4207,E,5.35,281.02,180812,,,A*6B
241,
$GPRMC,073452.000,A,3956.1119,N,11623.4188,E,4.36,281.46,180812,,,A*60
241,
$GPRMC,073453.000,A,3956.1119,N,11623.4172,E,5.09,285.56,180812,,,A*6C
241,
$GPRMC,073454.000,A,3956.1121,N,11623.4154,E,4.76,283.17,180812,,,A*6E
240,
$GPRMC,073455.000,A,3956.1124,N,11623.4138,E,4.49,293.44,180812,,,A*6B
240,
$GPRMC,073456.000,A,3956.1127,N,11623.4123,E,5.12,286.75,180812,,,A*68
240,
$GPRMC,073457.000,A,3956.1130,N,11623.4105,E,5.21,284.43,180812,,,A*6C
239,
$GPRMC,073458.000,A,3956.1134,N,11623.4086,E,4.98,284.73,180812,,,A*6D
239,
$GPRMC,073459.000,A,3956.1137,N,11623.4069,E,4.70,287.97,180812,,,A*61
239,
$GPRMC,073500.000,A,3956.1140,N,11623.4052,E,4.22,278.19,180812,,,A*65
240,
$GPRMC,073501.000,A,3956.1141,N,11623.4036,E,3.78,273.57,180812,,,A*6E
240,
$GPRMC,073502.000,A,3956.1141,N,11623.4022,E,3.34,268.87,180812,,,A*67
240,
$GPRMC,073503.000,A,3956.1141,N,11623.4010,E,2.94,260.64,180812,,,A*69
240,
$GPRMC,073504.000,A,3956.1140,N,11623.4000,E,2.23,260.17,180812,,,A*66
240,
$GPRMC,073505.000,A,3956.1140,N,11623.3992,E,1.38,266.76,180812,,,A*6A
240,
$GPRMC,073506.000,A,3956.1140,N,11623.3989,E,0.04,180.51,180812,,,A*63
240,
$GPRMC,073507.000,A,3956.1140,N,11623.3988,E,0.12,357.30,180812,,,A*6B
241,
$GPRMC,073508.000,A,3956.1140,N,11623.3988,E,0.08,329.74,180812,,,A*66
241,
$GPRMC,073509.000,A,3956.1141,N,11623.3987,E,0.12,7.72,180812,,,A*6B
241,
$GPRMC,073510.000,A,3956.1141,N,11623.3986,E,0.06,0.83,180812,,,A*6E
240,
$GPRMC,073511.000,A,3956.1141,N,11623.3986,E,0.12,2.57,180812,,,A*61
240,
$GPRMC,073512.000,A,3956.1141,N,11623.3985,E,0.07,346.66,180812,,,A*64
240,
$GPRMC,073513.000,A,3956.1141,N,11623.3984,E,0.08,357.62,180812,,,A*6F
240,
$GPRMC,073514.000,A,3956.1141,N,11623.3984,E,0.02,275.42,180812,,,A*61
239,
$GPRMC,073515.000,A,3956.1140,N,11623.3981,E,0.97,250.35,180812,,,A*6F
239,
$GPRMC,073516.000,A,3956.1138,N,11623.3976,E,1.63,248.51,180812,,,A*6A
238,
$GPRMC,073517.000,A,3956.1136,N,11623.3971,E,1.52,235.07,180812,,,A*69
239,
$GPRMC,073518.000,A,3956.1135,N,11623.3966,E,1.75,264.32,180812,,,A*64
239,
$GPRMC,073519.000,A,3956.1134,N,11623.3960,E,1.38,247.94,180812,,,A*66
239,
$GPRMC,073520.000,A,3956.1133,N,11623.3956,E,0.75,264.13,180812,,,A*68
239,
$GPRMC,073521.000,A,3956.1133,N,11623.3954,E,0.32,184.00,180812,,,A*67
239,
$GPRMC,073522.000,A,3956.1131,N,11623.3952,E,1.11,214.18,180812,,,A*63
240,
$GPRMC,073523.000,A,3956.1130,N,11623.3949,E,1.23,276.26,180812,,,A*61
241,
$GPRMC,073524.000,A,3956.1130,N,11623.3945,E,0.54,266.06,180812,,,A*68
242,
$GPRMC,073525.000,A,3956.1130,N,11623.3941,E,1.10,284.95,180812,,,A*6A
242,
$GPRMC,073526.000,A,3956.1130,N,11623.3937,E,0.95,262.72,180812,,,A*65
243,
$GPRMC,073527.000,A,3956.1131,N,11623.3932,E,1.48,280.67,180812,,,A*69
243,
$GPRMC,073528.000,A,3956.1130,N,11623.3925,E,2.09,256.38,180812,,,A*66
242,
$GPRMC,073529.000,A,3956.1129,N,11623.3918,E,1.51,277.61,180812,,,A*60
242,
$GPRMC,073530.000,A,3956.1127,N,11623.3913,E,1.93,226.67,180812,,,A*61
242,
$GPRMC,073531.000,A,3956.1122,N,11623.3907,E,2.77,207.39,180812,,,A*61
241,
$GPRMC,073532.000,A,3956.1113,N,11623.3903,E,3.29,193.08,180812,,,A*62
240,
$GPRMC,073533.000,A,3956.1103,N,11623.3903,E,3.55,171.14,180812,,,A*68
239,
$GPRMC,073534.000,A,3956.1092,N,11623.3905,E,3.82,165.66,180812,,,A*6A
239,
$GPRMC,073535.000,A,3956.1082,N,11623.3909,E,3.61,157.65,180812,,,A*69
238,
$GPRMC,073536.000,A,3956.1072,N,11623.3912,E,3.77,169.93,180812,,,A*6C
238,
$GPRMC,073537.000,A,3956.1061,N,11623.3914,E,3.80,167.96,180812,,,A*6A
237,
$GPRMC,073538.000,A,3956.1050,N,11623.3915,E,3.94,179.38,180812,,,A*68
237,
$GPRMC,073539.000,A,3956.1039,N,11623.3915,E,3.92,175.44,180812,,,A*67
237,
$GPRMC,073540.000,A,3956.1027,N,11623.3915,E,3.93,176.79,180812,,,A*6A
236,
$GPRMC,073541.000,A,3956.1016,N,11623.3916,E,4.38,170.97,180812,,,A*6A
236,
$GPRMC,073542.000,A,3956.1003,N,11623.3918,E,4.79,176.63,180812,,,A*6B
235,
$GPRMC,073543.000,A,3956.0988,N,11623.3918,E,5.27,176.14,180812,,,A*6B
235,
$GPRMC,073544.000,A,3956.0972,N,11623.3919,E,5.71,174.84,180812,,,A*60
235,
$GPRMC,073545.000,A,3956.0955,N,11623.3922,E,5.98,169.78,180812,,,A*64
234,
$GPRMC,073546.000,A,3956.0939,N,11623.3925,E,5.92,169.86,180812,,,A*61
234,
$GPRMC,073547.000,A,3956.0921,N,11623.3927,E,5.60,172.39,180812,,,A*68
234,
$GPRMC,073548.000,A,3956.0905,N,11623.3928,E,5.39,179.53,180812,,,A*65
234,
$GPRMC,073549.000,A,3956.0890,N,11623.3929,E,5.22,180.01,180812,,,A*63
234,
$GPRMC,073550.000,A,3956.0875,N,11623.3927,E,5.79,183.95,180812,,,A*6E
234,
$GPRMC,073551.000,A,3956.0858,N,11623.3926,E,5.73,179.34,180812,,,A*65
233,
$GPRMC,073552.000,A,3956.0840,N,11623.3926,E,6.32,179.31,180812,,,A*6C
232,
$GPRMC,073553.000,A,3956.0822,N,11623.3925,E,6.09,182.05,180812,,,A*61
232,
$GPRMC,073554.000,A,3956.0803,N,11623.3924,E,6.35,178.95,180812,,,A*67
232,
$GPRMC,073555.000,A,3956.0782,N,11623.3924,E,7.39,180.59,180812,,,A*6A
231,
$GPRMC,073556.000,A,3956.0761,N,11623.3923,E,6.96,179.71,180812,,,A*6B
231,
$GPRMC,073557.000,A,3956.0741,N,11623.3924,E,6.18,176.48,180812,,,A*6C
231,
$GPRMC,073558.000,A,3956.0721,N,11623.3927,E,6.77,173.16,180812,,,A*61
231,
$GPRMC,073559.000,A,3956.0701,N,11623.3930,E,5.81,174.17,180812,,,A*68
231,
$GPRMC,073600.000,A,3956.0683,N,11623.3933,E,6.43,170.65,180812,,,A*63
231,
$GPRMC,073601.000,A,3956.0663,N,11623.3934,E,7.46,176.91,180812,,,A*62
231,
$GPRMC,073602.000,A,3956.0643,N,11623.3933,E,6.78,182.48,180812,,,A*67
231,
$GPRMC,073603.000,A,3956.0621,N,11623.3933,E,7.26,177.76,180812,,,A*6F
232,
$GPRMC,073604.000,A,3956.0599,N,11623.3933,E,7.24,178.10,180812,,,A*65
232,
$GPRMC,073605.000,A,3956.0579,N,11623.3934,E,6.06,176.78,180812,,,A*6C
232,
$GPRMC,073606.000,A,3956.0559,N,11623.3936,E,6.64,174.34,180812,,,A*61
232,
$GPRMC,073607.000,A,3956.0539,N,11623.3937,E,6.41,179.02,180812,,,A*68
232,
$GPRMC,073608.000,A,3956.0518,N,11623.3937,E,7.28,181.03,180812,,,A*6C
232,
$GPRMC,073609.000,A,3956.0497,N,11623.3938,E,6.69,173.60,180812,,,A*68
232,
$GPRMC,073610.000,A,3956.0479,N,11623.3940,E,6.12,172.96,180812,,,A*6B
232,
$GPRMC,073611.000,A,3956.0461,N,11623.3944,E,6.45,171.88,180812,,,A*69
232,
$GPRMC,073612.000,A,3956.0441,N,11623.3947,E,6.79,170.15,180812,,,A*61
233,
$GPRMC,073613.000,A,3956.0420,N,11623.3950,E,7.06,171.89,180812,,,A*6C
234,
$GPRMC,073614.000,A,3956.0399,N,11623.3953,E,7.20,176.69,180812,,,A*60
235,
$GPRMC,073615.000,A,3956.0378,N,11623.3953,E,7.15,180.67,180812,,,A*6F
235,
$GPRMC,073616.000,A,3956.0357,N,11623.3953,E,7.03,181.89,180812,,,A*67
235,
$GPRMC,073617.000,A,3956.0338,N,11623.3951,E,6.83,178.94,180812,,,A*6E
236,
$GPRMC,073618.000,A,3956.0318,N,11623.3952,E,6.37,180.24,180812,,,A*63
236,
$GPRMC,073619.000,A,3956.0300,N,11623.3951,E,6.36,180.57,180812,,,A*6D
236,
$GPRMC,073620.000,A,3956.0282,N,11623.3951,E,5.69,177.05,180812,,,A*6A
236,
$GPRMC,073621.000,A,3956.0265,N,11623.3951,E,5.64,177.87,180812,,,A*65
236,
$GPRMC,073622.000,A,3956.0248,N,11623.3952,E,5.23,173.71,180812,,,A*64
237,
$GPRMC,073623.000,A,3956.0236,N,11623.3953,E,3.98,169.51,180812,,,A*62
237,
$GPRMC,073624.000,A,3956.0223,N,11623.3953,E,4.11,180.21,180812,,,A*67
237,
$GPRMC,073625.000,A,3956.0211,N,11623.3954,E,4.36,169.09,180812,,,A*68
237,
$GPRMC,073626.000,A,3956.0198,N,11623.3957,E,4.23,168.43,180812,,,A*61
237,
$GPRMC,073627.000,A,3956.0185,N,11623.3960,E,4.49,164.80,180812,,,A*67
237,
$GPRMC,073628.000,A,3956.0172,N,11623.3963,E,4.18,172.82,180812,,,A*62
237,
$GPRMC,073629.000,A,3956.0158,N,11623.3962,E,5.10,182.35,180812,,,A*60
237,
$GPRMC,073630.000,A,3956.0140,N,11623.3962,E,5.52,180.75,180812,,,A*61
238,
$GPRMC,073631.000,A,3956.0123,N,11623.3961,E,5.79,181.82,180812,,,A*66
237,
$GPRMC,073632.000,A,3956.0104,N,11623.3961,E,6.28,178.90,180812,,,A*62
237,
$GPRMC,073633.000,A,3956.0085,N,11623.3961,E,6.49,178.96,180812,,,A*6A
236,
$GPRMC,073634.000,A,3956.0065,N,11623.3962,E,6.67,177.50,180812,,,A*69
236,
$GPRMC,073635.000,A,3956.0045,N,11623.3964,E,6.78,177.29,180812,,,A*6C
237,
$GPRMC,073636.000,A,3956.0025,N,11623.3965,E,6.82,176.42,180812,,,A*61
238,
$GPRMC,073637.000,A,3956.0004,N,11623.3967,E,6.99,173.57,180812,,,A*6A
239,
$GPRMC,073638.000,A,3955.9984,N,11623.3971,E,7.05,171.66,180812,,,A*6D
242,
$GPRMC,073639.000,A,3955.9963,N,11623.3973,E,7.19,176.62,180812,,,A*69
243,
$GPRMC,073640.000,A,3955.9942,N,11623.3975,E,7.25,175.09,180812,,,A*63
245,
$GPRMC,073641.000,A,3955.9921,N,11623.3977,E,7.38,174.33,180812,,,A*61
250,
$GPRMC,073642.000,A,3955.9900,N,11623.3978,E,7.40,180.44,180812,,,A*6A
251,
$GPRMC,073643.000,A,3955.9879,N,11623.3973,E,7.28,199.33,180812,,,A*69
250,
$GPRMC,073644.000,A,3955.9859,N,11623.3965,E,7.78,194.68,180812,,,A*6D
249,
$GPRMC,073645.000,A,3955.9836,N,11623.3961,E,7.65,182.31,180812,,,A*66
248,
$GPRMC,073646.000,A,3955.9814,N,11623.3961,E,7.57,178.62,180812,,,A*67
247,
$GPRMC,073647.000,A,3955.9793,N,11623.3959,E,7.32,186.10,180812,,,A*6A
247,
$GPRMC,073648.000,A,3955.9772,N,11623.3957,E,6.88,183.84,180812,,,A*6C
247,
$GPRMC,073649.000,A,3955.9753,N,11623.3954,E,6.21,188.55,180812,,,A*69
246,
$GPRMC,073650.000,A,3955.9735,N,11623.3952,E,6.46,178.93,180812,,,A*63
246,
$GPRMC,073651.000,A,3955.9716,N,11623.3952,E,6.83,180.09,180812,,,A*6E
246,
$GPRMC,073652.000,A,3955.9695,N,11623.3953,E,6.84,178.48,180812,,,A*63
246,
$GPRMC,073653.000,A,3955.9676,N,11623.3953,E,6.83,181.21,180812,,,A*61
247,
$GPRMC,073654.000,A,3955.9657,N,11623.3952,E,7.11,180.99,180812,,,A*6C
247,
$GPRMC,073655.000,A,3955.9637,N,11623.3952,E,7.10,177.38,180812,,,A*69
246,
$GPRMC,073656.000,A,3955.9618,N,11623.3953,E,6.71,180.41,180812,,,A*66
246,
$GPRMC,073657.000,A,3955.9599,N,11623.3953,E,6.78,178.13,180812,,,A*64
246,
$GPRMC,073658.000,A,3955.9580,N,11623.3954,E,6.85,175.47,180812,,,A*6A
247,
$GPRMC,073659.000,A,3955.9561,N,11623.3955,E,6.86,174.46,180812,,,A*66
247,
$GPRMC,073700.000,A,3955.9542,N,11623.3957,E,6.67,175.78,180812,,,A*6B
246,
$GPRMC,073701.000,A,3955.9524,N,11623.3958,E,6.38,174.00,180812,,,A*61
247,
$GPRMC,073702.000,A,3955.9507,N,11623.3959,E,5.93,179.55,180812,,,A*6D
248,
$GPRMC,073703.000,A,3955.9489,N,11623.3959,E,6.08,178.59,180812,,,A*67
248,
$GPRMC,073704.000,A,3955.9470,N,11623.3961,E,5.96,175.91,180812,,,A*60
248,
$GPRMC,073705.000,A,3955.9453,N,11623.3964,E,5.77,173.88,180812,,,A*64
247,
$GPRMC,073706.000,A,3955.9436,N,11623.3968,E,5.67,177.87,180812,,,A*62
246,
$GPRMC,073707.000,A,3955.9419,N,11623.3970,E,4.56,180.87,180812,,,A*6C
245,
$GPRMC,073708.000,A,3955.9404,N,11623.3969,E,5.26,189.51,180812,,,A*63
244,
$GPRMC,073709.000,A,3955.9387,N,11623.3967,E,5.23,184.64,180812,,,A*6E
244,
$GPRMC,073710.000,A,3955.9374,N,11623.3965,E,4.01,191.93,180812,,,A*65
243,
$GPRMC,073711.000,A,3955.9364,N,11623.3960,E,3.82,204.45,180812,,,A*68
243,
$GPRMC,073712.000,A,3955.9356,N,11623.3951,E,3.93,220.11,180812,,,A*6F
242,
$GPRMC,073713.000,A,3955.9348,N,11623.3940,E,4.14,221.69,180812,,,A*67
242,
$GPRMC,073714.000,A,3955.9341,N,11623.3928,E,4.08,231.76,180812,,,A*65
242,
$GPRMC,073715.000,A,3955.9335,N,11623.3915,E,4.03,232.21,180812,,,A*63
242,
$GPRMC,073716.000,A,3955.9329,N,11623.3901,E,4.56,241.55,180812,,,A*6F
241,
$GPRMC,073717.000,A,3955.9327,N,11623.3884,E,4.79,266.20,180812,,,A*66
241,
$GPRMC,073718.000,A,3955.9327,N,11623.3865,E,5.31,268.96,180812,,,A*68
240,
$GPRMC,073719.000,A,3955.9327,N,11623.3845,E,5.43,274.07,180812,,,A*6B
240,
$GPRMC,073720.000,A,3955.9327,N,11623.3824,E,5.86,270.25,180812,,,A*6B
240,
$GPRMC,073721.000,A,3955.9328,N,11623.3802,E,5.92,270.39,180812,,,A*69
240,
$GPRMC,073722.000,A,3955.9330,N,11623.3779,E,5.86,275.43,180812,,,A*6D
240,
$GPRMC,073723.000,A,3955.9331,N,11623.3756,E,6.01,270.08,180812,,,A*66
240,
$GPRMC,073724.000,A,3955.9332,N,11623.3733,E,6.07,271.44,180812,,,A*6E
240,
$GPRMC,073725.000,A,3955.9333,N,11623.3711,E,5.98,273.99,180812,,,A*69
239,
$GPRMC,073726.000,A,3955.9335,N,11623.3688,E,5.89,274.63,180812,,,A*6F
239,
$GPRMC,073727.000,A,3955.9336,N,11623.3666,E,5.90,270.44,180812,,,A*64
239,
$GPRMC,073728.000,A,3955.9336,N,11623.3644,E,5.93,271.65,180812,,,A*6A
239,
$GPRMC,073729.000,A,3955.9337,N,11623.3622,E,5.70,275.30,180812,,,A*63
238,
$GPRMC,073730.000,A,3955.9339,N,11623.3601,E,5.60,275.65,180812,,,A*65
238,
$GPRMC,073731.000,A,3955.9341,N,11623.3579,E,5.65,275.58,180812,,,A*6C
238,
$GPRMC,073732.000,A,3955.9341,N,11623.3559,E,5.12,271.10,180812,,,A*65
238,
$GPRMC,073733.000,A,3955.9342,N,11623.3540,E,5.06,272.48,180812,,,A*64
238,
$GPRMC,073734.000,A,3955.9341,N,11623.3521,E,4.96,267.70,180812,,,A*60
238,
$GPRMC,073735.000,A,3955.9341,N,11623.3502,E,4.87,270.72,180812,,,A*64
238,
$GPRMC,073736.000,A,3955.9341,N,11623.3484,E,4.66,269.35,180812,,,A*6C
238,
$GPRMC,073737.000,A,3955.9341,N,11623.3467,E,4.49,271.61,180812,,,A*65
238,
$GPRMC,073738.000,A,3955.9341,N,11623.3450,E,4.53,267.24,180812,,,A*63
238,
$GPRMC,073739.000,A,3955.9340,N,11623.3433,E,4.62,268.90,180812,,,A*64
238,
$GPRMC,073740.000,A,3955.9338,N,11623.3415,E,5.07,263.07,180812,,,A*66
238,
$GPRMC,073741.000,A,3955.9336,N,11623.3395,E,5.47,261.28,180812,,,A*6D
238,
$GPRMC,073742.000,A,3955.9334,N,11623.3375,E,5.66,261.98,180812,,,A*6A
238,
$GPRMC,073743.000,A,3955.9331,N,11623.3354,E,5.82,258.95,180812,,,A*60
237,
$GPRMC,073744.000,A,3955.9327,N,11623.3334,E,5.33,255.83,180812,,,A*66
237,
$GPRMC,073745.000,A,3955.9322,N,11623.3316,E,5.01,246.87,180812,,,A*65
237,
$GPRMC,073746.000,A,3955.9319,N,11623.3298,E,4.94,261.16,180812,,,A*69
237,
$GPRMC,073747.000,A,3955.9318,N,11623.3279,E,5.37,273.70,180812,,,A*6D
236,
$GPRMC,073748.000,A,3955.9318,N,11623.3258,E,5.76,267.64,180812,,,A*64
236,
$GPRMC,073749.000,A,3955.9318,N,11623.3236,E,5.97,267.80,180812,,,A*68
236,
$GPRMC,073750.000,A,3955.9317,N,11623.3214,E,6.06,265.13,180812,,,A*6C
236,
$GPRMC,073751.000,A,3955.9316,N,11623.3192,E,6.14,267.74,180812,,,A*61
236,
$GPRMC,073752.000,A,3955.9315,N,11623.3169,E,6.20,268.24,180812,,,A*68
236,
$GPRMC,073753.000,A,3955.9315,N,11623.3146,E,6.35,268.32,180812,,,A*67
235,
$GPRMC,073754.000,A,3955.9315,N,11623.3123,E,6.37,269.57,180812,,,A*63
236,
$GPRMC,073755.000,A,3955.9314,N,11623.3099,E,6.57,265.98,180812,,,A*6A
236,
$GPRMC,073756.000,A,3955.9312,N,11623.3074,E,6.58,265.13,180812,,,A*60
236,
$GPRMC,073757.000,A,3955.9312,N,11623.3050,E,6.56,268.03,180812,,,A*65
235,
$GPRMC,073758.000,A,3955.9311,N,11623.3026,E,6.70,269.41,180812,,,A*6B
235,
$GPRMC,073759.000,A,3955.9310,N,11623.3002,E,6.38,270.05,180812,,,A*69
235,
$GPRMC,073800.000,A,3955.9311,N,11623.2978,E,6.62,270.40,180812,,,A*60
236,
$GPRMC,073801.000,A,3955.9310,N,11623.2953,E,6.74,270.10,180812,,,A*6B
236,
$GPRMC,073802.000,A,3955.9311,N,11623.2929,E,6.69,273.83,180812,,,A*61
236,
$GPRMC,073803.000,A,3955.9313,N,11623.2904,E,6.42,275.36,180812,,,A*6C
236,
$GPRMC,073804.000,A,3955.9315,N,11623.2880,E,6.47,274.78,180812,,,A*6E
236,
$GPRMC,073805.000,A,3955.9317,N,11623.2856,E,6.47,275.93,180812,,,A*62
236,
$GPRMC,073806.000,A,3955.9318,N,11623.2831,E,6.85,274.65,180812,,,A*69
235,
$GPRMC,073807.000,A,3955.9318,N,11623.2805,E,6.94,271.42,180812,,,A*6F
235,
$GPRMC,073808.000,A,3955.9320,N,11623.2779,E,6.90,275.53,180812,,,A*6F
235,
$GPRMC,073809.000,A,3955.9322,N,11623.2753,E,6.99,276.74,180812,,,A*6B
235,
$GPRMC,073810.000,A,3955.9323,N,11623.2727,E,6.97,273.83,180812,,,A*62
235,
$GPRMC,073811.000,A,3955.9324,N,11623.2701,E,7.00,271.92,180812,,,A*6D
234,
$GPRMC,073812.000,A,3955.9324,N,11623.2675,E,6.99,270.63,180812,,,A*62
234,
$GPRMC,073813.000,A,3955.9324,N,11623.2649,E,7.03,270.04,180812,,,A*6F
234,
$GPRMC,073814.000,A,3955.9324,N,11623.2623,E,6.90,268.15,180812,,,A*66
234,
$GPRMC,073815.000,A,3955.9323,N,11623.2598,E,6.83,267.77,180812,,,A*6A
234,
$GPRMC,073816.000,A,3955.9322,N,11623.2573,E,6.81,268.93,180812,,,A*6A
233,
$GPRMC,073817.000,A,3955.9321,N,11623.2548,E,6.73,271.77,180812,,,A*6F
233,
$GPRMC,073818.000,A,3955.9322,N,11623.2523,E,6.75,270.93,180812,,,A*63
233,
$GPRMC,073819.000,A,3955.9322,N,11623.2498,E,6.79,269.62,180812,,,A*69
233,
$GPRMC,073820.000,A,3955.9322,N,11623.2473,E,6.77,270.51,180812,,,A*60
233,
$GPRMC,073821.000,A,3955.9322,N,11623.2448,E,6.77,269.47,180812,,,A*66
233,
$GPRMC,073822.000,A,3955.9322,N,11623.2423,E,6.77,272.49,180812,,,A*6C
233,
$GPRMC,073823.000,A,3955.9322,N,11623.2398,E,6.75,269.08,180812,,,A*67
233,
$GPRMC,073824.000,A,3955.9321,N,11623.2373,E,6.74,268.81,180812,,,A*67
233,
$GPRMC,073825.000,A,3955.9321,N,11623.2350,E,6.06,267.25,180812,,,A*63
233,
$GPRMC,073826.000,A,3955.9320,N,11623.2331,E,4.34,264.90,180812,,,A*68
234,
$GPRMC,073827.000,A,3955.9319,N,11623.2316,E,4.07,271.80,180812,,,A*63
234,
$GPRMC,073828.000,A,3955.9320,N,11623.2300,E,4.41,271.99,180812,,,A*6B
235,
$GPRMC,073829.000,A,3955.9320,N,11623.2284,E,4.60,274.36,180812,,,A*64
235,
$GPRMC,073830.000,A,3955.9321,N,11623.2267,E,4.43,274.78,180812,,,A*6B
235,
$GPRMC,073831.000,A,3955.9323,N,11623.2252,E,4.28,280.39,180812,,,A*6D
236,
$GPRMC,073832.000,A,3955.9325,N,11623.2236,E,4.30,276.53,180812,,,A*66
236,
$GPRMC,073833.000,A,3955.9326,N,11623.2221,E,4.43,275.46,180812,,,A*61
237,
$GPRMC,073834.000,A,3955.9328,N,11623.2204,E,4.53,279.49,180812,,,A*6D
236,
$GPRMC,073835.000,A,3955.9329,N,11623.2188,E,4.48,269.37,180812,,,A*68
237,
$GPRMC,073836.000,A,3955.9327,N,11623.2171,E,4.34,262.27,180812,,,A*62
237,
$GPRMC,073837.000,A,3955.9326,N,11623.2156,E,4.08,261.02,180812,,,A*6C
237,
$GPRMC,073838.000,A,3955.9326,N,11623.2142,E,3.97,275.06,180812,,,A*66
237,
$GPRMC,073839.000,A,3955.9328,N,11623.2126,E,4.34,279.32,180812,,,A*6E
236,
$GPRMC,073840.000,A,3955.9328,N,11623.2109,E,4.88,267.42,180812,,,A*62
236,
$GPRMC,073841.000,A,3955.9326,N,11623.2091,E,5.25,255.38,180812,,,A*67
236,
$GPRMC,073842.000,A,3955.9323,N,11623.2072,E,5.54,260.84,180812,,,A*6B
236,
$GPRMC,073843.000,A,3955.9320,N,11623.2051,E,5.69,263.81,180812,,,A*60
235,
$GPRMC,073844.000,A,3955.9319,N,11623.2030,E,5.75,265.81,180812,,,A*61
235,
$GPRMC,073845.000,A,3955.9317,N,11623.2009,E,5.85,267.00,180812,,,A*60
235,
$GPRMC,073846.000,A,3955.9317,N,11623.1987,E,5.90,276.86,180812,,,A*65
235,
$GPRMC,073847.000,A,3955.9319,N,11623.1966,E,5.92,277.52,180812,,,A*6F
236,
$GPRMC,073848.000,A,3955.9321,N,11623.1944,E,5.90,277.26,180812,,,A*6A
237,
$GPRMC,073849.000,A,3955.9323,N,11623.1923,E,5.98,275.53,180812,,,A*60
237,
$GPRMC,073850.000,A,3955.9324,N,11623.1901,E,6.05,271.29,180812,,,A*61
237,
$GPRMC,073851.000,A,3955.9323,N,11623.1878,E,6.08,265.97,180812,,,A*65
236,
$GPRMC,073852.000,A,3955.9323,N,11623.1856,E,6.32,271.25,180812,,,A*6F
236,
$GPRMC,073853.000,A,3955.9323,N,11623.1833,E,6.42,272.75,180812,,,A*6C
236,
$GPRMC,073854.000,A,3955.9324,N,11623.1809,E,6.44,273.06,180812,,,A*66
236,
$GPRMC,073855.000,A,3955.9325,N,11623.1785,E,6.51,268.25,180812,,,A*62
235,
$GPRMC,073856.000,A,3955.9324,N,11623.1761,E,6.58,268.06,180812,,,A*62
235,
$GPRMC,073857.000,A,3955.9324,N,11623.1736,E,6.69,268.73,180812,,,A*61
235,
$GPRMC,073858.000,A,3955.9323,N,11623.1712,E,6.47,267.97,180812,,,A*66
234,
$GPRMC,073859.000,A,3955.9323,N,11623.1689,E,6.41,270.00,180812,,,A*6A
234,
$GPRMC,073900.000,A,3955.9322,N,11623.1666,E,6.26,266.87,180812,,,A*6E
234,
$GPRMC,073901.000,A,3955.9322,N,11623.1643,E,6.27,269.13,180812,,,A*6B
233,
$GPRMC,073902.000,A,3955.9321,N,11623.1620,E,6.32,265.59,180812,,,A*68
233,
$GPRMC,073903.000,A,3955.9319,N,11623.1597,E,6.39,264.21,180812,,,A*68
233,
$GPRMC,073904.000,A,3955.9316,N,11623.1574,E,6.37,259.52,180812,,,A*69
234,
$GPRMC,073905.000,A,3955.9313,N,11623.1552,E,6.35,259.94,180812,,,A*61
234,
$GPRMC,073906.000,A,3955.9311,N,11623.1529,E,6.21,266.62,180812,,,A*6C
234,
$GPRMC,073907.000,A,3955.9310,N,11623.1506,E,6.21,269.36,180812,,,A*6F
234,
$GPRMC,073908.000,A,3955.9309,N,11623.1483,E,6.31,266.94,180812,,,A*62
234,
$GPRMC,073909.000,A,3955.9309,N,11623.1460,E,6.34,273.04,180812,,,A*66
234,
$GPRMC,073910.000,A,3955.9310,N,11623.1437,E,6.38,274.23,180812,,,A*6A
234,
$GPRMC,073911.000,A,3955.9311,N,11623.1414,E,6.41,272.34,180812,,,A*65
234,
$GPRMC,073912.000,A,3955.9312,N,11623.1390,E,6.37,274.33,180812,,,A*6E
234,
$GPRMC,073913.000,A,3955.9312,N,11623.1367,E,6.38,270.59,180812,,,A*60
233,
$GPRMC,073914.000,A,3955.9313,N,11623.1344,E,6.18,270.58,180812,,,A*64
233,
$GPRMC,073915.000,A,3955.9313,N,11623.1321,E,6.03,271.67,180812,,,A*61
233,
$GPRMC,073916.000,A,3955.9312,N,11623.1301,E,5.21,264.02,180812,,,A*65
233,
$GPRMC,073917.000,A,3955.9310,N,11623.1284,E,4.39,257.07,180812,,,A*67
233,
$GPRMC,073918.000,A,3955.9308,N,11623.1269,E,3.92,257.19,180812,,,A*6B
232,
$GPRMC,073919.000,A,3955.9307,N,11623.1255,E,3.82,275.24,180812,,,A*65
232,
$GPRMC,073920.000,A,3955.9308,N,11623.1241,E,3.72,280.66,180812,,,A*66
232,
$GPRMC,073921.000,A,3955.9310,N,11623.1228,E,3.49,273.11,180812,,,A*65
232,
$GPRMC,073922.000,A,3955.9311,N,11623.1216,E,3.64,286.47,180812,,,A*6C
232,
$GPRMC,073923.000,A,3955.9312,N,11623.1202,E,3.89,269.05,180812,,,A*6F
231,
$GPRMC,073924.000,A,3955.9310,N,11623.1187,E,4.64,259.14,180812,,,A*63
231,
$GPRMC,073925.000,A,3955.9306,N,11623.1171,E,5.08,254.48,180812,,,A*63
231,
$GPRMC,073926.000,A,3955.9303,N,11623.1152,E,5.41,261.55,180812,,,A*63
231,
$GPRMC,073927.000,A,3955.9300,N,11623.1132,E,5.91,265.22,180812,,,A*6E
231,
$GPRMC,073928.000,A,3955.9299,N,11623.1109,E,6.20,268.23,180812,,,A*6D
231,
$GPRMC,073929.000,A,3955.9299,N,11623.1086,E,6.48,269.24,180812,,,A*62
231,
$GPRMC,073930.000,A,3955.9299,N,11623.1062,E,6.51,271.43,180812,,,A*60
232,
$GPRMC,073931.000,A,3955.9299,N,11623.1038,E,6.70,270.13,180812,,,A*69
232,
$GPRMC,073932.000,A,3955.9298,N,11623.1013,E,6.95,267.58,180812,,,A*60
232,
$GPRMC,073933.000,A,3955.9297,N,11623.0987,E,6.95,267.33,180812,,,A*66
232,
$GPRMC,073934.000,A,3955.9296,N,11623.0961,E,7.34,266.86,180812,,,A*6D
232,
$GPRMC,073935.000,A,3955.9295,N,11623.0934,E,7.33,268.75,180812,,,A*6A
232,
$GPRMC,073936.000,A,3955.9295,N,11623.0906,E,7.61,267.76,180812,,,A*63
231,
$GPRMC,073937.000,A,3955.9294,N,11623.0878,E,7.64,268.54,180812,,,A*61
231,
$GPRMC,073938.000,A,3955.9294,N,11623.0850,E,7.60,269.91,180812,,,A*68
231,
$GPRMC,073939.000,A,3955.9294,N,11623.0823,E,7.31,269.91,180812,,,A*69
231,
$GPRMC,073940.000,A,3955.9293,N,11623.0796,E,7.11,267.05,180812,,,A*60
231,
$GPRMC,073941.000,A,3955.9291,N,11623.0771,E,6.79,263.80,180812,,,A*6C
231,
$GPRMC,073942.000,A,3955.9289,N,11623.0746,E,6.66,266.47,180812,,,A*62
231,
$GPRMC,073943.000,A,3955.9288,N,11623.0722,E,6.40,266.02,180812,,,A*65
231,
$GPRMC,073944.000,A,3955.9286,N,11623.0699,E,6.74,262.81,180812,,,A*65
231,
$GPRMC,073945.000,A,3955.9284,N,11623.0673,E,7.07,262.74,180812,,,A*6D
231,
$GPRMC,073946.000,A,3955.9282,N,11623.0647,E,7.39,266.26,180812,,,A*61
231,
$GPRMC,073947.000,A,3955.9280,N,11623.0620,E,7.65,266.20,180812,,,A*6C
231,
$GPRMC,073948.000,A,3955.9278,N,11623.0592,E,7.91,263.06,180812,,,A*64
231,
$GPRMC,073949.000,A,3955.9276,N,11623.0562,E,8.08,264.69,180812,,,A*65
231,
$GPRMC,073950.000,A,3955.9275,N,11623.0533,E,8.13,267.61,180812,,,A*6B
231,
$GPRMC,073951.000,A,3955.9273,N,11623.0503,E,8.26,264.23,180812,,,A*6C
232,
$GPRMC,073952.000,A,3955.9271,N,11623.0473,E,8.22,268.38,180812,,,A*69
232,
$GPRMC,073953.000,A,3955.9273,N,11623.0443,E,7.79,279.84,180812,,,A*6F
232,
$GPRMC,073954.000,A,3955.9278,N,11623.0417,E,7.12,284.38,180812,,,A*6A
232,
$GPRMC,073955.000,A,3955.9281,N,11623.0393,E,6.48,280.36,180812,,,A*62
233,
$GPRMC,073956.000,A,3955.9284,N,11623.0371,E,5.46,274.51,180812,,,A*6F
233,
$GPRMC,073957.000,A,3955.9284,N,11623.0355,E,3.79,270.36,180812,,,A*67
233,
$GPRMC,073958.000,A,3955.9283,N,11623.0342,E,3.43,262.39,180812,,,A*6C
233,
$GPRMC,073959.000,A,3955.9281,N,11623.0330,E,3.14,262.75,180812,,,A*60
234,
$GPRMC,074000.000,A,3955.9281,N,11623.0320,E,2.29,269.63,180812,,,A*60
236,
$GPRMC,074001.000,A,3955.9280,N,11623.0315,E,0.63,269.55,180812,,,A*6F
238,
$GPRMC,074002.000,A,3955.9279,N,11623.0314,E,0.12,250.39,180812,,,A*6D
239,
$GPRMC,074003.000,A,3955.9279,N,11623.0313,E,0.56,227.84,180812,,,A*6D
240,
$GPRMC,074004.000,A,3955.9278,N,11623.0310,E,1.51,263.37,180812,,,A*66
241,
$GPRMC,074005.000,A,3955.9276,N,11623.0303,E,2.02,254.39,180812,,,A*64
243,
$GPRMC,074006.000,A,3955.9274,N,11623.0295,E,2.95,247.98,180812,,,A*6C
249,
$GPRMC,074007.000,A,3955.9272,N,11623.0285,E,2.83,271.30,180812,,,A*6A
251,
$GPRMC,074008.000,A,3955.9272,N,11623.0275,E,2.45,263.61,180812,,,A*67
250,
$GPRMC,074009.000,A,3955.9271,N,11623.0266,E,2.50,266.55,180812,,,A*61
248,
$GPRMC,074010.000,A,3955.9270,N,11623.0257,E,2.69,267.62,180812,,,A*65
248,
$GPRMC,074011.000,A,3955.9270,N,11623.0248,E,2.61,264.24,180812,,,A*63
249,
$GPRMC,074012.000,A,3955.9270,N,11623.0241,E,1.62,296.90,180812,,,A*6B
251,
$GPRMC,074013.000,A,3955.9271,N,11623.0235,E,1.46,251.29,180812,,,A*67
254,
$GPRMC,074014.000,A,3955.9270,N,11623.0230,E,1.33,262.23,180812,,,A*6C
265,
$GPRMC,074015.000,A,3955.9270,N,11623.0227,E,0.63,254.47,180812,,,A*68
276,
$GPRMC,074016.000,A,3955.9269,N,11623.0224,E,0.84,270.71,180812,,,A*6A
279,
$GPRMC,074017.000,A,3955.9268,N,11623.0219,E,2.13,255.35,180812,,,A*6F
278,
$GPRMC,074018.000,A,3955.9266,N,11623.0211,E,2.12,247.06,180812,,,A*64
282,
$GPRMC,074019.000,A,3955.9265,N,11623.0203,E,2.52,264.56,180812,,,A*65
294,
$GPRMC,074020.000,A,3955.9264,N,11623.0194,E,2.56,262.94,180812,,,A*6F
303,
$GPRMC,074021.000,A,3955.9265,N,11623.0184,E,2.48,278.76,180812,,,A*66
313,
$GPRMC,074022.000,A,3955.9267,N,11623.0174,E,3.04,289.95,180812,,,A*62
317,
$GPRMC,074023.000,A,3955.9269,N,11623.0163,E,3.42,286.52,180812,,,A*6D
318,
$GPRMC,074024.000,A,3955.9272,N,11623.0151,E,3.17,281.72,180812,,,A*64
318,
$GPRMC,074025.000,A,3955.9273,N,11623.0141,E,2.54,276.75,180812,,,A*6C
318,
$GPRMC,074026.000,A,3955.9274,N,11623.0132,E,2.03,273.34,180812,,,A*6E
318,
$GPRMC,074027.000,A,3955.9274,N,11623.0126,E,1.32,279.22,180812,,,A*66
318,
$GPRMC,074028.000,A,3955.9274,N,11623.0124,E,0.16,281.64,180812,,,A*69
318,
$GPRMC,074029.000,A,3955.9273,N,11623.0123,E,0.08,350.59,180812,,,A*64
317,
$GPRMC,074030.000,A,3955.9273,N,11623.0123,E,0.13,175.44,180812,,,A*6F
317,
$GPRMC,074031.000,A,3955.9273,N,11623.0123,E,0.04,73.64,180812,,,A*5D
316,
$GPRMC,074032.000,A,3955.9272,N,11623.0123,E,0.12,47.10,180812,,,A*5C
316,
$GPRMC,074033.000,A,3955.9272,N,11623.0124,E,0.24,130.56,180812,,,A*6C
316,
$GPRMC,074034.000,A,3955.9272,N,11623.0124,E,0.10,62.10,180812,,,A*58
316,
$GPRMC,074035.000,A,3955.9272,N,11623.0124,E,0.07,29.89,180812,,,A*50
316,
$GPRMC,074036.000,A,3955.9272,N,11623.0124,E,0.06,101.33,180812,,,A*68
316,
$GPRMC,074037.000,A,3955.9273,N,11623.0124,E,0.06,69.83,180812,,,A*5C
316,
$GPRMC,074038.000,A,3955.9273,N,11623.0124,E,0.05,86.84,180812,,,A*56
316,
$GPRMC,074039.000,A,3955.9273,N,11623.0124,E,0.06,110.66,180812,,,A*66
316,
$GPRMC,074040.000,A,3955.9273,N,11623.0124,E,0.07,116.47,180812,,,A*6C
315,
$GPRMC,074041.000,A,3955.9273,N,11623.0124,E,0.07,50.09,180812,,,A*54
314,
$GPRMC,074042.000,A,3955.9273,N,11623.0124,E,0.05,89.51,180812,,,A*5C
313,
$GPRMC,074043.000,A,3955.9273,N,11623.0124,E,0.11,342.74,180812,,,A*6B
311,
$GPRMC,074044.000,A,3955.9274,N,11623.0124,E,0.21,354.41,180812,,,A*69
310,
$GPRMC,074045.000,A,3955.9274,N,11623.0124,E,0.14,29.45,180812,,,A*53
309,
$GPRMC,074046.000,A,3955.9274,N,11623.0124,E,0.08,148.39,180812,,,A*60
306,
$GPRMC,074047.000,A,3955.9274,N,11623.0123,E,0.04,243.38,180812,,,A*63
303,
$GPRMC,074048.000,A,3955.9274,N,11623.0123,E,0.15,147.49,180812,,,A*6D
300,
$GPRMC,074049.000,A,3955.9274,N,11623.0123,E,0.05,353.00,180812,,,A*67
298,
$GPRMC,074050.000,A,3955.9274,N,11623.0123,E,0.15,152.53,180812,,,A*6B
295,
$GPRMC,074051.000,A,3955.9274,N,11623.0122,E,0.12,276.49,180812,,,A*62
293,
$GPRMC,074052.000,A,3955.9274,N,11623.0121,E,0.19,224.09,180812,,,A*6A
291,
$GPRMC,074053.000,A,3955.9274,N,11623.0121,E,0.07,153.47,180812,,,A*6D
289,
$GPRMC,074054.000,A,3955.9273,N,11623.0121,E,0.12,22.41,180812,,,A*58
288,
$GPRMC,074055.000,A,3955.9273,N,11623.0122,E,0.24,8.69,180812,,,A*6D
287,
$GPRMC,074056.000,A,3955.9273,N,11623.0122,E,0.24,153.99,180812,,,A*6E
286,
$GPRMC,074057.000,A,3955.9273,N,11623.0122,E,0.10,110.09,180812,,,A*66
284,
$GPRMC,074058.000,A,3955.9273,N,11623.0122,E,0.04,68.47,180812,,,A*58
284,
$GPRMC,074059.000,A,3955.9273,N,11623.0122,E,0.07,124.55,180812,,,A*60
284,
$GPRMC,074100.000,A,3955.9273,N,11623.0122,E,0.06,74.13,180812,,,A*5A
284,
$GPRMC,074101.000,A,3955.9273,N,11623.0121,E,0.08,143.05,180812,,,A*64
283,
$GPRMC,074102.000,A,3955.9273,N,11623.0121,E,0.06,63.70,180812,,,A*58
282,
$GPRMC,074103.000,A,3955.9274,N,11623.0121,E,0.05,58.43,180812,,,A*55
282,
$GPRMC,074104.000,A,3955.9274,N,11623.0120,E,0.03,73.55,180812,,,A*5B
282,
$GPRMC,074105.000,A,3955.9273,N,11623.0120,E,0.24,160.95,180812,,,A*67
282,
$GPRMC,074106.000,A,3955.9272,N,11623.0121,E,0.30,143.50,180812,,,A*69
281,
$GPRMC,074107.000,A,3955.9271,N,11623.0121,E,0.25,5.09,180812,,,A*60
281,
$GPRMC,074108.000,A,3955.9270,N,11623.0122,E,0.20,145.65,180812,,,A*67
280,
$GPRMC,074109.000,A,3955.9270,N,11623.0122,E,0.32,5.49,180812,,,A*6E
280,
$GPRMC,074110.000,A,3955.9271,N,11623.0121,E,0.16,41.41,180812,,,A*5A
280,
$GPRMC,074111.000,A,3955.9271,N,11623.0121,E,0.14,12.28,180812,,,A*50
279,
$GPRMC,074112.000,A,3955.9271,N,11623.0120,E,0.14,221.00,180812,,,A*6A
277,
$GPRMC,074113.000,A,3955.9271,N,11623.0118,E,0.68,291.11,180812,,,A*60
274,
$GPRMC,074114.000,A,3955.9271,N,11623.0112,E,2.37,267.61,180812,,,A*6B
271,
$GPRMC,074115.000,A,3955.9269,N,11623.0102,E,3.15,254.67,180812,,,A*65
273,
$GPRMC,074116.000,A,3955.9267,N,11623.0089,E,3.58,264.86,180812,,,A*6F
273,
$GPRMC,074117.000,A,3955.9265,N,11623.0075,E,4.20,255.70,180812,,,A*6C
274,
$GPRMC,074118.000,A,3955.9262,N,11623.0059,E,4.72,260.57,180812,,,A*6E
271,
$GPRMC,074119.000,A,3955.9259,N,11623.0041,E,5.10,252.97,180812,,,A*66
266,
$GPRMC,074120.000,A,3955.9256,N,11623.0023,E,5.41,258.47,180812,,,A*64
263,
$GPRMC,074121.000,A,3955.9253,N,11623.0003,E,5.50,260.28,180812,,,A*60
261,
$GPRMC,074122.000,A,3955.9250,N,11622.9983,E,5.65,259.21,180812,,,A*6C
261,
$GPRMC,074123.000,A,3955.9246,N,11622.9962,E,5.88,263.19,180812,,,A*64
261,
$GPRMC,074124.000,A,3955.9244,N,11622.9940,E,6.03,263.98,180812,,,A*68
260,
$GPRMC,074125.000,A,3955.9242,N,11622.9918,E,6.02,262.16,180812,,,A*64
257,
$GPRMC,074126.000,A,3955.9240,N,11622.9895,E,6.23,263.60,180812,,,A*62
256,
$GPRMC,074127.000,A,3955.9239,N,11622.9872,E,6.26,267.58,180812,,,A*6E
260,
$GPRMC,074128.000,A,3955.9237,N,11622.9849,E,6.24,264.53,180812,,,A*6D
264,
$GPRMC,074129.000,A,3955.9236,N,11622.9829,E,4.86,269.91,180812,,,A*62
268,
$GPRMC,074130.000,A,3955.9236,N,11622.9816,E,2.60,264.03,180812,,,A*6E
271,
$GPRMC,074131.000,A,3955.9236,N,11622.9810,E,0.52,280.97,180812,,,A*6D
272,
$GPRMC,074132.000,A,3955.9236,N,11622.9809,E,0.43,281.67,180812,,,A*68
273,
$GPRMC,074133.000,A,3955.9237,N,11622.9805,E,1.64,291.30,180812,,,A*63
274,
$GPRMC,074134.000,A,3955.9239,N,11622.9797,E,2.83,284.95,180812,,,A*6F
274,
$GPRMC,074135.000,A,3955.9241,N,11622.9784,E,4.18,282.72,180812,,,A*68
275,
$GPRMC,074136.000,A,3955.9243,N,11622.9768,E,4.63,275.61,180812,,,A*6D
275,
$GPRMC,074137.000,A,3955.9245,N,11622.9749,E,5.03,279.47,180812,,,A*66
273,
$GPRMC,074138.000,A,3955.9247,N,11622.9730,E,5.45,276.94,180812,,,A*66
270,
$GPRMC,074139.000,A,3955.9247,N,11622.9709,E,5.93,265.00,180812,,,A*69
267,
$GPRMC,074140.000,A,3955.9245,N,11622.9686,E,6.29,264.00,180812,,,A*60
265,
$GPRMC,074141.000,A,3955.9241,N,11622.9663,E,6.46,255.25,180812,,,A*62
265,
$GPRMC,074142.000,A,3955.9238,N,11622.9640,E,6.41,264.75,180812,,,A*6E
262,
$GPRMC,074143.000,A,3955.9238,N,11622.9616,E,6.19,267.23,180812,,,A*61
263,
$GPRMC,074144.000,A,3955.9237,N,11622.9594,E,5.96,266.51,180812,,,A*60
264,
$GPRMC,074145.000,A,3955.9235,N,11622.9573,E,5.63,266.00,180812,,,A*64
268,
$GPRMC,074146.000,A,3955.9234,N,11622.9553,E,5.04,263.91,180812,,,A*68
270,
$GPRMC,074147.000,A,3955.9232,N,11622.9536,E,4.56,262.73,180812,,,A*67
269,
$GPRMC,074148.000,A,3955.9231,N,11622.9520,E,4.14,263.47,180812,,,A*6C
269,
$GPRMC,074149.000,A,3955.9229,N,11622.9506,E,3.81,262.51,180812,,,A*6D
270,
$GPRMC,074150.000,A,3955.9228,N,11622.9492,E,3.75,270.05,180812,,,A*61
270,
$GPRMC,074151.000,A,3955.9228,N,11622.9480,E,2.79,262.03,180812,,,A*6B
270,
$GPRMC,074152.000,A,3955.9225,N,11622.9472,E,2.22,235.41,180812,,,A*62
270,
$GPRMC,074153.000,A,3955.9221,N,11622.9466,E,1.99,229.83,180812,,,A*62
271,
$GPRMC,074154.000,A,3955.9220,N,11622.9460,E,1.35,266.87,180812,,,A*6B
271,
$GPRMC,074155.000,A,3955.9219,N,11622.9454,E,1.90,269.68,180812,,,A*66
271,
$GPRMC,074156.000,A,3955.9220,N,11622.9446,E,2.08,267.49,180812,,,A*63
271,
$GPRMC,074157.000,A,3955.9220,N,11622.9439,E,1.72,271.32,180812,,,A*6F
271,
$GPRMC,074158.000,A,3955.9220,N,11622.9433,E,1.67,256.94,180812,,,A*67
270,
$GPRMC,074159.000,A,3955.9220,N,11622.9424,E,2.98,273.15,180812,,,A*6D
269,
$GPRMC,074200.000,A,3955.9219,N,11622.9411,E,3.88,273.76,180812,,,A*6B
267,
$GPRMC,074201.000,A,3955.9219,N,11622.9395,E,4.63,268.09,180812,,,A*61
265,
$GPRMC,074202.000,A,3955.9218,N,11622.9377,E,5.39,267.48,180812,,,A*6B
265,
$GPRMC,074203.000,A,3955.9217,N,11622.9356,E,5.75,266.92,180812,,,A*68
265,
$GPRMC,074204.000,A,3955.9216,N,11622.9335,E,5.89,264.04,180812,,,A*65
264,
$GPRMC,074205.000,A,3955.9214,N,11622.9312,E,6.03,265.90,180812,,,A*6E
262,
$GPRMC,074206.000,A,3955.9213,N,11622.9290,E,5.86,265.72,180812,,,A*63
261,
$GPRMC,074207.000,A,3955.9212,N,11622.9269,E,5.48,267.00,180812,,,A*60
261,
$GPRMC,074208.000,A,3955.9211,N,11622.9250,E,4.78,266.33,180812,,,A*65
260,
$GPRMC,074209.000,A,3955.9210,N,11622.9232,E,4.81,268.40,180812,,,A*6D
260,
$GPRMC,074210.000,A,3955.9209,N,11622.9214,E,5.00,262.33,180812,,,A*6F
260,
$GPRMC,074211.000,A,3955.9208,N,11622.9195,E,5.31,267.82,180812,,,A*68
260,
$GPRMC,074212.000,A,3955.9207,N,11622.9175,E,5.43,265.19,180812,,,A*6F
260,
$GPRMC,074213.000,A,3955.9206,N,11622.9155,E,5.55,264.42,180812,,,A*65
260,
$GPRMC,074214.000,A,3955.9203,N,11622.9135,E,5.38,265.22,180812,,,A*6D
260,
$GPRMC,074215.000,A,3955.9201,N,11622.9118,E,4.82,263.54,180812,,,A*66
260,
$GPRMC,074216.000,A,3955.9201,N,11622.9098,E,5.56,266.39,180812,,,A*6A
260,
$GPRMC,074217.000,A,3955.9201,N,11622.9077,E,5.54,267.03,180812,,,A*60
259,
$GPRMC,074218.000,A,3955.9200,N,11622.9057,E,5.59,268.68,180812,,,A*63
259,
$GPRMC,074219.000,A,3955.9200,N,11622.9036,E,5.73,269.61,180812,,,A*65
260,
$GPRMC,074220.000,A,3955.9200,N,11622.9014,E,5.61,267.34,180812,,,A*62
262,
$GPRMC,074221.000,A,3955.9199,N,11622.8993,E,5.69,268.50,180812,,,A*62
264,
$GPRMC,074222.000,A,3955.9197,N,11622.8971,E,5.81,269.17,180812,,,A*67
264,
$GPRMC,074223.000,A,3955.9196,N,11622.8949,E,6.10,266.69,180812,,,A*61
264,
$GPRMC,074224.000,A,3955.9195,N,11622.8926,E,6.32,268.55,180812,,,A*6D
262,
$GPRMC,074225.000,A,3955.9194,N,11622.8902,E,6.33,268.11,180812,,,A*6A
263,
$GPRMC,074226.000,A,3955.9193,N,11622.8879,E,6.27,268.27,180812,,,A*63
259,
$GPRMC,074227.000,A,3955.9192,N,11622.8856,E,6.16,266.04,180812,,,A*63
259,
$GPRMC,074228.000,A,3955.9191,N,11622.8833,E,6.04,265.28,180812,,,A*62
259,
$GPRMC,074229.000,A,3955.9190,N,11622.8811,E,6.00,267.51,180812,,,A*6A
259,
$GPRMC,074230.000,A,3955.9190,N,11622.8789,E,5.90,269.95,180812,,,A*60
259,
$GPRMC,074231.000,A,3955.9190,N,11622.8767,E,5.85,272.12,180812,,,A*60
259,
$GPRMC,074232.000,A,3955.9189,N,11622.8746,E,5.78,267.73,180812,,,A*69
258,
$GPRMC,074233.000,A,3955.9189,N,11622.8725,E,5.43,267.81,180812,,,A*68
257,
$GPRMC,074234.000,A,3955.9188,N,11622.8705,E,5.27,265.26,180812,,,A*61
256,
$GPRMC,074235.000,A,3955.9186,N,11622.8686,E,5.06,263.95,180812,,,A*69
255,
$GPRMC,074236.000,A,3955.9184,N,11622.8667,E,5.30,266.22,180812,,,A*6B
254,
$GPRMC,074237.000,A,3955.9183,N,11622.8647,E,5.42,266.94,180812,,,A*67
254,
$GPRMC,074238.000,A,3955.9182,N,11622.8627,E,5.69,265.79,180812,,,A*66
254,
$GPRMC,074239.000,A,3955.9181,N,11622.8606,E,5.81,269.76,180812,,,A*62
254,
$GPRMC,074240.000,A,3955.9181,N,11622.8584,E,6.01,273.02,180812,,,A*66
254,
$GPRMC,074241.000,A,3955.9182,N,11622.8562,E,6.09,270.53,180812,,,A*63
254,
$GPRMC,074242.000,A,3955.9181,N,11622.8539,E,6.11,267.60,180812,,,A*62
253,
$GPRMC,074243.000,A,3955.9180,N,11622.8517,E,6.11,267.81,180812,,,A*61
250,
$GPRMC,074244.000,A,3955.9180,N,11622.8495,E,6.08,267.67,180812,,,A*6D
249,
$GPRMC,074245.000,A,3955.9179,N,11622.8473,E,6.02,267.98,180812,,,A*68
250,
$GPRMC,074246.000,A,3955.9178,N,11622.8451,E,6.11,266.08,180812,,,A*60
250,
$GPRMC,074247.000,A,3955.9177,N,11622.8429,E,6.08,264.60,180812,,,A*65
250,
$GPRMC,074248.000,A,3955.9175,N,11622.8407,E,6.07,262.23,180812,,,A*6A
251,
$GPRMC,074249.000,A,3955.9173,N,11622.8385,E,6.08,262.44,180812,,,A*6E
253,
$GPRMC,074250.000,A,3955.9171,N,11622.8363,E,6.18,263.75,180812,,,A*6E
254,
$GPRMC,074251.000,A,3955.9170,N,11622.8340,E,6.21,268.23,180812,,,A*6D
254,
$GPRMC,074252.000,A,3955.9170,N,11622.8318,E,6.19,270.00,180812,,,A*60
254,
$GPRMC,074253.000,A,3955.9170,N,11622.8294,E,6.26,269.63,180812,,,A*65
253,
$GPRMC,074254.000,A,3955.9170,N,11622.8271,E,6.28,270.59,180812,,,A*66
252,
$GPRMC,074255.000,A,3955.9170,N,11622.8248,E,6.30,268.74,180812,,,A*62
252,
$GPRMC,074256.000,A,3955.9170,N,11622.8224,E,6.36,273.32,180812,,,A*65
252,
$GPRMC,074257.000,A,3955.9171,N,11622.8201,E,6.41,273.99,180812,,,A*63
250,
$GPRMC,074258.000,A,3955.9172,N,11622.8177,E,6.50,270.28,180812,,,A*64
250,
$GPRMC,074259.000,A,3955.9172,N,11622.8152,E,6.63,271.34,180812,,,A*6E
250,
$GPRMC,074300.000,A,3955.9172,N,11622.8128,E,6.60,268.13,180812,,,A*60
250,
$GPRMC,074301.000,A,3955.9171,N,11622.8104,E,6.65,267.35,180812,,,A*62
250,
$GPRMC,074302.000,A,3955.9171,N,11622.8079,E,6.63,271.26,180812,,,A*69
250,
$GPRMC,074303.000,A,3955.9171,N,11622.8055,E,6.55,269.49,180812,,,A*63
250,
$GPRMC,074304.000,A,3955.9170,N,11622.8031,E,6.70,269.60,180812,,,A*6B
250,
$GPRMC,074305.000,A,3955.9169,N,11622.8006,E,6.67,266.64,180812,,,A*6B
251,
$GPRMC,074306.000,A,3955.9168,N,11622.7982,E,6.70,265.53,180812,,,A*62
251,
$GPRMC,074307.000,A,3955.9165,N,11622.7958,E,6.62,261.40,180812,,,A*6C
251,
$GPRMC,074308.000,A,3955.9162,N,11622.7934,E,6.67,261.97,180812,,,A*61
251,
$GPRMC,074309.000,A,3955.9161,N,11622.7909,E,6.71,269.76,180812,,,A*6D
251,
$GPRMC,074310.000,A,3955.9161,N,11622.7885,E,6.76,268.63,180812,,,A*62
255,
$GPRMC,074311.000,A,3955.9159,N,11622.7861,E,6.52,264.83,180812,,,A*66
261,
$GPRMC,074312.000,A,3955.9158,N,11622.7840,E,5.14,270.97,180812,,,A*66
264,
$GPRMC,074313.000,A,3955.9159,N,11622.7823,E,4.10,272.97,180812,,,A*64
265,
$GPRMC,074314.000,A,3955.9160,N,11622.7808,E,4.56,278.01,180812,,,A*67
265,
$GPRMC,074315.000,A,3955.9161,N,11622.7790,E,5.16,276.39,180812,,,A*69
264,
$GPRMC,074316.000,A,3955.9162,N,11622.7771,E,5.58,274.29,180812,,,A*6F
262,
$GPRMC,074317.000,A,3955.9163,N,11622.7750,E,5.76,273.59,180812,,,A*60
262,
$GPRMC,074318.000,A,3955.9163,N,11622.7729,E,6.03,270.31,180812,,,A*6D
261,
$GPRMC,074319.000,A,3955.9163,N,11622.7706,E,6.30,270.85,180812,,,A*6E
260,
$GPRMC,074320.000,A,3955.9163,N,11622.7683,E,6.46,269.35,180812,,,A*6A
258,
$GPRMC,074321.000,A,3955.9162,N,11622.7659,E,6.62,266.48,180812,,,A*6E
257,
$GPRMC,074322.000,A,3955.9160,N,11622.7634,E,6.68,266.73,180812,,,A*66
256,
$GPRMC,074323.000,A,3955.9159,N,11622.7610,E,6.80,264.80,180812,,,A*63
256,
$GPRMC,074324.000,A,3955.9158,N,11622.7585,E,6.83,269.37,180812,,,A*68
255,
$GPRMC,074325.000,A,3955.9158,N,11622.7560,E,6.92,271.33,180812,,,A*6F
255,
$GPRMC,074326.000,A,3955.9158,N,11622.7535,E,7.04,270.39,180812,,,A*69
255,
$GPRMC,074327.000,A,3955.9157,N,11622.7509,E,7.13,268.10,180812,,,A*6C
254,
$GPRMC,074328.000,A,3955.9156,N,11622.7482,E,7.24,264.73,180812,,,A*6D
253,
$GPRMC,074329.000,A,3955.9154,N,11622.7456,E,7.26,264.87,180812,,,A*6E
252,
$GPRMC,074330.000,A,3955.9152,N,11622.7429,E,7.36,263.97,180812,,,A*6F
252,
$GPRMC,074331.000,A,3955.9150,N,11622.7402,E,7.50,266.52,180812,,,A*69
252,
$GPRMC,074332.000,A,3955.9149,N,11622.7375,E,7.61,268.93,180812,,,A*64
251,
$GPRMC,074333.000,A,3955.9149,N,11622.7347,E,7.53,270.23,180812,,,A*67
251,
$GPRMC,074334.000,A,3955.9149,N,11622.7320,E,7.31,268.86,180812,,,A*63
251,
$GPRMC,074335.000,A,3955.9148,N,11622.7294,E,7.20,266.92,180812,,,A*66
250,
$GPRMC,074336.000,A,3955.9147,N,11622.7268,E,7.01,269.40,180812,,,A*6A
249,
$GPRMC,074337.000,A,3955.9146,N,11622.7242,E,6.92,267.52,180812,,,A*64
249,
$GPRMC,074338.000,A,3955.9145,N,11622.7217,E,6.80,266.51,180812,,,A*69
249,
$GPRMC,074339.000,A,3955.9144,N,11622.7194,E,5.82,266.23,180812,,,A*65
249,
$GPRMC,074340.000,A,3955.9142,N,11622.7175,E,4.91,267.02,180812,,,A*63
249,
$GPRMC,074341.000,A,3955.9141,N,11622.7158,E,4.53,260.91,180812,,,A*6D
249,
$GPRMC,074342.000,A,3955.9139,N,11622.7141,E,4.74,266.20,180812,,,A*60
249,
$GPRMC,074343.000,A,3955.9138,N,11622.7124,E,4.67,267.12,180812,,,A*61
248,
$GPRMC,074344.000,A,3955.9137,N,11622.7107,E,4.77,261.22,180812,,,A*6C
249,
$GPRMC,074345.000,A,3955.9135,N,11622.7088,E,5.15,263.31,180812,,,A*6C
249,
$GPRMC,074346.000,A,3955.9133,N,11622.7069,E,5.37,269.07,180812,,,A*69
248,
$GPRMC,074347.000,A,3955.9132,N,11622.7050,E,5.27,264.99,180812,,,A*68
249,
$GPRMC,074348.000,A,3955.9131,N,11622.7032,E,4.83,261.84,180812,,,A*66
248,
$GPRMC,074349.000,A,3955.9128,N,11622.7014,E,4.85,258.73,180812,,,A*6F
248,
$GPRMC,074350.000,A,3955.9126,N,11622.6996,E,5.06,263.50,180812,,,A*68
247,
$GPRMC,074351.000,A,3955.9124,N,11622.6978,E,5.30,262.46,180812,,,A*68
246,
$GPRMC,074352.000,A,3955.9123,N,11622.6958,E,5.24,267.92,180812,,,A*67
246,
$GPRMC,074353.000,A,3955.9122,N,11622.6940,E,5.10,269.13,180812,,,A*6E
246,
$GPRMC,074354.000,A,3955.9121,N,11622.6922,E,4.82,269.06,180812,,,A*60
246,
$GPRMC,074355.000,A,3955.9121,N,11622.6904,E,4.76,266.14,180812,,,A*62
246,
$GPRMC,074356.000,A,3955.9119,N,11622.6886,E,5.14,266.52,180812,,,A*66
245,
$GPRMC,074357.000,A,3955.9119,N,11622.6867,E,5.50,268.84,180812,,,A*6D
245,
$GPRMC,074358.000,A,3955.9118,N,11622.6846,E,6.00,266.28,180812,,,A*6E
244,
$GPRMC,074359.000,A,3955.9117,N,11622.6823,E,6.39,267.81,180812,,,A*6B
245,
$GPRMC,074400.000,A,3955.9116,N,11622.6799,E,6.70,266.89,180812,,,A*6B
246,
$GPRMC,074401.000,A,3955.9116,N,11622.6774,E,6.91,271.91,180812,,,A*69
253,
$GPRMC,074402.000,A,3955.9117,N,11622.6749,E,7.16,277.10,180812,,,A*64
259,
$GPRMC,074403.000,A,3955.9119,N,11622.6722,E,7.31,275.28,180812,,,A*6A
259,
$GPRMC,074404.000,A,3955.9120,N,11622.6696,E,7.36,270.91,180812,,,A*69
257,
$GPRMC,074405.000,A,3955.9120,N,11622.6669,E,7.30,267.88,180812,,,A*60
255,
$GPRMC,074406.000,A,3955.9119,N,11622.6643,E,7.26,265.75,180812,,,A*66
264,
$GPRMC,074407.000,A,3955.9117,N,11622.6616,E,7.34,267.56,180812,,,A*69
275,
$GPRMC,074408.000,A,3955.9117,N,11622.6589,E,7.37,271.55,180812,,,A*64
279,
$GPRMC,074409.000,A,3955.9118,N,11622.6563,E,7.27,273.48,180812,,,A*61
278,
$GPRMC,074410.000,A,3955.9118,N,11622.6536,E,7.39,271.52,180812,,,A*6F
275,
$GPRMC,074411.000,A,3955.9119,N,11622.6509,E,7.38,271.94,180812,,,A*68
275,
$GPRMC,074412.000,A,3955.9119,N,11622.6481,E,7.44,269.71,180812,,,A*63
275,
$GPRMC,074413.000,A,3955.9118,N,11622.6454,E,7.51,266.00,180812,,,A*66
274,
$GPRMC,074414.000,A,3955.9116,N,11622.6427,E,7.42,267.09,180812,,,A*61
273,
$GPRMC,074415.000,A,3955.9115,N,11622.6400,E,7.39,268.22,180812,,,A*6C
272,
$GPRMC,074416.000,A,3955.9115,N,11622.6373,E,7.34,269.08,180812,,,A*68
271,
$GPRMC,074417.000,A,3955.9114,N,11622.6346,E,7.31,268.69,180812,,,A*6D
271,
$GPRMC,074418.000,A,3955.9113,N,11622.6320,E,7.34,264.35,180812,,,A*65
271,
$GPRMC,074419.000,A,3955.9111,N,11622.6293,E,7.33,265.46,180812,,,A*6D
269,
$GPRMC,074420.000,A,3955.9110,N,11622.6266,E,7.56,269.53,180812,,,A*67
268,
$GPRMC,074421.000,A,3955.9109,N,11622.6239,E,7.18,269.91,180812,,,A*60
266,
$GPRMC,074422.000,A,3955.9109,N,11622.6213,E,7.12,269.43,180812,,,A*6E
266,
$GPRMC,074423.000,A,3955.9110,N,11622.6186,E,7.22,273.27,180812,,,A*62
266,
$GPRMC,074424.000,A,3955.9111,N,11622.6159,E,7.37,272.61,180812,,,A*61
266,
$GPRMC,074425.000,A,3955.9111,N,11622.6132,E,7.33,268.73,180812,,,A*61
265,
$GPRMC,074426.000,A,3955.9111,N,11622.6105,E,7.43,268.64,180812,,,A*67
266,
$GPRMC,074427.000,A,3955.9110,N,11622.6077,E,7.44,267.97,180812,,,A*67
266,
$GPRMC,074428.000,A,3955.9109,N,11622.6050,E,7.39,266.51,180812,,,A*64
266,
$GPRMC,074429.000,A,3955.9108,N,11622.6023,E,7.52,268.86,180812,,,A*69
266,
$GPRMC,074430.000,A,3955.9108,N,11622.5996,E,7.47,268.82,180812,,,A*65
265,
$GPRMC,074431.000,A,3955.9107,N,11622.5968,E,7.45,269.25,180812,,,A*64
264,
$GPRMC,074432.000,A,3955.9107,N,11622.5942,E,7.18,269.85,180812,,,A*6D
264,
$GPRMC,074433.000,A,3955.9107,N,11622.5916,E,6.96,274.21,180812,,,A*68
263,
$GPRMC,074434.000,A,3955.9108,N,11622.5889,E,7.77,267.56,180812,,,A*6B
263,
$GPRMC,074435.000,A,3955.9106,N,11622.5860,E,8.50,266.60,180812,,,A*6D
263,
$GPRMC,074436.000,A,3955.9104,N,11622.5827,E,9.28,266.23,180812,,,A*66
261,
$GPRMC,074437.000,A,3955.9102,N,11622.5794,E,8.72,266.94,180812,,,A*64
261,
$GPRMC,074438.000,A,3955.9101,N,11622.5764,E,7.88,267.38,180812,,,A*6A
261,
$GPRMC,074439.000,A,3955.9100,N,11622.5735,E,7.51,269.05,180812,,,A*6A
261,
$GPRMC,074440.000,A,3955.9100,N,11622.5708,E,6.91,269.80,180812,,,A*6A
260,
$GPRMC,074441.000,A,3955.9100,N,11622.5682,E,6.93,272.24,180812,,,A*6E
260,
$GPRMC,074442.000,A,3955.9101,N,11622.5657,E,6.49,271.27,180812,,,A*63
260,
$GPRMC,074443.000,A,3955.9100,N,11622.5634,E,6.19,268.35,180812,,,A*68
260,
$GPRMC,074444.000,A,3955.9100,N,11622.5611,E,6.20,268.43,180812,,,A*63
259,
$GPRMC,074445.000,A,3955.9099,N,11622.5588,E,6.28,270.50,180812,,,A*63
259,
$GPRMC,074446.000,A,3955.9098,N,11622.5565,E,6.29,266.87,180812,,,A*6E
260,
$GPRMC,074447.000,A,3955.9096,N,11622.5542,E,6.19,265.77,180812,,,A*6B
259,
$GPRMC,074448.000,A,3955.9095,N,11622.5520,E,6.23,266.85,180812,,,A*64
259,
$GPRMC,074449.000,A,3955.9095,N,11622.5496,E,6.28,270.47,180812,,,A*6B
259,
$GPRMC,074450.000,A,3955.9095,N,11622.5473,E,6.15,264.60,180812,,,A*66
259,
$GPRMC,074451.000,A,3955.9093,N,11622.5451,E,6.00,265.43,180812,,,A*65
259,
$GPRMC,074452.000,A,3955.9090,N,11622.5430,E,5.91,258.86,180812,,,A*6E
259,
$GPRMC,074453.000,A,3955.9086,N,11622.5409,E,5.88,258.96,180812,,,A*6B
258,
$GPRMC,074454.000,A,3955.9084,N,11622.5387,E,5.94,266.91,180812,,,A*68
257,
$GPRMC,074455.000,A,3955.9083,N,11622.5365,E,6.22,266.27,180812,,,A*61
256,
$GPRMC,074456.000,A,3955.9083,N,11622.5342,E,6.22,269.33,180812,,,A*6D
255,
$GPRMC,074457.000,A,3955.9083,N,11622.5319,E,6.27,273.97,180812,,,A*62
255,
$GPRMC,074458.000,A,3955.9082,N,11622.5296,E,6.36,268.06,180812,,,A*68
254,
$GPRMC,074459.000,A,3955.9081,N,11622.5272,E,6.39,266.45,180812,,,A*66
254,
$GPRMC,074500.000,A,3955.9081,N,11622.5248,E,6.16,270.49,180812,,,A*64
253,
$GPRMC,074501.000,A,3955.9081,N,11622.5226,E,5.97,271.11,180812,,,A*6B
253,
$GPRMC,074502.000,A,3955.9081,N,11622.5205,E,5.84,268.62,180812,,,A*67
252,
$GPRMC,074503.000,A,3955.9079,N,11622.5183,E,6.03,265.98,180812,,,A*68
251,
$GPRMC,074504.000,A,3955.9079,N,11622.5161,E,6.24,265.35,180812,,,A*61
251,
$GPRMC,074505.000,A,3955.9078,N,11622.5138,E,6.09,269.33,180812,,,A*68
250,
$GPRMC,074506.000,A,3955.9078,N,11622.5115,E,6.19,269.49,180812,,,A*68
250,
$GPRMC,074507.000,A,3955.9078,N,11622.5091,E,6.63,268.65,180812,,,A*66
249,
$GPRMC,074508.000,A,3955.9077,N,11622.5066,E,6.58,264.82,180812,,,A*63
248,
$GPRMC,074509.000,A,3955.9075,N,11622.5042,E,6.55,265.95,180812,,,A*6C
248,
$GPRMC,074510.000,A,3955.9074,N,11622.5018,E,6.42,264.97,180812,,,A*6F
247,
$GPRMC,074511.000,A,3955.9072,N,11622.4994,E,6.63,262.46,180812,,,A*6D
248,
$GPRMC,074512.000,A,3955.9069,N,11622.4970,E,6.61,264.20,180812,,,A*6A
249,
$GPRMC,074513.000,A,3955.9068,N,11622.4945,E,6.62,264.15,180812,,,A*69
248,
$GPRMC,074514.000,A,3955.9066,N,11622.4922,E,6.34,267.99,180812,,,A*65
248,
$GPRMC,074515.000,A,3955.9065,N,11622.4899,E,6.16,263.19,180812,,,A*6A
247,
$GPRMC,074516.000,A,3955.9061,N,11622.4878,E,5.97,259.64,180812,,,A*6B
246,
$GPRMC,074517.000,A,3955.9058,N,11622.4857,E,5.85,262.83,180812,,,A*6F
246,
$GPRMC,074518.000,A,3955.9058,N,11622.4835,E,5.82,265.43,180812,,,A*68
245,
$GPRMC,074519.000,A,3955.9058,N,11622.4812,E,5.86,269.60,180812,,,A*65
245,
$GPRMC,074520.000,A,3955.9057,N,11622.4791,E,5.72,264.42,180812,,,A*62
244,
$GPRMC,074521.000,A,3955.9056,N,11622.4770,E,5.20,265.70,180812,,,A*6A
244,
$GPRMC,074522.000,A,3955.9056,N,11622.4750,E,5.02,268.00,180812,,,A*61
243,
$GPRMC,074523.000,A,3955.9055,N,11622.4730,E,5.23,264.64,180812,,,A*68
243,
$GPRMC,074524.000,A,3955.9054,N,11622.4710,E,5.32,265.10,180812,,,A*6E
243,
$GPRMC,074525.000,A,3955.9054,N,11622.4691,E,4.89,267.36,180812,,,A*60
242,
$GPRMC,074526.000,A,3955.9053,N,11622.4673,E,4.43,267.07,180812,,,A*6C
242,
$GPRMC,074527.000,A,3955.9052,N,11622.4656,E,4.52,263.52,180812,,,A*6F
242,
$GPRMC,074528.000,A,3955.9052,N,11622.4638,E,4.66,265.42,180812,,,A*68
242,
$GPRMC,074529.000,A,3955.9052,N,11622.4620,E,4.50,268.37,180812,,,A*6A
241,
$GPRMC,074530.000,A,3955.9052,N,11622.4604,E,4.11,271.49,180812,,,A*60
241,
$GPRMC,074531.000,A,3955.9054,N,11622.4589,E,3.89,271.81,180812,,,A*63
241,
$GPRMC,074532.000,A,3955.9055,N,11622.4574,E,3.66,280.54,180812,,,A*64
241,
$GPRMC,074533.000,A,3955.9057,N,11622.4561,E,3.48,276.52,180812,,,A*60
241,
$GPRMC,074534.000,A,3955.9058,N,11622.4549,E,2.94,276.68,180812,,,A*6B
240,
$GPRMC,074535.000,A,3955.9060,N,11622.4537,E,2.70,277.00,180812,,,A*6D
240,
$GPRMC,074536.000,A,3955.9063,N,11622.4528,E,2.55,296.83,180812,,,A*60
240,
$GPRMC,074537.000,A,3955.9064,N,11622.4522,E,1.35,296.74,180812,,,A*61
240,
$GPRMC,074538.000,A,3955.9065,N,11622.4519,E,0.52,289.16,180812,,,A*6D
240,
$GPRMC,074539.000,A,3955.9065,N,11622.4516,E,0.42,308.86,180812,,,A*63
239,
$GPRMC,074540.000,A,3955.9064,N,11622.4515,E,0.07,297.63,180812,,,A*62
239,
$GPRMC,074541.000,A,3955.9063,N,11622.4514,E,0.16,336.16,180812,,,A*6D
239,
$GPRMC,074542.000,A,3955.9062,N,11622.4514,E,0.11,344.66,180812,,,A*6A
238,
$GPRMC,074543.000,A,3955.9062,N,11622.4513,E,0.07,0.81,180812,,,A*61
238,
$GPRMC,074544.000,A,3955.9061,N,11622.4512,E,0.03,15.59,180812,,,A*51
238,
$GPRMC,074545.000,A,3955.9060,N,11622.4512,E,0.05,33.09,180812,,,A*56
237,
$GPRMC,074546.000,A,3955.9059,N,11622.4512,E,0.05,58.89,180812,,,A*5A
237,
$GPRMC,074547.000,A,3955.9058,N,11622.4512,E,0.21,12.33,180812,,,A*53
237,
$GPRMC,074548.000,A,3955.9058,N,11622.4512,E,0.20,15.42,180812,,,A*5C
236,
$GPRMC,074549.000,A,3955.9057,N,11622.4512,E,0.20,22.49,180812,,,A*5D
236,
$GPRMC,074550.000,A,3955.9056,N,11622.4512,E,0.18,143.74,180812,,,A*67
236,
$GPRMC,074551.000,A,3955.9055,N,11622.4512,E,0.24,162.22,180812,,,A*6A
236,
$GPRMC,074552.000,A,3955.9055,N,11622.4512,E,0.06,24.53,180812,,,A*5C
235,
$GPRMC,074553.000,A,3955.9054,N,11622.4512,E,0.08,75.83,180812,,,A*5B
235,
$GPRMC,074554.000,A,3955.9053,N,11622.4512,E,0.21,173.16,180812,,,A*6B
234,
$GPRMC,074555.000,A,3955.9053,N,11622.4512,E,0.25,166.84,180812,,,A*61
234,
$GPRMC,074556.000,A,3955.9053,N,11622.4513,E,0.09,94.61,180812,,,A*5A
234,
$GPRMC,074557.000,A,3955.9052,N,11622.4513,E,0.04,106.01,180812,,,A*6B
234,
$GPRMC,074558.000,A,3955.9052,N,11622.4512,E,0.12,99.82,180812,,,A*5E
233,
$GPRMC,074559.000,A,3955.9052,N,11622.4513,E,0.11,91.87,180812,,,A*50
233,
$GPRMC,074600.000,A,3955.9052,N,11622.4513,E,0.15,73.18,180812,,,A*51
233,
$GPRMC,074601.000,A,3955.9051,N,11622.4513,E,0.04,117.83,180812,,,A*62
233,
$GPRMC,074602.000,A,3955.9051,N,11622.4513,E,0.05,170.93,180812,,,A*60
232,
$GPRMC,074603.000,A,3955.9051,N,11622.4513,E,0.08,168.51,180812,,,A*6B
232,
$GPRMC,074604.000,A,3955.9051,N,11622.4513,E,0.09,127.11,180812,,,A*62
232,
$GPRMC,074605.000,A,3955.9050,N,11622.4514,E,0.07,167.16,180812,,,A*68
232,
$GPRMC,074606.000,A,3955.9050,N,11622.4514,E,0.09,123.04,180812,,,A*66
231,
$GPRMC,074607.000,A,3955.9050,N,11622.4514,E,0.06,146.81,180812,,,A*66
231,
$GPRMC,074608.000,A,3955.9051,N,11622.4515,E,0.14,97.07,180812,,,A*59
231,
$GPRMC,074609.000,A,3955.9051,N,11622.4515,E,0.13,39.46,180812,,,A*5E
230,
