$PSRFTXT,Version:GSW3.5.0_3.5.00.00-SDK-3EP2.01 *46
213,
$GPRMC,065220.615,A,3956.3253,N,11625.5416,E,4.68,6.73,180812,,,A*6C
213,
$GPRMC,065221.615,A,3956.3282,N,11625.5372,E,4.86,3.95,180812,,,A*69
213,
$GPRMC,065222.615,A,3956.3303,N,11625.5312,E,4.04,343.35,180812,,,A*63
213,
$GPRMC,065223.615,A,3956.3332,N,11625.5297,E,3.57,346.90,180812,,,A*67
213,
$GPRMC,065224.615,A,3956.3354,N,11625.5295,E,4.51,0.09,180812,,,A*62
213,
$GPRMC,065225.615,A,3956.3375,N,11625.5287,E,4.73,351.77,180812,,,A*6D
213,
$GPRMC,065226.615,A,3956.3398,N,11625.5283,E,5.32,354.00,180812,,,A*68
212,
$GPRMC,065227.615,A,3956.3418,N,11625.5295,E,5.50,4.56,180812,,,A*60
212,
$GPRMC,065228.615,A,3956.3440,N,11625.5300,E,5.29,1.45,180812,,,A*66
212,
$GPRMC,065229.615,A,3956.3456,N,11625.5301,E,4.41,355.23,180812,,,A*6C
212,
$GPRMC,065230.615,A,3956.3475,N,11625.5286,E,6.94,328.80,180812,,,A*62
211,
$GPRMC,065231.615,A,3956.3492,N,11625.5270,E,5.51,324.91,180812,,,A*65
211,
$GPRMC,065232.615,A,3956.3505,N,11625.5263,E,3.99,340.11,180812,,,A*63
211,
$GPRMC,065233.615,A,3956.3517,N,11625.5265,E,3.72,5.19,180812,,,A*68
211,
$GPRMC,065234.615,A,3956.3532,N,11625.5265,E,3.52,2.45,180812,,,A*64
211,
$GPRMC,065235.615,A,3956.3544,N,11625.5280,E,3.53,16.40,180812,,,A*5E
211,
$GPRMC,065236.615,A,3956.3557,N,11625.5294,E,3.41,23.49,180812,,,A*56
211,
$GPRMC,065237.615,A,3956.3571,N,11625.5309,E,3.43,29.37,180812,,,A*57
211,
$GPRMC,065238.615,A,3956.3583,N,11625.5317,E,3.73,25.64,180812,,,A*53
210,
$GPRMC,065239.615,A,3956.3593,N,11625.5320,E,3.83,32.19,180812,,,A*54
210,
$GPRMC,065240.000,A,3956.3597,N,11625.5323,E,4.15,45.20,180812,,,A*5D
210,
$GPRMC,065241.000,A,3956.3604,N,11625.5327,E,3.99,55.18,180812,,,A*58
208,
$GPRMC,065242.000,A,3956.3613,N,11625.5334,E,4.22,67.75,180812,,,A*52
208,
$GPRMC,065243.000,A,3956.3621,N,11625.5344,E,3.79,86.29,180812,,,A*5A
209,
$GPRMC,065244.000,A,3956.3626,N,11625.5356,E,4.06,90.79,180812,,,A*54
208,
$GPRMC,065245.000,A,3956.3632,N,11625.5372,E,4.76,87.69,180812,,,A*56
208,
$GPRMC,065246.000,A,3956.3641,N,11625.5389,E,4.75,86.34,180812,,,A*5F
208,
$GPRMC,065247.000,A,3956.3652,N,11625.5409,E,4.99,83.99,180812,,,A*53
208,
$GPRMC,065248.000,A,3956.3664,N,11625.5430,E,5.11,85.08,180812,,,A*5C
208,
$GPRMC,065249.000,A,3956.3673,N,11625.5452,E,5.37,88.57,180812,,,A*5C
208,
$GPRMC,065250.000,A,3956.3678,N,11625.5475,E,5.43,90.45,180812,,,A*53
208,
$GPRMC,065251.000,A,3956.3682,N,11625.5496,E,5.51,85.10,180812,,,A*5D
208,
$GPRMC,065252.000,A,3956.3686,N,11625.5520,E,5.51,89.57,180812,,,A*59
208,
$GPRMC,065253.000,A,3956.3689,N,11625.5543,E,5.57,94.23,180812,,,A*5B
207,
$GPRMC,065254.000,A,3956.3691,N,11625.5566,E,5.54,95.93,180812,,,A*5B
207,
$GPRMC,065255.000,A,3956.3693,N,11625.5589,E,5.65,95.14,180812,,,A*54
207,
$GPRMC,065256.000,A,3956.3695,N,11625.5611,E,5.62,93.45,180812,,,A*56
207,
$GPRMC,065257.000,A,3956.3697,N,11625.5634,E,5.55,91.05,180812,,,A*50
207,
$GPRMC,065258.000,A,3956.3699,N,11625.5657,E,5.51,95.08,180812,,,A*59
207,
$GPRMC,065259.000,A,3956.3705,N,11625.5676,E,5.11,89.12,180812,,,A*5D
207,
$GPRMC,065300.000,A,3956.3712,N,11625.5693,E,4.84,90.77,180812,,,A*5B
206,
$GPRMC,065301.000,A,3956.3719,N,11625.5711,E,4.66,88.61,180812,,,A*58
206,
$GPRMC,065302.000,A,3956.3726,N,11625.5729,E,4.44,93.04,180812,,,A*55
206,
$GPRMC,065303.000,A,3956.3733,N,11625.5743,E,3.99,88.31,180812,,,A*57
205,
$GPRMC,065304.000,A,3956.3740,N,11625.5759,E,4.33,87.53,180812,,,A*53
206,
$GPRMC,065305.000,A,3956.3747,N,11625.5774,E,4.33,89.97,180812,,,A*5C
206,
$GPRMC,065306.000,A,3956.3753,N,11625.5787,E,4.24,89.80,180812,,,A*56
206,
$GPRMC,065307.000,A,3956.3760,N,11625.5802,E,4.11,89.01,180812,,,A*5A
206,
$GPRMC,065308.000,A,3956.3764,N,11625.5812,E,3.84,93.48,180812,,,A*5D
206,
$GPRMC,065309.000,A,3956.3769,N,11625.5823,E,3.47,93.18,180812,,,A*59
203,
$GPRMC,065310.000,A,3956.3774,N,11625.5833,E,2.48,89.30,180812,,,A*53
204,
$GPRMC,065311.000,A,3956.3781,N,11625.5845,E,3.19,85.56,180812,,,A*50
203,
$GPRMC,065312.000,A,3956.3786,N,11625.5853,E,1.26,90.36,180812,,,A*5F
200,
$GPRMC,065313.000,A,3956.3793,N,11625.5857,E,0.89,34.12,180812,,,A*52
199,
$GPRMC,065314.000,A,3956.3800,N,11625.5859,E,0.22,313.02,180812,,,A*68
200,
$GPRMC,065315.000,A,3956.3805,N,11625.5861,E,0.14,196.30,180812,,,A*6C
201,
$GPRMC,065316.000,A,3956.3810,N,11625.5863,E,0.06,38.81,180812,,,A*55
199,
$GPRMC,065317.000,A,3956.3815,N,11625.5864,E,0.43,302.27,180812,,,A*61
200,
$GPRMC,065318.000,A,3956.3819,N,11625.5862,E,0.86,213.75,180812,,,A*6B
201,
$GPRMC,065319.000,A,3956.3822,N,11625.5863,E,0.19,135.21,180812,,,A*63
202,
$GPRMC,065320.000,A,3956.3827,N,11625.5862,E,0.83,340.87,180812,,,A*62
202,
$GPRMC,065321.000,A,3956.3832,N,11625.5859,E,0.25,286.52,180812,,,A*60
203,
$GPRMC,065322.000,A,3956.3837,N,11625.5855,E,0.58,326.05,180812,,,A*69
204,
$GPRMC,065323.000,A,3956.3843,N,11625.5851,E,1.19,335.31,180812,,,A*6E
204,
$GPRMC,065324.000,A,3956.3849,N,11625.5846,E,0.60,304.94,180812,,,A*67
204,
$GPRMC,065325.000,A,3956.3856,N,11625.5843,E,1.73,329.87,180812,,,A*63
204,
$GPRMC,065326.000,A,3956.3865,N,11625.5841,E,1.98,356.87,180812,,,A*6F
205,
$GPRMC,065327.000,A,3956.3876,N,11625.5838,E,2.66,339.45,180812,,,A*67
205,
$GPRMC,065328.000,A,3956.3884,N,11625.5840,E,1.70,71.96,180812,,,A*5F
206,
$GPRMC,065329.000,A,3956.3889,N,11625.5842,E,1.18,74.91,180812,,,A*5D
208,
$GPRMC,065330.000,A,3956.3892,N,11625.5843,E,0.53,112.29,180812,,,A*62
208,
$GPRMC,065331.000,A,3956.3897,N,11625.5843,E,0.35,89.03,180812,,,A*5D
208,
$GPRMC,065332.000,A,3956.3901,N,11625.5842,E,0.67,146.69,180812,,,A*68
210,
$GPRMC,065333.000,A,3956.3904,N,11625.5844,E,1.41,142.59,180812,,,A*68
211,
$GPRMC,065334.000,A,3956.3908,N,11625.5847,E,1.04,123.51,180812,,,A*6E
211,
$GPRMC,065335.000,A,3956.3914,N,11625.5848,E,0.21,116.73,180812,,,A*6D
211,
$GPRMC,065336.000,A,3956.3920,N,11625.5848,E,0.23,94.44,180812,,,A*54
210,
$GPRMC,065337.000,A,3956.3926,N,11625.5848,E,0.29,274.67,180812,,,A*64
209,
$GPRMC,065338.000,A,3956.3932,N,11625.5844,E,2.05,250.59,180812,,,A*65
209,
$GPRMC,065339.000,A,3956.3936,N,11625.5838,E,0.86,305.24,180812,,,A*69
213,
$GPRMC,065340.000,A,3956.3944,N,11625.5836,E,1.76,343.74,180812,,,A*65
217,
$GPRMC,065341.000,A,3956.3954,N,11625.5833,E,1.56,333.93,180812,,,A*6C
215,
$GPRMC,065342.000,A,3956.3965,N,11625.5831,E,2.90,353.47,180812,,,A*69
211,
$GPRMC,065343.000,A,3956.3978,N,11625.5830,E,3.46,8.80,180812,,,A*69
211,
$GPRMC,065344.000,A,3956.3991,N,11625.5833,E,2.57,32.21,180812,,,A*59
211,
$GPRMC,065345.000,A,3956.4002,N,11625.5835,E,2.46,10.98,180812,,,A*58
212,
$GPRMC,065346.000,A,3956.4012,N,11625.5835,E,1.71,347.26,180812,,,A*69
212,
$GPRMC,065347.000,A,3956.4020,N,11625.5832,E,1.42,310.96,180812,,,A*67
206,
