$GPRMC,084926.004,V,,,,,,,180812,,,N*4A
192,
$GPRMC,084929.998,A,3956.3641,N,11624.4724,E,0.12,94.53,180812,,,A*5E
227,
$GPRMC,084930.998,A,3956.3751,N,11624.4901,E,1.09,23.59,180812,,,A*52
240,
$GPRMC,084931.998,A,3956.3758,N,11624.4991,E,1.43,44.87,180812,,,A*5F
249,
$GPRMC,084932.998,A,3956.3759,N,11624.5063,E,3.61,90.32,180812,,,A*5D
256,
$GPRMC,084933.998,A,3956.3765,N,11624.5089,E,1.75,61.58,180812,,,A*52
261,
$GPRMC,084934.998,A,3956.3753,N,11624.5082,E,1.83,38.86,180812,,,A*5D
264,
$GPRMC,084935.998,A,3956.3749,N,11624.5067,E,1.46,37.73,180812,,,A*50
267,
$GPRMC,084937.000,A,3956.3733,N,11624.5064,E,1.32,43.13,180812,,,A*52
269,
$GPRMC,084938.000,A,3956.3727,N,11624.5065,E,0.92,48.31,180812,,,A*59
270,
$GPRMC,084939.000,A,3956.3725,N,11624.5070,E,0.65,52.59,180812,,,A*53
270,
$GPRMC,084940.000,A,3956.3724,N,11624.5074,E,0.22,72.08,180812,,,A*5D
270,
$GPRMC,084941.000,A,3956.3723,N,11624.5078,E,0.71,51.08,180812,,,A*50
270,
$GPRMC,084942.000,A,3956.3722,N,11624.5080,E,0.70,50.37,180812,,,A*59
270,
$GPRMC,084943.000,A,3956.3720,N,11624.5080,E,0.77,49.61,180812,,,A*56
269,
$GPRMC,084944.000,A,3956.3718,N,11624.5080,E,0.50,42.77,180812,,,A*53
269,
$GPRMC,084945.000,A,3956.3715,N,11624.5078,E,0.57,39.48,180812,,,A*5F
268,
$GPRMC,084946.000,A,3956.3715,N,11624.5079,E,0.86,41.17,180812,,,A*54
268,
$GPRMC,084947.000,A,3956.3711,N,11624.5077,E,0.36,44.40,180812,,,A*53
267,
$GPRMC,084948.000,A,3956.3707,N,11624.5074,E,0.10,153.33,180812,,,A*6F
266,
$GPRMC,084949.000,A,3956.3704,N,11624.5073,E,0.36,205.01,180812,,,A*6F
265,
$GPRMC,084950.000,A,3956.3704,N,11624.5073,E,0.12,87.27,180812,,,A*5D
265,
$GPRMC,084951.000,A,3956.3703,N,11624.5074,E,0.15,176.50,180812,,,A*64
264,
$GPRMC,084952.000,A,3956.3700,N,11624.5070,E,0.27,208.34,180812,,,A*69
263,
$GPRMC,084953.000,A,3956.3696,N,11624.5067,E,0.22,150.48,180812,,,A*60
262,
$GPRMC,084954.000,A,3956.3693,N,11624.5066,E,0.23,84.33,180812,,,A*56
262,
$GPRMC,084955.000,A,3956.3693,N,11624.5067,E,0.35,67.98,180812,,,A*5D
261,
$GPRMC,084956.000,A,3956.3694,N,11624.5070,E,0.42,61.37,180812,,,A*5C
260,
$GPRMC,084957.000,A,3956.3695,N,11624.5074,E,0.73,56.21,180812,,,A*59
260,
$GPRMC,084958.000,A,3956.3695,N,11624.5077,E,0.30,59.18,180812,,,A*57
259,
$GPRMC,084959.000,A,3956.3695,N,11624.5077,E,0.11,77.70,180812,,,A*57
258,
$GPRMC,085000.000,A,3956.3696,N,11624.5079,E,0.22,221.62,180812,,,A*6C
258,
$GPRMC,085001.000,A,3956.3696,N,11624.5078,E,0.05,55.57,180812,,,A*5E
257,
$GPRMC,085002.000,A,3956.3695,N,11624.5078,E,0.32,58.98,180812,,,A*54
257,
$GPRMC,085003.000,A,3956.3694,N,11624.5077,E,0.46,55.84,180812,,,A*58
256,
$GPRMC,085004.000,A,3956.3693,N,11624.5078,E,0.36,60.81,180812,,,A*53
256,
$GPRMC,085005.000,A,3956.3695,N,11624.5079,E,0.40,53.33,180812,,,A*5D
255,
$GPRMC,085006.000,A,3956.3696,N,11624.5079,E,0.56,57.56,180812,,,A*5D
255,
$GPRMC,085007.000,A,3956.3695,N,11624.5080,E,0.60,55.28,180812,,,A*57
254,
$GPRMC,085008.000,A,3956.3694,N,11624.5079,E,0.31,49.96,180812,,,A*53
254,
$GPRMC,085009.000,A,3956.3696,N,11624.5079,E,0.29,58.26,180812,,,A*52
253,
$GPRMC,085010.000,A,3956.3698,N,11624.5079,E,0.20,51.91,180812,,,A*58
252,
$GPRMC,085011.000,A,3956.3699,N,11624.5080,E,0.28,56.01,180812,,,A*58
252,
$GPRMC,085012.000,A,3956.3700,N,11624.5080,E,0.21,57.39,180812,,,A*59
251,
$GPRMC,085013.000,A,3956.3702,N,11624.5080,E,0.23,65.88,180812,,,A*53
251,
$GPRMC,085014.000,A,3956.3703,N,11624.5080,E,0.17,58.27,180812,,,A*59
250,
$GPRMC,085015.000,A,3956.3704,N,11624.5080,E,0.19,65.09,180812,,,A*53
250,
$GPRMC,085016.000,A,3956.3704,N,11624.5079,E,0.14,76.02,180812,,,A*52
249,
$GPRMC,085017.000,A,3956.3703,N,11624.5079,E,0.40,53.34,180812,,,A*57
249,
$GPRMC,085018.000,A,3956.3702,N,11624.5079,E,0.07,121.82,180812,,,A*63
248,
$GPRMC,085019.000,A,3956.3699,N,11624.5076,E,0.14,160.84,180812,,,A*6F
248,
$GPRMC,085020.000,A,3956.3697,N,11624.5075,E,0.17,179.00,180812,,,A*6F
247,
$GPRMC,085021.000,A,3956.3693,N,11624.5071,E,0.49,198.97,180812,,,A*64
247,
$GPRMC,085022.000,A,3956.3686,N,11624.5067,E,0.07,157.85,180812,,,A*6E
246,
$GPRMC,085023.000,A,3956.3679,N,11624.5061,E,0.02,4.62,180812,,,A*62
246,
$GPRMC,085024.000,A,3956.3674,N,11624.5056,E,0.86,214.60,180812,,,A*61
246,
$GPRMC,085025.000,A,3956.3663,N,11624.5043,E,0.69,212.96,180812,,,A*6C
245,
$GPRMC,085026.000,A,3956.3659,N,11624.5039,E,0.53,210.12,180812,,,A*6C
245,
$GPRMC,085027.000,A,3956.3657,N,11624.5036,E,0.26,201.55,180812,,,A*6D
245,
$GPRMC,085028.000,A,3956.3658,N,11624.5036,E,0.44,209.59,180812,,,A*6D
244,
$GPRMC,085029.000,A,3956.3661,N,11624.5038,E,0.18,132.85,180812,,,A*6B
244,
$GPRMC,085030.000,A,3956.3663,N,11624.5040,E,0.72,208.68,180812,,,A*6B
243,
$GPRMC,085031.000,A,3956.3664,N,11624.5042,E,0.57,200.22,180812,,,A*6E
243,
$GPRMC,085032.000,A,3956.3665,N,11624.5044,E,0.80,209.01,180812,,,A*68
243,
$GPRMC,085033.000,A,3956.3668,N,11624.5044,E,0.51,197.90,180812,,,A*64
243,
$GPRMC,085034.000,A,3956.3671,N,11624.5044,E,0.97,218.84,180812,,,A*60
242,
$GPRMC,085035.000,A,3956.3674,N,11624.5043,E,0.71,218.59,180812,,,A*6B
242,
$GPRMC,085036.000,A,3956.3674,N,11624.5039,E,0.91,210.68,180812,,,A*61
242,
$GPRMC,085037.000,A,3956.3675,N,11624.5037,E,0.88,218.18,180812,,,A*68
241,
$GPRMC,085038.000,A,3956.3676,N,11624.5036,E,0.91,211.14,180812,,,A*68
241,
$GPRMC,085039.000,A,3956.3676,N,11624.5034,E,0.61,183.83,180812,,,A*62
241,
$GPRMC,085040.000,A,3956.3675,N,11624.5032,E,0.61,215.76,180812,,,A*6F
241,
$GPRMC,085041.000,A,3956.3676,N,11624.5031,E,0.23,97.14,180812,,,A*54
240,
$GPRMC,085042.000,A,3956.3676,N,11624.5030,E,0.12,118.29,180812,,,A*6C
240,
$GPRMC,085043.000,A,3956.3680,N,11624.5033,E,0.39,85.34,180812,,,A*57
240,
$GPRMC,085044.000,A,3956.3681,N,11624.5033,E,0.25,88.81,180812,,,A*5F
240,
$GPRMC,085045.000,A,3956.3683,N,11624.5034,E,0.19,89.27,180812,,,A*59
239,
$GPRMC,085046.000,A,3956.3685,N,11624.5033,E,0.65,228.89,180812,,,A*6D
239,
$GPRMC,085047.000,A,3956.3686,N,11624.5032,E,0.27,238.70,180812,,,A*6F
239,
$GPRMC,085048.000,A,3956.3688,N,11624.5032,E,0.40,162.94,180812,,,A*69
239,
$GPRMC,085049.000,A,3956.3689,N,11624.5031,E,0.14,237.82,180812,,,A*6F
239,
$GPRMC,085050.000,A,3956.3691,N,11624.5031,E,0.37,22.97,180812,,,A*5D
239,
$GPRMC,085051.000,A,3956.3694,N,11624.5031,E,0.23,334.51,180812,,,A*62
238,
$GPRMC,085052.000,A,3956.3697,N,11624.5032,E,0.29,279.91,180812,,,A*6F
238,
$GPRMC,085053.000,A,3956.3699,N,11624.5032,E,0.27,16.76,180812,,,A*5C
238,
$GPRMC,085054.000,A,3956.3701,N,11624.5033,E,0.03,263.69,180812,,,A*62
238,
$GPRMC,085055.000,A,3956.3703,N,11624.5034,E,0.67,27.07,180812,,,A*5E
238,
$GPRMC,085056.000,A,3956.3705,N,11624.5036,E,0.49,29.78,180812,,,A*53
237,
$GPRMC,085057.000,A,3956.3708,N,11624.5038,E,0.58,35.60,180812,,,A*55
237,
$GPRMC,085058.000,A,3956.3708,N,11624.5040,E,0.17,147.25,180812,,,A*6B
237,
$GPRMC,085059.000,A,3956.3708,N,11624.5041,E,0.23,84.04,180812,,,A*51
237,
$GPRMC,085100.000,A,3956.3707,N,11624.5040,E,0.37,101.68,180812,,,A*61
237,
$GPRMC,085101.000,A,3956.3705,N,11624.5039,E,0.27,124.55,180812,,,A*64
236,
$GPRMC,085102.000,A,3956.3704,N,11624.5038,E,0.35,80.71,180812,,,A*5D
236,
$GPRMC,085103.000,A,3956.3703,N,11624.5038,E,0.35,74.18,180812,,,A*5F
236,
$GPRMC,085104.000,A,3956.3702,N,11624.5039,E,0.14,110.08,180812,,,A*69
236,
$GPRMC,085105.000,A,3956.3701,N,11624.5040,E,0.27,155.38,180812,,,A*67
235,
$GPRMC,085106.000,A,3956.3700,N,11624.5040,E,0.24,184.47,180812,,,A*62
235,
$GPRMC,085107.000,A,3956.3701,N,11624.5042,E,0.57,44.01,180812,,,A*5B
235,
$GPRMC,085108.000,A,3956.3702,N,11624.5045,E,0.54,40.28,180812,,,A*5C
235,
$GPRMC,085109.000,A,3956.3704,N,11624.5048,E,0.93,43.52,180812,,,A*53
235,
$GPRMC,085110.000,A,3956.3707,N,11624.5051,E,0.87,43.71,180812,,,A*54
235,
$GPRMC,085111.000,A,3956.3709,N,11624.5054,E,0.70,49.63,180812,,,A*5F
236,
$GPRMC,085112.000,A,3956.3712,N,11624.5057,E,0.47,51.38,180812,,,A*56
236,
$GPRMC,085113.000,A,3956.3714,N,11624.5059,E,0.45,61.17,180812,,,A*53
237,
$GPRMC,085114.000,A,3956.3716,N,11624.5061,E,0.12,106.75,180812,,,A*6B
237,
$GPRMC,085115.000,A,3956.3717,N,11624.5062,E,0.13,56.55,180812,,,A*5F
237,
$GPRMC,085116.000,A,3956.3718,N,11624.5063,E,0.07,207.31,180812,,,A*63
237,
$GPRMC,085117.000,A,3956.3719,N,11624.5064,E,0.35,40.09,180812,,,A*5F
238,
$GPRMC,085118.000,A,3956.3722,N,11624.5067,E,0.76,42.95,180812,,,A*5B
238,
$GPRMC,085119.000,A,3956.3724,N,11624.5069,E,0.67,41.54,180812,,,A*5C
238,
$GPRMC,085120.000,A,3956.3725,N,11624.5071,E,0.21,82.47,180812,,,A*51
238,
$GPRMC,085121.000,A,3956.3723,N,11624.5069,E,0.32,58.33,180812,,,A*59
238,
$GPRMC,085122.000,A,3956.3723,N,11624.5068,E,0.13,120.52,180812,,,A*61
239,
$GPRMC,085123.000,A,3956.3724,N,11624.5067,E,0.34,33.75,180812,,,A*5B
239,
$GPRMC,085124.000,A,3956.3725,N,11624.5067,E,0.18,338.17,180812,,,A*6F
239,
$GPRMC,085125.000,A,3956.3726,N,11624.5067,E,0.45,9.13,180812,,,A*60
239,
$GPRMC,085126.000,A,3956.3728,N,11624.5069,E,0.47,17.72,180812,,,A*59
239,
$GPRMC,085127.000,A,3956.3730,N,11624.5070,E,0.65,41.41,180812,,,A*5A
239,
$GPRMC,085128.000,A,3956.3731,N,11624.5071,E,0.49,64.30,180812,,,A*5A
239,
$GPRMC,085129.000,A,3956.3733,N,11624.5073,E,0.45,57.07,180812,,,A*53
239,
$GPRMC,085130.000,A,3956.3737,N,11624.5076,E,0.45,52.57,180812,,,A*5A
239,
$GPRMC,085131.000,A,3956.3740,N,11624.5078,E,0.65,45.79,180812,,,A*5D
239,
$GPRMC,085132.000,A,3956.3742,N,11624.5080,E,0.47,49.85,180812,,,A*54
239,
$GPRMC,085133.000,A,3956.3744,N,11624.5082,E,0.79,43.63,180812,,,A*5E
239,
$GPRMC,085134.000,A,3956.3746,N,11624.5084,E,0.50,40.55,180812,,,A*50
239,
$GPRMC,085135.000,A,3956.3747,N,11624.5086,E,0.88,40.92,180812,,,A*5C
239,
$GPRMC,085136.000,A,3956.3749,N,11624.5088,E,0.56,47.73,180812,,,A*54
239,
$GPRMC,085137.000,A,3956.3752,N,11624.5091,E,1.13,37.44,180812,,,A*54
239,
$GPRMC,085138.000,A,3956.3754,N,11624.5093,E,0.70,42.43,180812,,,A*5E
239,
$GPRMC,085139.000,A,3956.3756,N,11624.5096,E,0.98,44.60,180812,,,A*59
239,
$GPRMC,085140.000,A,3956.3757,N,11624.5097,E,0.64,44.10,180812,,,A*53
239,
$GPRMC,085141.000,A,3956.3758,N,11624.5099,E,1.14,46.86,180812,,,A*58
239,
$GPRMC,085142.000,A,3956.3759,N,11624.5101,E,0.76,46.26,180812,,,A*55
238,
$GPRMC,085143.000,A,3956.3759,N,11624.5102,E,0.83,47.18,180812,,,A*51
238,
$GPRMC,085144.000,A,3956.3759,N,11624.5103,E,0.91,43.28,180812,,,A*53
238,
$GPRMC,085145.000,A,3956.3758,N,11624.5105,E,0.87,46.02,180812,,,A*5F
238,
$GPRMC,085146.000,A,3956.3757,N,11624.5105,E,0.16,78.23,180812,,,A*55
238,
$GPRMC,085147.000,A,3956.3755,N,11624.5104,E,0.22,76.12,180812,,,A*5C
238,
$GPRMC,085148.000,A,3956.3755,N,11624.5105,E,0.51,45.96,180812,,,A*5A
237,
$GPRMC,085149.000,A,3956.3754,N,11624.5105,E,0.22,68.92,180812,,,A*55
237,
$GPRMC,085150.000,A,3956.3753,N,11624.5104,E,0.22,58.20,180812,,,A*51
237,
$GPRMC,085151.000,A,3956.3753,N,11624.5104,E,0.54,47.06,180812,,,A*5B
237,
$GPRMC,085152.000,A,3956.3752,N,11624.5103,E,0.24,41.65,180812,,,A*5A
237,
$GPRMC,085153.000,A,3956.3753,N,11624.5100,E,0.10,236.90,180812,,,A*66
237,
$GPRMC,085154.000,A,3956.3751,N,11624.5098,E,0.10,78.85,180812,,,A*5F
237,
$GPRMC,085155.000,A,3956.3748,N,11624.5094,E,0.47,207.99,180812,,,A*6F
237,
$GPRMC,085156.000,A,3956.3746,N,11624.5091,E,0.26,199.63,180812,,,A*61
237,
$GPRMC,085157.000,A,3956.3744,N,11624.5087,E,0.25,220.55,180812,,,A*62
237,
$GPRMC,085158.000,A,3956.3743,N,11624.5084,E,0.45,244.62,180812,,,A*69
237,
$GPRMC,085159.000,A,3956.3741,N,11624.5079,E,0.60,237.98,180812,,,A*6E
237,
$GPRMC,085200.000,A,3956.3741,N,11624.5077,E,0.10,185.65,180812,,,A*60
237,
$GPRMC,085201.000,A,3956.3741,N,11624.5076,E,0.34,102.39,180812,,,A*60
237,
$GPRMC,085202.000,A,3956.3739,N,11624.5074,E,0.44,84.59,180812,,,A*50
237,
$GPRMC,085203.000,A,3956.3738,N,11624.5073,E,0.55,92.44,180812,,,A*5C
237,
$GPRMC,085204.000,A,3956.3734,N,11624.5068,E,0.17,170.63,180812,,,A*63
237,
$GPRMC,085205.000,A,3956.3731,N,11624.5063,E,0.06,169.26,180812,,,A*65
237,
$GPRMC,085206.000,A,3956.3728,N,11624.5057,E,0.28,218.71,180812,,,A*62
237,
$GPRMC,085207.000,A,3956.3723,N,11624.5050,E,0.31,207.65,180812,,,A*6C
237,
$GPRMC,085208.000,A,3956.3720,N,11624.5045,E,0.57,219.59,180812,,,A*64
237,
$GPRMC,085209.000,A,3956.3716,N,11624.5040,E,0.20,178.68,180812,,,A*63
237,
$GPRMC,085210.000,A,3956.3714,N,11624.5036,E,0.39,213.82,180812,,,A*6A
237,
$GPRMC,085211.000,A,3956.3711,N,11624.5032,E,0.40,220.29,180812,,,A*65
237,
$GPRMC,085212.000,A,3956.3709,N,11624.5028,E,0.66,231.76,180812,,,A*6A
237,
$GPRMC,085213.000,A,3956.3705,N,11624.5022,E,0.89,233.03,180812,,,A*6C
237,
$GPRMC,085214.000,A,3956.3703,N,11624.5019,E,0.53,225.67,180812,,,A*67
237,
$GPRMC,085215.000,A,3956.3703,N,11624.5018,E,0.26,199.55,180812,,,A*60
237,
$GPRMC,085216.000,A,3956.3702,N,11624.5016,E,0.27,190.30,180812,,,A*67
237,
$GPRMC,085217.000,A,3956.3703,N,11624.5017,E,0.26,195.44,180812,,,A*61
237,
$GPRMC,085218.000,A,3956.3703,N,11624.5017,E,0.19,147.47,180812,,,A*6E
237,
$GPRMC,085219.000,A,3956.3703,N,11624.5017,E,0.32,93.89,180812,,,A*5C
237,
$GPRMC,085220.000,A,3956.3705,N,11624.5021,E,0.35,104.50,180812,,,A*69
237,
$GPRMC,085221.000,A,3956.3708,N,11624.5024,E,0.32,108.33,180812,,,A*6E
237,
$GPRMC,085222.000,A,3956.3707,N,11624.5024,E,0.21,89.60,180812,,,A*5E
237,
$GPRMC,085223.000,A,3956.3709,N,11624.5027,E,0.74,64.33,180812,,,A*57
237,
$GPRMC,085224.000,A,3956.3704,N,11624.5022,E,0.09,220.28,180812,,,A*6A
237,
$GPRMC,085225.000,A,3956.3696,N,11624.5013,E,0.48,239.11,180812,,,A*64
237,
$GPRMC,085226.000,A,3956.3690,N,11624.5006,E,0.14,161.66,180812,,,A*62
237,
$GPRMC,085227.000,A,3956.3681,N,11624.4998,E,0.17,209.10,180812,,,A*63
237,
$GPRMC,085228.000,A,3956.3676,N,11624.4993,E,0.32,197.16,180812,,,A*6A
236,
$GPRMC,085229.000,A,3956.3673,N,11624.4991,E,0.36,196.61,180812,,,A*69
236,
$GPRMC,085230.000,A,3956.3673,N,11624.4991,E,0.34,199.67,180812,,,A*6A
236,
$GPRMC,085231.000,A,3956.3675,N,11624.4995,E,0.21,139.74,180812,,,A*65
236,
$GPRMC,085232.000,A,3956.3675,N,11624.4995,E,0.50,208.09,180812,,,A*6B
236,
$GPRMC,085233.000,A,3956.3674,N,11624.4995,E,0.29,189.99,180812,,,A*66
236,
$GPRMC,085234.000,A,3956.3669,N,11624.4991,E,0.44,220.96,180812,,,A*6D
236,
$GPRMC,085235.000,A,3956.3668,N,11624.4991,E,0.35,185.43,180812,,,A*6F
236,
$GPRMC,085236.000,A,3956.3664,N,11624.4988,E,0.17,170.94,180812,,,A*68
236,
$GPRMC,085237.000,A,3956.3664,N,11624.4989,E,0.24,183.32,180812,,,A*68
235,
$GPRMC,085238.000,A,3956.3661,N,11624.4988,E,0.29,197.33,180812,,,A*6A
235,
$GPRMC,085239.000,A,3956.3655,N,11624.4982,E,0.34,203.94,180812,,,A*69
235,
$GPRMC,085240.000,A,3956.3654,N,11624.4982,E,0.18,195.28,180812,,,A*63
235,
$GPRMC,085241.000,A,3956.3652,N,11624.4982,E,0.34,197.65,180812,,,A*61
235,
$GPRMC,085242.000,A,3956.3652,N,11624.4980,E,0.33,209.43,180812,,,A*67
234,
$GPRMC,085243.000,A,3956.3652,N,11624.4978,E,0.37,207.02,180812,,,A*6E
234,
$GPRMC,085244.000,A,3956.3653,N,11624.4979,E,0.13,156.20,180812,,,A*68
234,
$GPRMC,085245.000,A,3956.3653,N,11624.4979,E,0.17,146.92,180812,,,A*65
234,
$GPRMC,085246.000,A,3956.3655,N,11624.4980,E,0.38,212.92,180812,,,A*69
234,
$GPRMC,085247.000,A,3956.3654,N,11624.4979,E,0.35,209.15,180812,,,A*67
234,
$GPRMC,085248.000,A,3956.3656,N,11624.4980,E,1.15,222.40,180812,,,A*66
234,
$GPRMC,085249.000,A,3956.3654,N,11624.4978,E,0.93,219.85,180812,,,A*6C
234,
$GPRMC,085250.000,A,3956.3657,N,11624.4982,E,0.83,222.36,180812,,,A*63
234,
$GPRMC,085251.000,A,3956.3661,N,11624.4986,E,0.07,171.74,180812,,,A*6C
234,
$GPRMC,085252.000,A,3956.3665,N,11624.4991,E,0.26,81.84,180812,,,A*5F
234,
$GPRMC,085253.000,A,3956.3668,N,11624.4995,E,0.17,143.75,180812,,,A*64
234,
$GPRMC,085254.000,A,3956.3670,N,11624.4996,E,0.22,75.40,180812,,,A*5D
234,
$GPRMC,085255.000,A,3956.3683,N,11624.5009,E,0.16,62.71,180812,,,A*5D
235,
$GPRMC,085256.000,A,3956.3690,N,11624.5016,E,0.45,227.99,180812,,,A*61
235,
$GPRMC,085257.000,A,3956.3694,N,11624.5020,E,0.19,227.79,180812,,,A*66
235,
$GPRMC,085258.000,A,3956.3697,N,11624.5022,E,0.08,225.49,180812,,,A*69
235,
$GPRMC,085259.000,A,3956.3700,N,11624.5027,E,0.27,64.77,180812,,,A*55
234,
$GPRMC,085300.000,A,3956.3703,N,11624.5031,E,0.03,24.22,180812,,,A*5E
235,
$GPRMC,085301.000,A,3956.3705,N,11624.5034,E,0.25,68.48,180812,,,A*5C
235,
$GPRMC,085302.000,A,3956.3707,N,11624.5036,E,0.02,281.90,180812,,,A*6A
236,
$GPRMC,085303.000,A,3956.3707,N,11624.5037,E,0.16,69.45,180812,,,A*53
237,
$GPRMC,085304.000,A,3956.3706,N,11624.5037,E,0.02,126.84,180812,,,A*67
238,
$GPRMC,085305.000,A,3956.3704,N,11624.5036,E,0.33,71.00,180812,,,A*58
238,
$GPRMC,085306.000,A,3956.3703,N,11624.5037,E,0.55,65.11,180812,,,A*58
239,
$GPRMC,085307.000,A,3956.3704,N,11624.5039,E,0.83,63.60,180812,,,A*5B
239,
$GPRMC,085308.000,A,3956.3703,N,11624.5040,E,0.51,65.84,180812,,,A*5E
239,
$GPRMC,085309.000,A,3956.3702,N,11624.5041,E,0.76,60.78,180812,,,A*5C
239,
$GPRMC,085310.000,A,3956.3702,N,11624.5042,E,0.08,97.62,180812,,,A*5D
240,
$GPRMC,085311.000,A,3956.3701,N,11624.5042,E,0.07,203.29,180812,,,A*60
240,
$GPRMC,085312.000,A,3956.3700,N,11624.5042,E,0.16,202.18,180812,,,A*61
240,
$GPRMC,085313.000,A,3956.3698,N,11624.5041,E,0.43,63.52,180812,,,A*58
241,
$GPRMC,085314.000,A,3956.3695,N,11624.5040,E,0.08,161.34,180812,,,A*6F
241,
$GPRMC,085315.000,A,3956.3694,N,11624.5040,E,0.33,62.37,180812,,,A*56
241,
$GPRMC,085316.000,A,3956.3694,N,11624.5040,E,0.14,179.45,180812,,,A*6E
241,
$GPRMC,085317.000,A,3956.3693,N,11624.5040,E,0.15,148.12,180812,,,A*69
241,
$GPRMC,085318.000,A,3956.3693,N,11624.5041,E,0.16,178.45,180812,,,A*65
241,
$GPRMC,085319.000,A,3956.3693,N,11624.5041,E,0.27,61.02,180812,,,A*5C
241,
$GPRMC,085320.000,A,3956.3695,N,11624.5041,E,0.41,5.74,180812,,,A*63
241,
$GPRMC,085321.000,A,3956.3695,N,11624.5042,E,0.88,12.04,180812,,,A*55
241,
$GPRMC,085322.000,A,3956.3696,N,11624.5043,E,0.58,22.72,180812,,,A*5B
241,
$GPRMC,085323.000,A,3956.3696,N,11624.5043,E,0.56,12.37,180812,,,A*56
241,
$GPRMC,085324.000,A,3956.3695,N,11624.5044,E,0.34,167.56,180812,,,A*65
241,
$GPRMC,085325.000,A,3956.3690,N,11624.5043,E,0.86,182.46,180812,,,A*65
241,
$GPRMC,085326.000,A,3956.3686,N,11624.5042,E,0.71,190.21,180812,,,A*6A
241,
$GPRMC,085327.000,A,3956.3684,N,11624.5042,E,0.21,41.15,180812,,,A*56
241,
$GPRMC,085328.000,A,3956.3683,N,11624.5042,E,0.13,346.43,180812,,,A*68
241,
$GPRMC,085329.000,A,3956.3682,N,11624.5042,E,0.11,343.36,180812,,,A*6D
241,
$GPRMC,085330.000,A,3956.3683,N,11624.5043,E,0.86,9.74,180812,,,A*60
241,
$GPRMC,085331.000,A,3956.3684,N,11624.5045,E,0.63,358.93,180812,,,A*65
241,
$GPRMC,085332.000,A,3956.3689,N,11624.5048,E,0.96,7.34,180812,,,A*68
241,
$GPRMC,085333.000,A,3956.3693,N,11624.5051,E,0.95,5.33,180812,,,A*6C
241,
$GPRMC,085334.000,A,3956.3696,N,11624.5055,E,0.29,333.15,180812,,,A*6F
242,
$GPRMC,085335.000,A,3956.3697,N,11624.5057,E,0.33,175.97,180812,,,A*6C
242,
$GPRMC,085336.000,A,3956.3697,N,11624.5059,E,0.32,130.98,180812,,,A*6E
243,
$GPRMC,085337.000,A,3956.3699,N,11624.5061,E,0.26,227.26,180812,,,A*6F
244,
$GPRMC,085338.000,A,3956.3699,N,11624.5061,E,0.29,223.88,180812,,,A*6F
246,
$GPRMC,085339.000,A,3956.3698,N,11624.5060,E,0.56,238.53,180812,,,A*6A
263,
$GPRMC,085340.000,A,3956.3695,N,11624.5054,E,0.78,292.60,180812,,,A*62
266,
$GPRMC,085341.000,A,3956.3694,N,11624.5049,E,0.96,271.81,180812,,,A*6C
266,
$GPRMC,085342.000,A,3956.3693,N,11624.5044,E,0.66,289.35,180812,,,A*62
265,
$GPRMC,085343.000,A,3956.3692,N,11624.5043,E,0.39,17.22,180812,,,A*5C
264,
$GPRMC,085344.000,A,3956.3692,N,11624.5042,E,0.99,337.34,180812,,,A*66
263,
$GPRMC,085345.000,A,3956.3693,N,11624.5039,E,0.90,318.22,180812,,,A*69
262,
$GPRMC,085346.000,A,3956.3692,N,11624.5033,E,1.02,305.69,180812,,,A*68
260,
$GPRMC,085347.000,A,3956.3691,N,11624.5027,E,1.26,298.71,180812,,,A*65
258,
$GPRMC,085348.000,A,3956.3685,N,11624.5012,E,2.86,267.53,180812,,,A*60
256,
$GPRMC,085349.000,A,3956.3678,N,11624.4994,E,2.66,267.79,180812,,,A*63
255,
$GPRMC,085350.000,A,3956.3673,N,11624.4980,E,3.14,253.46,180812,,,A*6A
254,
$GPRMC,085351.000,A,3956.3672,N,11624.4969,E,3.31,262.37,180812,,,A*6E
253,
$GPRMC,085352.000,A,3956.3670,N,11624.4955,E,3.82,262.43,180812,,,A*6B
252,
$GPRMC,085353.000,A,3956.3667,N,11624.4938,E,3.81,272.01,180812,,,A*63
251,
$GPRMC,085354.000,A,3956.3665,N,11624.4919,E,4.23,267.35,180812,,,A*69
250,
$GPRMC,085355.000,A,3956.3661,N,11624.4900,E,4.23,264.98,180812,,,A*60
249,
$GPRMC,085356.000,A,3956.3657,N,11624.4880,E,4.26,267.89,180812,,,A*69
248,
$GPRMC,085357.000,A,3956.3654,N,11624.4860,E,4.38,266.05,180812,,,A*6F
247,
$GPRMC,085358.000,A,3956.3651,N,11624.4842,E,3.79,261.33,180812,,,A*65
246,
$GPRMC,085359.000,A,3956.3645,N,11624.4818,E,3.91,267.32,180812,,,A*6F
246,
$GPRMC,085400.000,A,3956.3637,N,11624.4793,E,4.37,267.98,180812,,,A*66
245,
$GPRMC,085401.000,A,3956.3630,N,11624.4766,E,4.44,266.09,180812,,,A*67
244,
$GPRMC,085402.000,A,3956.3623,N,11624.4739,E,4.57,268.01,180812,,,A*68
243,
$GPRMC,085403.000,A,3956.3624,N,11624.4722,E,4.24,270.04,180812,,,A*6C
243,
$GPRMC,085404.000,A,3956.3623,N,11624.4705,E,4.16,267.68,180812,,,A*64
244,
$GPRMC,085405.000,A,3956.3620,N,11624.4686,E,3.84,267.63,180812,,,A*6B
244,
$GPRMC,085406.000,A,3956.3616,N,11624.4667,E,3.68,261.20,180812,,,A*61
244,
$GPRMC,085407.000,A,3956.3616,N,11624.4653,E,3.34,270.92,180812,,,A*67
245,
$GPRMC,085408.000,A,3956.3618,N,11624.4641,E,3.04,279.73,180812,,,A*60
246,
$GPRMC,085409.000,A,3956.3622,N,11624.4631,E,2.97,291.90,180812,,,A*6F
247,
$GPRMC,085410.000,A,3956.3625,N,11624.4621,E,2.99,287.60,180812,,,A*67
248,
$GPRMC,085411.000,A,3956.3630,N,11624.4613,E,2.74,295.36,180812,,,A*60
249,
$GPRMC,085412.000,A,3956.3636,N,11624.4607,E,2.95,306.02,180812,,,A*63
250,
$GPRMC,085413.000,A,3956.3643,N,11624.4599,E,3.31,300.47,180812,,,A*6C
250,
$GPRMC,085414.000,A,3956.3652,N,11624.4592,E,3.40,318.23,180812,,,A*6D
250,
$GPRMC,085415.000,A,3956.3664,N,11624.4587,E,3.92,331.00,180812,,,A*68
251,
$GPRMC,085416.000,A,3956.3676,N,11624.4582,E,4.29,335.07,180812,,,A*69
251,
$GPRMC,085417.000,A,3956.3688,N,11624.4572,E,4.82,331.74,180812,,,A*67
251,
$GPRMC,085418.000,A,3956.3696,N,11624.4555,E,5.09,326.08,180812,,,A*6D
251,
$GPRMC,085419.000,A,3956.3703,N,11624.4536,E,5.12,316.18,180812,,,A*6C
251,
$GPRMC,085420.000,A,3956.3711,N,11624.4517,E,5.26,315.42,180812,,,A*6D
251,
$GPRMC,085421.000,A,3956.3719,N,11624.4499,E,5.39,316.61,180812,,,A*6F
251,
$GPRMC,085422.000,A,3956.3728,N,11624.4480,E,5.60,309.12,180812,,,A*60
250,
$GPRMC,085423.000,A,3956.3736,N,11624.4459,E,5.82,299.82,180812,,,A*67
249,
$GPRMC,085424.000,A,3956.3741,N,11624.4435,E,6.22,294.35,180812,,,A*62
248,
$GPRMC,085425.000,A,3956.3745,N,11624.4410,E,6.08,284.99,180812,,,A*6F
247,
$GPRMC,085426.000,A,3956.3746,N,11624.4386,E,6.20,274.84,180812,,,A*6E
247,
$GPRMC,085427.000,A,3956.3745,N,11624.4361,E,6.22,270.85,180812,,,A*62
246,
$GPRMC,085428.000,A,3956.3745,N,11624.4336,E,6.35,268.54,180812,,,A*6C
245,
$GPRMC,085429.000,A,3956.3744,N,11624.4310,E,6.21,268.66,180812,,,A*6C
245,
$GPRMC,085430.000,A,3956.3742,N,11624.4285,E,6.50,271.56,180812,,,A*62
243,
$GPRMC,085431.000,A,3956.3737,N,11624.4260,E,5.97,266.64,180812,,,A*65
242,
$GPRMC,085432.000,A,3956.3733,N,11624.4237,E,5.70,255.49,180812,,,A*66
241,
$GPRMC,085433.000,A,3956.3731,N,11624.4216,E,5.71,267.51,180812,,,A*6F
240,
$GPRMC,085434.000,A,3956.3730,N,11624.4193,E,5.77,268.53,180812,,,A*6C
240,
$GPRMC,085435.000,A,3956.3728,N,11624.4171,E,5.58,252.37,180812,,,A*6E
240,
$GPRMC,085436.000,A,3956.3724,N,11624.4150,E,5.46,256.66,180812,,,A*6D
239,
$GPRMC,085437.000,A,3956.3719,N,11624.4129,E,5.71,260.92,180812,,,A*66
239,
$GPRMC,085438.000,A,3956.3716,N,11624.4108,E,5.61,263.10,180812,,,A*6D
239,
$GPRMC,085439.000,A,3956.3713,N,11624.4087,E,5.38,257.30,180812,,,A*66
239,
$GPRMC,085440.000,A,3956.3711,N,11624.4065,E,5.57,265.07,180812,,,A*6A
240,
$GPRMC,085441.000,A,3956.3711,N,11624.4042,E,5.48,265.82,180812,,,A*6D
242,
$GPRMC,085442.000,A,3956.3709,N,11624.4020,E,5.77,265.49,180812,,,A*68
243,
$GPRMC,085443.000,A,3956.3707,N,11624.3996,E,5.76,270.90,180812,,,A*65
243,
$GPRMC,085444.000,A,3956.3706,N,11624.3971,E,6.00,270.13,180812,,,A*63
247,
$GPRMC,085445.000,A,3956.3706,N,11624.3946,E,6.10,274.75,180812,,,A*63
249,
$GPRMC,085446.000,A,3956.3708,N,11624.3922,E,6.32,270.06,180812,,,A*6C
248,
$GPRMC,085447.000,A,3956.3710,N,11624.3898,E,5.95,270.84,180812,,,A*60
247,
$GPRMC,085448.000,A,3956.3712,N,11624.3873,E,6.37,268.31,180812,,,A*64
246,
$GPRMC,085449.000,A,3956.3712,N,11624.3847,E,6.30,267.37,180812,,,A*6C
247,
$GPRMC,085450.000,A,3956.3713,N,11624.3821,E,6.50,272.84,180812,,,A*6F
248,
$GPRMC,085451.000,A,3956.3710,N,11624.3798,E,6.19,266.36,180812,,,A*61
248,
$GPRMC,085452.000,A,3956.3708,N,11624.3773,E,6.37,273.56,180812,,,A*60
247,
$GPRMC,085453.000,A,3956.3710,N,11624.3745,E,6.46,273.70,180812,,,A*6F
244,
$GPRMC,085454.000,A,3956.3709,N,11624.3719,E,6.24,273.07,180812,,,A*6D
240,
$GPRMC,085455.000,A,3956.3710,N,11624.3693,E,6.21,273.02,180812,,,A*67
244,
$GPRMC,085456.000,A,3956.3713,N,11624.3669,E,5.92,271.06,180812,,,A*6F
242,
$GPRMC,085457.000,A,3956.3714,N,11624.3646,E,6.23,268.34,180812,,,A*64
241,
$GPRMC,085458.000,A,3956.3715,N,11624.3624,E,6.08,267.79,180812,,,A*61
240,
$GPRMC,085459.000,A,3956.3712,N,11624.3603,E,5.74,263.40,180812,,,A*64
238,
$GPRMC,085500.000,A,3956.3711,N,11624.3582,E,5.64,263.32,180812,,,A*64
239,
$GPRMC,085501.000,A,3956.3710,N,11624.3560,E,5.49,262.82,180812,,,A*6D
240,
$GPRMC,085502.000,A,3956.3708,N,11624.3539,E,5.57,271.63,180812,,,A*69
241,
$GPRMC,085503.000,A,3956.3706,N,11624.3520,E,5.02,264.52,180812,,,A*68
240,
$GPRMC,085504.000,A,3956.3704,N,11624.3502,E,4.93,266.39,180812,,,A*6B
241,
$GPRMC,085505.000,A,3956.3698,N,11624.3485,E,4.86,261.81,180812,,,A*60
240,
$GPRMC,085506.000,A,3956.3696,N,11624.3467,E,5.07,271.42,180812,,,A*67
242,
$GPRMC,085507.000,A,3956.3692,N,11624.3449,E,4.87,260.87,180812,,,A*6E
243,
$GPRMC,085508.000,A,3956.3691,N,11624.3429,E,4.95,268.46,180812,,,A*62
244,
$GPRMC,085509.000,A,3956.3692,N,11624.3409,E,5.30,269.74,180812,,,A*6C
245,
$GPRMC,085510.000,A,3956.3694,N,11624.3388,E,5.66,271.99,180812,,,A*65
245,
$GPRMC,085511.000,A,3956.3697,N,11624.3366,E,5.81,267.57,180812,,,A*6B
245,
$GPRMC,085512.000,A,3956.3696,N,11624.3345,E,5.75,263.03,180812,,,A*66
246,
$GPRMC,085513.000,A,3956.3697,N,11624.3322,E,5.78,256.74,180812,,,A*6C
246,
$GPRMC,085514.000,A,3956.3696,N,11624.3300,E,5.75,253.44,180812,,,A*61
246,
$GPRMC,085515.000,A,3956.3692,N,11624.3280,E,5.69,259.23,180812,,,A*6B
248,
$GPRMC,085516.000,A,3956.3691,N,11624.3258,E,5.88,262.80,180812,,,A*60
251,
$GPRMC,085517.000,A,3956.3690,N,11624.3236,E,5.98,263.88,180812,,,A*60
252,
$GPRMC,085518.000,A,3956.3691,N,11624.3212,E,6.11,260.75,180812,,,A*6B
254,
$GPRMC,085519.000,A,3956.3692,N,11624.3188,E,5.88,261.83,180812,,,A*62
254,
$GPRMC,085520.000,A,3956.3694,N,11624.3163,E,6.12,263.35,180812,,,A*64
255,
$GPRMC,085521.000,A,3956.3694,N,11624.3139,E,6.19,269.73,180812,,,A*69
256,
$GPRMC,085522.000,A,3956.3696,N,11624.3113,E,6.14,271.54,180812,,,A*61
257,
$GPRMC,085523.000,A,3956.3695,N,11624.3089,E,5.93,267.36,180812,,,A*6E
258,
$GPRMC,085524.000,A,3956.3695,N,11624.3063,E,6.07,273.27,180812,,,A*66
258,
$GPRMC,085525.000,A,3956.3691,N,11624.3038,E,6.23,271.33,180812,,,A*6C
258,
$GPRMC,085526.000,A,3956.3689,N,11624.3015,E,6.08,274.32,180812,,,A*64
257,
$GPRMC,085527.000,A,3956.3689,N,11624.2992,E,6.14,273.00,180812,,,A*69
257,
$GPRMC,085528.000,A,3956.3692,N,11624.2969,E,6.26,274.03,180812,,,A*6D
258,
$GPRMC,085529.000,A,3956.3694,N,11624.2945,E,6.50,266.53,180812,,,A*63
257,
$GPRMC,085530.000,A,3956.3695,N,11624.2920,E,6.58,264.88,180812,,,A*65
256,
$GPRMC,085531.000,A,3956.3695,N,11624.2897,E,6.20,269.96,180812,,,A*64
255,
$GPRMC,085532.000,A,3956.3696,N,11624.2875,E,5.69,271.38,180812,,,A*6B
253,
$GPRMC,085533.000,A,3956.3697,N,11624.2855,E,4.83,271.73,180812,,,A*63
252,
$GPRMC,085534.000,A,3956.3699,N,11624.2836,E,5.04,271.25,180812,,,A*62
251,
$GPRMC,085535.000,A,3956.3703,N,11624.2816,E,5.44,274.45,180812,,,A*64
249,
$GPRMC,085536.000,A,3956.3704,N,11624.2795,E,5.47,266.82,180812,,,A*6F
250,
$GPRMC,085537.000,A,3956.3704,N,11624.2774,E,5.93,265.40,180812,,,A*65
248,
$GPRMC,085538.000,A,3956.3703,N,11624.2752,E,6.20,263.52,180812,,,A*67
247,
$GPRMC,085539.000,A,3956.3703,N,11624.2729,E,6.24,267.93,180812,,,A*67
248,
$GPRMC,085540.000,A,3956.3703,N,11624.2706,E,6.30,266.39,180812,,,A*60
248,
$GPRMC,085541.000,A,3956.3704,N,11624.2683,E,6.12,266.49,180812,,,A*6D
248,
$GPRMC,085542.000,A,3956.3704,N,11624.2661,E,5.94,266.45,180812,,,A*63
250,
$GPRMC,085543.000,A,3956.3704,N,11624.2638,E,6.08,267.14,180812,,,A*6D
249,
$GPRMC,085544.000,A,3956.3705,N,11624.2615,E,6.16,268.19,180812,,,A*69
250,
$GPRMC,085545.000,A,3956.3706,N,11624.2592,E,6.21,269.05,180812,,,A*6F
253,
$GPRMC,085546.000,A,3956.3706,N,11624.2569,E,6.43,269.81,180812,,,A*60
254,
$GPRMC,085547.000,A,3956.3708,N,11624.2545,E,6.55,272.09,180812,,,A*6C
254,
$GPRMC,085548.000,A,3956.3708,N,11624.2522,E,6.32,270.81,180812,,,A*61
255,
$GPRMC,085549.000,A,3956.3709,N,11624.2499,E,6.31,272.30,180812,,,A*6B
256,
$GPRMC,085550.000,A,3956.3711,N,11624.2475,E,6.53,270.46,180812,,,A*6F
254,
$GPRMC,085551.000,A,3956.3713,N,11624.2450,E,6.49,269.24,180812,,,A*6C
252,
$GPRMC,085552.000,A,3956.3715,N,11624.2425,E,6.33,273.55,180812,,,A*6B
251,
$GPRMC,085553.000,A,3956.3717,N,11624.2401,E,6.58,274.23,180812,,,A*65
250,
$GPRMC,085554.000,A,3956.3717,N,11624.2378,E,6.13,269.22,180812,,,A*69
248,
$GPRMC,085555.000,A,3956.3715,N,11624.2356,E,5.74,266.38,180812,,,A*60
249,
$GPRMC,085556.000,A,3956.3713,N,11624.2335,E,5.52,267.40,180812,,,A*6A
252,
$GPRMC,085557.000,A,3956.3712,N,11624.2315,E,5.27,268.66,180812,,,A*61
253,
$GPRMC,085558.000,A,3956.3711,N,11624.2296,E,5.37,270.19,180812,,,A*67
249,
$GPRMC,085559.000,A,3956.3711,N,11624.2276,E,5.43,272.59,180812,,,A*6D
250,
$GPRMC,085600.000,A,3956.3710,N,11624.2257,E,5.34,271.82,180812,,,A*65
251,
$GPRMC,085601.000,A,3956.3707,N,11624.2238,E,5.29,260.99,180812,,,A*6D
252,
$GPRMC,085602.000,A,3956.3703,N,11624.2219,E,5.26,257.04,180812,,,A*66
251,
$GPRMC,085603.000,A,3956.3701,N,11624.2201,E,4.77,259.77,180812,,,A*63
249,
$GPRMC,085604.000,A,3956.3699,N,11624.2183,E,5.04,261.90,180812,,,A*6A
249,
$GPRMC,085605.000,A,3956.3698,N,11624.2164,E,5.09,265.85,180812,,,A*6E
247,
$GPRMC,085606.000,A,3956.3698,N,11624.2145,E,5.24,271.31,180812,,,A*6B
247,
$GPRMC,085607.000,A,3956.3699,N,11624.2125,E,5.44,270.62,180812,,,A*6C
248,
$GPRMC,085608.000,A,3956.3701,N,11624.2105,E,5.50,270.01,180812,,,A*61
249,
$GPRMC,085609.000,A,3956.3701,N,11624.2085,E,5.49,268.95,180812,,,A*65
247,
$GPRMC,085610.000,A,3956.3702,N,11624.2064,E,5.56,269.94,180812,,,A*6F
247,
$GPRMC,085611.000,A,3956.3703,N,11624.2043,E,5.67,266.59,180812,,,A*66
247,
$GPRMC,085612.000,A,3956.3703,N,11624.2022,E,5.55,266.07,180812,,,A*68
247,
$GPRMC,085613.000,A,3956.3704,N,11624.2001,E,5.68,265.79,180812,,,A*6B
247,
$GPRMC,085614.000,A,3956.3705,N,11624.1981,E,5.10,269.46,180812,,,A*60
249,
$GPRMC,085615.000,A,3956.3705,N,11624.1963,E,4.84,268.87,180812,,,A*6D
251,
$GPRMC,085616.000,A,3956.3706,N,11624.1946,E,4.43,268.30,180812,,,A*6D
253,
$GPRMC,085617.000,A,3956.3706,N,11624.1930,E,4.35,266.46,180812,,,A*63
255,
$GPRMC,085618.000,A,3956.3706,N,11624.1913,E,4.71,268.27,180812,,,A*64
257,
$GPRMC,085619.000,A,3956.3707,N,11624.1895,E,5.26,267.24,180812,,,A*64
259,
$GPRMC,085620.000,A,3956.3707,N,11624.1875,E,5.33,266.83,180812,,,A*68
260,
$GPRMC,085621.000,A,3956.3706,N,11624.1857,E,5.01,260.74,180812,,,A*67
261,
$GPRMC,085622.000,A,3956.3705,N,11624.1838,E,5.05,266.11,180812,,,A*6F
262,
$GPRMC,085623.000,A,3956.3704,N,11624.1818,E,5.41,266.18,180812,,,A*64
262,
$GPRMC,085624.000,A,3956.3707,N,11624.1798,E,5.43,277.46,180812,,,A*6E
261,
$GPRMC,085625.000,A,3956.3709,N,11624.1778,E,5.56,270.80,180812,,,A*66
261,
$GPRMC,085626.000,A,3956.3709,N,11624.1757,E,5.71,264.59,180812,,,A*6C
261,
$GPRMC,085627.000,A,3956.3710,N,11624.1736,E,5.72,270.38,180812,,,A*63
261,
$GPRMC,085628.000,A,3956.3710,N,11624.1715,E,5.50,271.78,180812,,,A*68
262,
$GPRMC,085629.000,A,3956.3713,N,11624.1695,E,5.35,275.03,180812,,,A*68
262,
$GPRMC,085630.000,A,3956.3714,N,11624.1676,E,5.12,269.33,180812,,,A*61
263,
$GPRMC,085631.000,A,3956.3715,N,11624.1658,E,4.83,269.03,180812,,,A*67
262,
$GPRMC,085632.000,A,3956.3716,N,11624.1641,E,4.48,271.71,180812,,,A*64
262,
$GPRMC,085633.000,A,3956.3717,N,11624.1624,E,4.38,271.19,180812,,,A*6E
262,
$GPRMC,085634.000,A,3956.3718,N,11624.1608,E,4.25,269.73,180812,,,A*61
262,
$GPRMC,085635.000,A,3956.3718,N,11624.1593,E,4.14,271.96,180812,,,A*61
261,
$GPRMC,085636.000,A,3956.3718,N,11624.1578,E,3.78,265.63,180812,,,A*65
261,
$GPRMC,085637.000,A,3956.3718,N,11624.1565,E,3.07,269.53,180812,,,A*6F
262,
$GPRMC,085638.000,A,3956.3718,N,11624.1554,E,2.82,279.97,180812,,,A*67
262,
$GPRMC,085639.000,A,3956.3720,N,11624.1545,E,2.34,293.57,180812,,,A*68
261,
$GPRMC,085640.000,A,3956.3722,N,11624.1541,E,0.56,332.64,180812,,,A*6C
261,
$GPRMC,085641.000,A,3956.3723,N,11624.1540,E,0.07,204.75,180812,,,A*6D
261,
$GPRMC,085642.000,A,3956.3723,N,11624.1540,E,0.12,214.92,180812,,,A*62
261,
$GPRMC,085643.000,A,3956.3722,N,11624.1540,E,0.19,252.91,180812,,,A*68
260,
$GPRMC,085644.000,A,3956.3723,N,11624.1538,E,0.40,342.66,180812,,,A*65
260,
$GPRMC,085645.000,A,3956.3723,N,11624.1538,E,0.21,10.58,180812,,,A*5A
260,
$GPRMC,085646.000,A,3956.3723,N,11624.1538,E,0.12,32.82,180812,,,A*5E
259,
$GPRMC,085647.000,A,3956.3723,N,11624.1538,E,0.08,232.59,180812,,,A*60
259,
$GPRMC,085648.000,A,3956.3723,N,11624.1538,E,0.09,81.92,180812,,,A*53
258,
$GPRMC,085649.000,A,3956.3723,N,11624.1538,E,0.03,193.88,180812,,,A*61
258,
$GPRMC,085650.000,A,3956.3724,N,11624.1538,E,0.24,15.38,180812,,,A*5F
257,
$GPRMC,085651.000,A,3956.3724,N,11624.1538,E,0.23,47.07,180812,,,A*52
257,
$GPRMC,085652.000,A,3956.3725,N,11624.1538,E,0.27,18.04,180812,,,A*5D
256,
$GPRMC,085653.000,A,3956.3725,N,11624.1538,E,0.16,102.53,180812,,,A*66
256,
$GPRMC,085654.000,A,3956.3727,N,11624.1537,E,0.30,356.63,180812,,,A*68
255,
$GPRMC,085655.000,A,3956.3728,N,11624.1536,E,0.14,27.52,180812,,,A*56
255,
$GPRMC,085656.000,A,3956.3727,N,11624.1537,E,0.49,151.81,180812,,,A*6D
254,
$GPRMC,085657.000,A,3956.3725,N,11624.1538,E,0.17,126.12,180812,,,A*60
254,
$GPRMC,085658.000,A,3956.3724,N,11624.1539,E,0.18,48.22,180812,,,A*5A
254,
$GPRMC,085659.000,A,3956.3724,N,11624.1540,E,0.24,12.55,180812,,,A*55
253,
$GPRMC,085700.000,A,3956.3722,N,11624.1541,E,0.07,57.32,180812,,,A*5E
253,
$GPRMC,085701.000,A,3956.3721,N,11624.1542,E,0.05,29.54,180812,,,A*54
253,
$GPRMC,085702.000,A,3956.3719,N,11624.1543,E,0.47,142.71,180812,,,A*60
252,
$GPRMC,085703.000,A,3956.3718,N,11624.1544,E,0.10,42.24,180812,,,A*54
252,
$GPRMC,085704.000,A,3956.3717,N,11624.1545,E,0.19,28.47,180812,,,A*5D
252,
$GPRMC,085705.000,A,3956.3717,N,11624.1546,E,0.36,13.27,180812,,,A*5C
252,
$GPRMC,085706.000,A,3956.3716,N,11624.1547,E,0.37,11.88,180812,,,A*59
252,
$GPRMC,085707.000,A,3956.3716,N,11624.1548,E,0.18,31.77,180812,,,A*58
251,
$GPRMC,085708.000,A,3956.3715,N,11624.1549,E,0.15,19.02,180812,,,A*50
251,
$GPRMC,085709.000,A,3956.3715,N,11624.1549,E,0.23,3.78,180812,,,A*62
251,
$GPRMC,085710.000,A,3956.3713,N,11624.1550,E,0.10,118.02,180812,,,A*62
251,
$GPRMC,085711.000,A,3956.3712,N,11624.1551,E,0.26,151.22,180812,,,A*69
251,
$GPRMC,085712.000,A,3956.3711,N,11624.1552,E,0.24,141.79,180812,,,A*67
250,
$GPRMC,085713.000,A,3956.3710,N,11624.1553,E,0.10,88.98,180812,,,A*5A
250,
$GPRMC,085714.000,A,3956.3709,N,11624.1554,E,0.17,25.96,180812,,,A*5C
250,
$GPRMC,085715.000,A,3956.3709,N,11624.1554,E,0.22,21.30,180812,,,A*53
250,
$GPRMC,085716.000,A,3956.3709,N,11624.1555,E,0.15,136.85,180812,,,A*6C
250,
$GPRMC,085717.000,A,3956.3708,N,11624.1556,E,0.31,151.76,180812,,,A*64
250,
$GPRMC,085718.000,A,3956.3706,N,11624.1557,E,0.43,159.24,180812,,,A*6E
249,
$GPRMC,085719.000,A,3956.3704,N,11624.1558,E,0.48,159.42,180812,,,A*69
249,
$GPRMC,085720.000,A,3956.3701,N,11624.1559,E,0.27,146.09,180812,,,A*6F
249,
$GPRMC,085721.000,A,3956.3700,N,11624.1560,E,0.23,146.72,180812,,,A*6D
249,
$GPRMC,085722.000,A,3956.3698,N,11624.1561,E,0.21,145.40,180812,,,A*6F
249,
$GPRMC,085723.000,A,3956.3696,N,11624.1562,E,0.22,145.71,180812,,,A*62
249,
$GPRMC,085724.000,A,3956.3695,N,11624.1563,E,0.22,144.61,180812,,,A*67
248,
$GPRMC,085725.000,A,3956.3694,N,11624.1564,E,0.11,54.59,180812,,,A*5B
248,
$GPRMC,085726.000,A,3956.3693,N,11624.1564,E,0.16,40.84,180812,,,A*5D
248,
$GPRMC,085727.000,A,3956.3693,N,11624.1565,E,0.16,152.03,180812,,,A*60
248,
$GPRMC,085728.000,A,3956.3691,N,11624.1566,E,0.40,165.03,180812,,,A*69
249,
$GPRMC,085729.000,A,3956.3691,N,11624.1566,E,0.13,27.41,180812,,,A*5F
250,
$GPRMC,085730.000,A,3956.3690,N,11624.1567,E,0.13,107.46,180812,,,A*63
251,
$GPRMC,085731.000,A,3956.3689,N,11624.1567,E,0.14,145.25,180812,,,A*6E
251,
$GPRMC,085732.000,A,3956.3688,N,11624.1567,E,0.11,99.90,180812,,,A*57
257,
$GPRMC,085733.000,A,3956.3686,N,11624.1568,E,0.27,159.60,180812,,,A*60
262,
$GPRMC,085734.000,A,3956.3686,N,11624.1568,E,0.27,161.45,180812,,,A*6B
262,
$GPRMC,085735.000,A,3956.3685,N,11624.1568,E,0.13,127.70,180812,,,A*6A
262,
$GPRMC,085736.000,A,3956.3685,N,11624.1568,E,0.10,61.99,180812,,,A*5E
261,
$GPRMC,085737.000,A,3956.3685,N,11624.1568,E,0.13,50.08,180812,,,A*56
261,
$GPRMC,085738.000,A,3956.3686,N,11624.1567,E,0.21,21.20,180812,,,A*58
260,
$GPRMC,085739.000,A,3956.3686,N,11624.1568,E,0.05,88.34,180812,,,A*56
262,
$GPRMC,085740.000,A,3956.3686,N,11624.1568,E,0.17,168.06,180812,,,A*65
262,
$GPRMC,085741.000,A,3956.3686,N,11624.1568,E,0.14,97.12,180812,,,A*53
263,
$GPRMC,085742.000,A,3956.3685,N,11624.1568,E,0.60,164.05,180812,,,A*6B
263,
$GPRMC,085743.000,A,3956.3684,N,11624.1568,E,0.40,170.66,180812,,,A*69
264,
$GPRMC,085744.000,A,3956.3685,N,11624.1566,E,0.28,307.70,180812,,,A*6A
265,
$GPRMC,085745.000,A,3956.3687,N,11624.1565,E,0.22,20.78,180812,,,A*5E
266,
$GPRMC,085746.000,A,3956.3688,N,11624.1564,E,0.61,342.63,180812,,,A*69
269,
$GPRMC,085747.000,A,3956.3691,N,11624.1562,E,0.22,343.99,180812,,,A*65
272,
$GPRMC,085748.000,A,3956.3691,N,11624.1562,E,0.10,82.39,180812,,,A*5F
274,
$GPRMC,085749.000,A,3956.3688,N,11624.1564,E,0.38,122.10,180812,,,A*6A
276,
$GPRMC,085750.000,A,3956.3688,N,11624.1564,E,0.20,331.61,180812,,,A*6D
277,
$GPRMC,085751.000,A,3956.3690,N,11624.1563,E,0.33,351.03,180812,,,A*62
278,
$GPRMC,085752.000,A,3956.3692,N,11624.1562,E,0.18,10.98,180812,,,A*5F
278,
$GPRMC,085753.000,A,3956.3694,N,11624.1560,E,0.52,343.27,180812,,,A*65
277,
$GPRMC,085754.000,A,3956.3698,N,11624.1558,E,1.43,342.56,180812,,,A*63
276,
$GPRMC,085755.000,A,3956.3703,N,11624.1555,E,1.20,340.82,180812,,,A*62
275,
$GPRMC,085756.000,A,3956.3707,N,11624.1552,E,0.99,338.06,180812,,,A*62
274,
$GPRMC,085757.000,A,3956.3710,N,11624.1550,E,1.46,337.95,180812,,,A*61
274,
$GPRMC,085758.000,A,3956.3710,N,11624.1550,E,0.78,344.16,180812,,,A*6D
274,
$GPRMC,085759.000,A,3956.3710,N,11624.1549,E,0.26,77.34,180812,,,A*5C
274,
$GPRMC,085800.000,A,3956.3706,N,11624.1552,E,0.13,78.71,180812,,,A*5A
273,
$GPRMC,085801.000,A,3956.3702,N,11624.1555,E,0.14,42.48,180812,,,A*5C
272,
$GPRMC,085802.000,A,3956.3698,N,11624.1556,E,0.11,5.66,180812,,,A*64
272,
$GPRMC,085803.000,A,3956.3695,N,11624.1558,E,0.19,350.21,180812,,,A*6E
271,
$GPRMC,085804.000,A,3956.3695,N,11624.1557,E,0.06,115.35,180812,,,A*6E
271,
$GPRMC,085805.000,A,3956.3690,N,11624.1560,E,0.30,152.07,180812,,,A*69
270,
$GPRMC,085806.000,A,3956.3690,N,11624.1559,E,0.02,188.10,180812,,,A*60
270,
$GPRMC,085807.000,A,3956.3690,N,11624.1559,E,0.15,357.51,180812,,,A*62
270,
$GPRMC,085808.000,A,3956.3690,N,11624.1558,E,0.11,100.48,180812,,,A*60
269,
$GPRMC,085809.000,A,3956.3692,N,11624.1556,E,0.17,319.60,180812,,,A*6B
269,
$GPRMC,085810.000,A,3956.3694,N,11624.1555,E,0.36,342.23,180812,,,A*6C
268,
$GPRMC,085811.000,A,3956.3692,N,11624.1555,E,0.05,56.23,180812,,,A*5D
268,
$GPRMC,085812.000,A,3956.3691,N,11624.1555,E,0.20,345.71,180812,,,A*6C
267,
$GPRMC,085813.000,A,3956.3691,N,11624.1555,E,0.12,355.90,180812,,,A*62
267,
$GPRMC,085814.000,A,3956.3693,N,11624.1554,E,0.69,336.17,180812,,,A*60
266,
$GPRMC,085815.000,A,3956.3694,N,11624.1554,E,0.52,339.97,180812,,,A*69
266,
$GPRMC,085816.000,A,3956.3694,N,11624.1554,E,0.31,338.81,180812,,,A*69
266,
$GPRMC,085817.000,A,3956.3693,N,11624.1555,E,0.45,345.02,180812,,,A*6C
266,
$GPRMC,085818.000,A,3956.3691,N,11624.1558,E,0.37,91.93,180812,,,A*5B
266,
$GPRMC,085819.000,A,3956.3690,N,11624.1559,E,0.26,125.30,180812,,,A*6D
266,
$GPRMC,085820.000,A,3956.3691,N,11624.1559,E,0.24,302.17,180812,,,A*66
266,
$GPRMC,085821.000,A,3956.3690,N,11624.1558,E,0.23,156.65,180812,,,A*66
267,
$GPRMC,085822.000,A,3956.3688,N,11624.1559,E,0.55,176.57,180812,,,A*6F
268,
$GPRMC,085823.000,A,3956.3687,N,11624.1559,E,0.60,170.82,180812,,,A*69
267,
$GPRMC,085824.000,A,3956.3691,N,11624.1556,E,0.59,306.71,180812,,,A*63
267,
$GPRMC,085825.000,A,3956.3691,N,11624.1554,E,0.87,261.94,180812,,,A*68
266,
$GPRMC,085826.000,A,3956.3693,N,11624.1551,E,0.35,215.33,180812,,,A*6B
266,
$GPRMC,085827.000,A,3956.3695,N,11624.1549,E,0.33,212.19,180812,,,A*6C
266,
$GPRMC,085828.000,A,3956.3697,N,11624.1546,E,1.08,267.91,180812,,,A*65
266,
$GPRMC,085829.000,A,3956.3698,N,11624.1539,E,1.67,274.67,180812,,,A*61
266,
$GPRMC,085830.000,A,3956.3701,N,11624.1531,E,1.92,280.72,180812,,,A*65
266,
$GPRMC,085831.000,A,3956.3702,N,11624.1524,E,1.39,290.86,180812,,,A*68
266,
$GPRMC,085832.000,A,3956.3704,N,11624.1518,E,1.34,298.24,180812,,,A*6F
266,
$GPRMC,085833.000,A,3956.3707,N,11624.1513,E,1.19,317.18,180812,,,A*60
265,
$GPRMC,085834.000,A,3956.3709,N,11624.1510,E,0.48,257.99,180812,,,A*63
265,
$GPRMC,085835.000,A,3956.3709,N,11624.1509,E,0.76,175.85,180812,,,A*69
265,
$GPRMC,085836.000,A,3956.3709,N,11624.1507,E,0.07,241.72,180812,,,A*6E
265,
$GPRMC,085837.000,A,3956.3713,N,11624.1505,E,0.35,156.28,180812,,,A*6D
265,
$GPRMC,085838.000,A,3956.3714,N,11624.1503,E,0.08,244.29,180812,,,A*6C
265,
$GPRMC,085839.000,A,3956.3715,N,11624.1502,E,0.39,333.90,180812,,,A*6C
264,
$GPRMC,085840.000,A,3956.3719,N,11624.1499,E,0.60,327.23,180812,,,A*6C
264,
$GPRMC,085841.000,A,3956.3721,N,11624.1498,E,0.03,152.34,180812,,,A*64
263,
$GPRMC,085842.000,A,3956.3722,N,11624.1497,E,0.47,354.56,180812,,,A*6B
263,
$GPRMC,085843.000,A,3956.3723,N,11624.1498,E,0.20,115.79,180812,,,A*6F
263,
$GPRMC,085844.000,A,3956.3722,N,11624.1498,E,0.40,150.75,180812,,,A*62
263,
$GPRMC,085845.000,A,3956.3722,N,11624.1499,E,0.42,354.28,180812,,,A*6E
262,
$GPRMC,085846.000,A,3956.3721,N,11624.1501,E,0.26,14.56,180812,,,A*52
262,
$GPRMC,085847.000,A,3956.3721,N,11624.1502,E,0.49,138.22,180812,,,A*65
262,
$GPRMC,085848.000,A,3956.3720,N,11624.1502,E,0.61,333.19,180812,,,A*60
262,
$GPRMC,085849.000,A,3956.3723,N,11624.1500,E,0.74,330.62,180812,,,A*6B
262,
$GPRMC,085850.000,A,3956.3725,N,11624.1499,E,1.02,334.21,180812,,,A*67
261,
$GPRMC,085851.000,A,3956.3725,N,11624.1498,E,0.52,329.54,180812,,,A*6D
261,
$GPRMC,085852.000,A,3956.3724,N,11624.1498,E,0.09,335.27,180812,,,A*68
262,
$GPRMC,085853.000,A,3956.3721,N,11624.1500,E,0.95,145.16,180812,,,A*6E
262,
$GPRMC,085854.000,A,3956.3715,N,11624.1504,E,0.99,143.71,180812,,,A*61
262,
$GPRMC,085855.000,A,3956.3710,N,11624.1507,E,0.84,155.92,180812,,,A*60
262,
$GPRMC,085856.000,A,3956.3706,N,11624.1508,E,0.03,262.73,180812,,,A*6C
262,
$GPRMC,085857.000,A,3956.3704,N,11624.1509,E,0.39,164.27,180812,,,A*63
262,
$GPRMC,085858.000,A,3956.3701,N,11624.1510,E,0.60,155.95,180812,,,A*66
262,
$GPRMC,085859.000,A,3956.3698,N,11624.1510,E,0.22,216.76,180812,,,A*69
262,
$GPRMC,085900.000,A,3956.3695,N,11624.1511,E,0.56,143.83,180812,,,A*62
262,
$GPRMC,085901.000,A,3956.3692,N,11624.1512,E,0.54,156.93,180812,,,A*60
262,
$GPRMC,085902.000,A,3956.3689,N,11624.1514,E,0.46,153.56,180812,,,A*60
262,
$GPRMC,085903.000,A,3956.3686,N,11624.1516,E,0.57,156.16,180812,,,A*6D
261,
$GPRMC,085904.000,A,3956.3683,N,11624.1518,E,0.63,157.33,180812,,,A*60
260,
$GPRMC,085905.000,A,3956.3680,N,11624.1520,E,0.38,136.10,180812,,,A*61
260,
$GPRMC,085906.000,A,3956.3679,N,11624.1521,E,0.32,151.81,180812,,,A*66
259,
$GPRMC,085907.000,A,3956.3678,N,11624.1522,E,0.16,126.40,180812,,,A*6E
259,
$GPRMC,085908.000,A,3956.3676,N,11624.1523,E,0.19,147.67,180812,,,A*63
258,
$GPRMC,085909.000,A,3956.3676,N,11624.1523,E,0.29,145.35,180812,,,A*64
257,
$GPRMC,085910.000,A,3956.3675,N,11624.1524,E,0.32,137.98,180812,,,A*60
257,
$GPRMC,085911.000,A,3956.3674,N,11624.1524,E,0.30,138.99,180812,,,A*6C
256,
$GPRMC,085912.000,A,3956.3672,N,11624.1526,E,0.35,137.36,180812,,,A*64
256,
$GPRMC,085913.000,A,3956.3675,N,11624.1523,E,0.24,339.86,180812,,,A*60
255,
$GPRMC,085914.000,A,3956.3680,N,11624.1517,E,1.67,290.92,180812,,,A*6B
255,
$GPRMC,085915.000,A,3956.3683,N,11624.1510,E,1.47,268.80,180812,,,A*68
254,
$GPRMC,085916.000,A,3956.3684,N,11624.1505,E,0.94,234.14,180812,,,A*63
253,
$GPRMC,085917.000,A,3956.3686,N,11624.1500,E,1.21,263.64,180812,,,A*6F
253,
$GPRMC,085918.000,A,3956.3687,N,11624.1494,E,1.34,244.49,180812,,,A*63
252,
$GPRMC,085919.000,A,3956.3687,N,11624.1490,E,0.56,259.18,180812,,,A*6B
252,
$GPRMC,085920.000,A,3956.3688,N,11624.1486,E,0.78,239.20,180812,,,A*68
252,
$GPRMC,085921.000,A,3956.3690,N,11624.1484,E,0.26,114.82,180812,,,A*6D
252,
$GPRMC,085922.000,A,3956.3691,N,11624.1483,E,0.25,143.22,180812,,,A*63
251,
$GPRMC,085923.000,A,3956.3692,N,11624.1482,E,0.92,143.33,180812,,,A*6C
251,
$GPRMC,085924.000,A,3956.3691,N,11624.1483,E,0.59,142.33,180812,,,A*6F
251,
$GPRMC,085925.000,A,3956.3691,N,11624.1483,E,0.38,161.83,180812,,,A*63
251,
$GPRMC,085926.000,A,3956.3693,N,11624.1481,E,0.28,318.39,180812,,,A*6C
251,
$GPRMC,085927.000,A,3956.3697,N,11624.1477,E,0.37,339.97,180812,,,A*69
250,
$GPRMC,085928.000,A,3956.3699,N,11624.1476,E,0.18,62.94,180812,,,A*5A
250,
$GPRMC,085929.000,A,3956.3702,N,11624.1474,E,0.21,24.21,180812,,,A*5C
250,
$GPRMC,085930.000,A,3956.3705,N,11624.1472,E,0.08,15.78,180812,,,A*50
250,
$GPRMC,085931.000,A,3956.3710,N,11624.1469,E,0.45,349.55,180812,,,A*63
250,
$GPRMC,085932.000,A,3956.3712,N,11624.1467,E,0.25,4.29,180812,,,A*6B
249,
$GPRMC,085933.000,A,3956.3710,N,11624.1468,E,0.61,189.17,180812,,,A*6E
249,
$GPRMC,085934.000,A,3956.3709,N,11624.1464,E,2.05,261.53,180812,,,A*68
249,
$GPRMC,085935.000,A,3956.3711,N,11624.1454,E,2.07,277.92,180812,,,A*6B
249,
$GPRMC,085936.000,A,3956.3714,N,11624.1447,E,1.54,301.67,180812,,,A*60
249,
$GPRMC,085937.000,A,3956.3715,N,11624.1441,E,2.10,269.45,180812,,,A*6A
248,
$GPRMC,085938.000,A,3956.3714,N,11624.1435,E,1.88,255.21,180812,,,A*68
248,
$GPRMC,085939.000,A,3956.3714,N,11624.1427,E,2.44,249.03,180812,,,A*64
248,
$GPRMC,085940.000,A,3956.3714,N,11624.1417,E,2.31,264.12,180812,,,A*64
248,
$GPRMC,085941.000,A,3956.3710,N,11624.1410,E,2.65,234.37,180812,,,A*65
248,
$GPRMC,085942.000,A,3956.3705,N,11624.1402,E,2.78,240.90,180812,,,A*63
248,
$GPRMC,085943.000,A,3956.3702,N,11624.1392,E,3.02,249.64,180812,,,A*65
247,
$GPRMC,085944.000,A,3956.3697,N,11624.1383,E,2.97,248.16,180812,,,A*66
246,
$GPRMC,085945.000,A,3956.3693,N,11624.1372,E,3.43,251.60,180812,,,A*6C
245,
$GPRMC,085946.000,A,3956.3689,N,11624.1362,E,3.31,259.75,180812,,,A*6C
245,
$GPRMC,085947.000,A,3956.3684,N,11624.1352,E,3.54,253.90,180812,,,A*61
244,
$GPRMC,085948.000,A,3956.3679,N,11624.1342,E,3.08,238.34,180812,,,A*67
245,
$GPRMC,085949.000,A,3956.3676,N,11624.1332,E,3.30,244.97,180812,,,A*67
244,
$GPRMC,085950.000,A,3956.3671,N,11624.1321,E,3.08,238.24,180812,,,A*62
244,
$GPRMC,085951.000,A,3956.3667,N,11624.1312,E,2.99,249.44,180812,,,A*6D
244,
$GPRMC,085952.000,A,3956.3665,N,11624.1300,E,3.26,247.98,180812,,,A*65
245,
$GPRMC,085953.000,A,3956.3663,N,11624.1289,E,3.19,254.77,180812,,,A*6D
246,
$GPRMC,085954.000,A,3956.3662,N,11624.1276,E,3.55,261.12,180812,,,A*66
247,
$GPRMC,085955.000,A,3956.3661,N,11624.1263,E,3.27,267.10,180812,,,A*61
245,
$GPRMC,085956.000,A,3956.3664,N,11624.1251,E,3.34,290.02,180812,,,A*6F
243,
$GPRMC,085957.000,A,3956.3667,N,11624.1237,E,3.56,279.18,180812,,,A*65
241,
$GPRMC,085958.000,A,3956.3666,N,11624.1222,E,4.25,260.66,180812,,,A*6D
240,
$GPRMC,085959.000,A,3956.3664,N,11624.1206,E,4.39,261.29,180812,,,A*6F
239,
$GPRMC,090000.000,A,3956.3663,N,11624.1188,E,4.55,270.44,180812,,,A*6D
239,
$GPRMC,090001.000,A,3956.3665,N,11624.1166,E,4.87,272.54,180812,,,A*66
240,
$GPRMC,090002.000,A,3956.3666,N,11624.1147,E,4.62,266.52,180812,,,A*6D
240,
$GPRMC,090003.000,A,3956.3666,N,11624.1128,E,4.79,267.16,180812,,,A*6E
240,
$GPRMC,090004.000,A,3956.3669,N,11624.1107,E,5.12,268.60,180812,,,A*69
240,
$GPRMC,090005.000,A,3956.3670,N,11624.1085,E,4.82,260.91,180812,,,A*65
240,
$GPRMC,090006.000,A,3956.3670,N,11624.1066,E,4.77,257.35,180812,,,A*6B
242,
$GPRMC,090007.000,A,3956.3670,N,11624.1046,E,4.81,254.06,180812,,,A*62
244,
$GPRMC,090008.000,A,3956.3669,N,11624.1026,E,4.56,260.01,180812,,,A*69
244,
$GPRMC,090009.000,A,3956.3667,N,11624.1006,E,4.87,266.60,180812,,,A*69
245,
$GPRMC,090010.000,A,3956.3667,N,11624.0985,E,4.66,257.74,180812,,,A*6A
245,
$GPRMC,090011.000,A,3956.3667,N,11624.0964,E,5.13,262.49,180812,,,A*6F
246,
$GPRMC,090012.000,A,3956.3668,N,11624.0942,E,5.32,262.95,180812,,,A*65
248,
$GPRMC,090013.000,A,3956.3670,N,11624.0919,E,5.41,260.33,180812,,,A*69
249,
$GPRMC,090014.000,A,3956.3672,N,11624.0896,E,5.52,270.69,180812,,,A*66
249,
$GPRMC,090015.000,A,3956.3678,N,11624.0871,E,6.00,275.18,180812,,,A*63
250,
$GPRMC,090016.000,A,3956.3679,N,11624.0848,E,5.99,271.98,180812,,,A*64
251,
$GPRMC,090017.000,A,3956.3683,N,11624.0823,E,6.11,277.31,180812,,,A*6B
251,
$GPRMC,090018.000,A,3956.3684,N,11624.0801,E,5.74,264.81,180812,,,A*6A
252,
$GPRMC,090019.000,A,3956.3682,N,11624.0779,E,5.61,267.54,180812,,,A*62
252,
$GPRMC,090020.000,A,3956.3680,N,11624.0759,E,4.71,266.16,180812,,,A*6F
252,
$GPRMC,090021.000,A,3956.3678,N,11624.0740,E,5.41,253.53,180812,,,A*64
253,
$GPRMC,090022.000,A,3956.3675,N,11624.0720,E,5.20,250.54,180812,,,A*6F
253,
$GPRMC,090023.000,A,3956.3675,N,11624.0697,E,5.78,262.47,180812,,,A*6D
254,
$GPRMC,090024.000,A,3956.3675,N,11624.0675,E,4.91,261.34,180812,,,A*67
256,
$GPRMC,090025.000,A,3956.3673,N,11624.0658,E,3.99,252.52,180812,,,A*60
257,
$GPRMC,090026.000,A,3956.3672,N,11624.0641,E,3.87,256.89,180812,,,A*67
258,
$GPRMC,090027.000,A,3956.3670,N,11624.0626,E,3.54,253.35,180812,,,A*69
258,
$GPRMC,090028.000,A,3956.3670,N,11624.0609,E,4.35,258.10,180812,,,A*67
258,
$GPRMC,090029.000,A,3956.3670,N,11624.0590,E,4.81,268.10,180812,,,A*69
257,
$GPRMC,090030.000,A,3956.3670,N,11624.0569,E,5.30,268.46,180812,,,A*6F
256,
$GPRMC,090031.000,A,3956.3671,N,11624.0546,E,5.43,263.15,180812,,,A*6B
256,
$GPRMC,090032.000,A,3956.3670,N,11624.0525,E,4.97,253.71,180812,,,A*65
256,
$GPRMC,090033.000,A,3956.3664,N,11624.0506,E,4.89,244.78,180812,,,A*60
255,
$GPRMC,090034.000,A,3956.3661,N,11624.0486,E,5.11,248.78,180812,,,A*67
253,
$GPRMC,090035.000,A,3956.3657,N,11624.0467,E,5.12,249.25,180812,,,A*66
253,
$GPRMC,090036.000,A,3956.3653,N,11624.0448,E,5.20,250.29,180812,,,A*69
252,
$GPRMC,090037.000,A,3956.3651,N,11624.0427,E,5.27,255.26,180812,,,A*6E
251,
$GPRMC,090038.000,A,3956.3649,N,11624.0406,E,5.28,255.91,180812,,,A*68
251,
$GPRMC,090039.000,A,3956.3649,N,11624.0382,E,5.74,266.14,180812,,,A*66
251,
$GPRMC,090040.000,A,3956.3651,N,11624.0357,E,5.55,265.57,180812,,,A*6E
252,
$GPRMC,090041.000,A,3956.3651,N,11624.0337,E,4.77,259.86,180812,,,A*6B
254,
$GPRMC,090042.000,A,3956.3654,N,11624.0319,E,3.39,264.01,180812,,,A*6D
256,
$GPRMC,090043.000,A,3956.3653,N,11624.0305,E,2.76,265.55,180812,,,A*6C
257,
$GPRMC,090044.000,A,3956.3650,N,11624.0295,E,2.82,252.20,180812,,,A*6D
258,
$GPRMC,090045.000,A,3956.3647,N,11624.0284,E,3.08,245.75,180812,,,A*6F
258,
$GPRMC,090046.000,A,3956.3646,N,11624.0272,E,2.97,275.71,180812,,,A*64
258,
$GPRMC,090047.000,A,3956.3647,N,11624.0259,E,3.47,264.89,180812,,,A*66
259,
$GPRMC,090048.000,A,3956.3644,N,11624.0243,E,4.03,258.88,180812,,,A*68
259,
$GPRMC,090049.000,A,3956.3644,N,11624.0226,E,4.50,254.89,180812,,,A*61
259,
$GPRMC,090050.000,A,3956.3641,N,11624.0208,E,4.74,250.83,180812,,,A*68
259,
$GPRMC,090051.000,A,3956.3637,N,11624.0187,E,5.05,259.09,180812,,,A*60
260,
$GPRMC,090052.000,A,3956.3636,N,11624.0168,E,4.90,265.06,180812,,,A*6E
258,
$GPRMC,090053.000,A,3956.3635,N,11624.0146,E,5.19,261.48,180812,,,A*6E
257,
$GPRMC,090054.000,A,3956.3636,N,11624.0125,E,4.96,251.72,180812,,,A*63
258,
$GPRMC,090055.000,A,3956.3635,N,11624.0104,E,5.37,263.25,180812,,,A*6B
257,
$GPRMC,090056.000,A,3956.3638,N,11624.0078,E,5.85,261.56,180812,,,A*60
258,
$GPRMC,090057.000,A,3956.3635,N,11624.0056,E,5.46,255.70,180812,,,A*6C
258,
$GPRMC,090058.000,A,3956.3635,N,11624.0033,E,5.52,258.57,180812,,,A*6D
259,
$GPRMC,090059.000,A,3956.3634,N,11624.0010,E,5.98,260.34,180812,,,A*64
260,
$GPRMC,090100.000,A,3956.3636,N,11623.9985,E,5.81,261.36,180812,,,A*6B
260,
$GPRMC,090101.000,A,3956.3635,N,11623.9962,E,5.46,258.78,180812,,,A*6B
261,
$GPRMC,090102.000,A,3956.3633,N,11623.9939,E,5.44,253.58,180812,,,A*6B
261,
$GPRMC,090103.000,A,3956.3633,N,11623.9918,E,5.25,256.56,180812,,,A*65
262,
$GPRMC,090104.000,A,3956.3634,N,11623.9896,E,5.08,257.05,180812,,,A*6A
262,
$GPRMC,090105.000,A,3956.3638,N,11623.9874,E,4.93,257.49,180812,,,A*60
262,
$GPRMC,090106.000,A,3956.3636,N,11623.9856,E,4.69,258.86,180812,,,A*64
262,
$GPRMC,090107.000,A,3956.3636,N,11623.9838,E,4.31,259.71,180812,,,A*69
262,
$GPRMC,090108.000,A,3956.3637,N,11623.9819,E,4.51,260.43,180812,,,A*69
262,
$GPRMC,090109.000,A,3956.3639,N,11623.9799,E,4.97,265.63,180812,,,A*6C
261,
$GPRMC,090110.000,A,3956.3641,N,11623.9777,E,5.35,265.43,180812,,,A*60
259,
$GPRMC,090111.000,A,3956.3642,N,11623.9755,E,5.36,265.92,180812,,,A*6D
259,
$GPRMC,090112.000,A,3956.3641,N,11623.9734,E,5.21,256.54,180812,,,A*66
258,
$GPRMC,090113.000,A,3956.3643,N,11623.9712,E,5.02,264.31,180812,,,A*62
257,
$GPRMC,090114.000,A,3956.3641,N,11623.9692,E,5.19,254.88,180812,,,A*65
256,
$GPRMC,090115.000,A,3956.3639,N,11623.9671,E,5.10,254.70,180812,,,A*68
256,
$GPRMC,090116.000,A,3956.3637,N,11623.9651,E,4.73,254.83,180812,,,A*6F
257,
$GPRMC,090117.000,A,3956.3639,N,11623.9632,E,4.47,263.11,180812,,,A*6D
257,
$GPRMC,090118.000,A,3956.3641,N,11623.9612,E,4.56,265.22,180812,,,A*69
258,
$GPRMC,090119.000,A,3956.3642,N,11623.9595,E,4.14,267.21,180812,,,A*60
258,
$GPRMC,090120.000,A,3956.3643,N,11623.9577,E,3.95,267.17,180812,,,A*6C
259,
$GPRMC,090121.000,A,3956.3645,N,11623.9560,E,3.85,255.52,180812,,,A*6C
260,
$GPRMC,090122.000,A,3956.3643,N,11623.9545,E,3.88,254.66,180812,,,A*65
260,
$GPRMC,090123.000,A,3956.3639,N,11623.9531,E,3.62,246.74,180812,,,A*6E
261,
$GPRMC,090124.000,A,3956.3638,N,11623.9516,E,3.89,255.39,180812,,,A*63
263,
$GPRMC,090125.000,A,3956.3639,N,11623.9500,E,3.63,259.64,180812,,,A*64
265,
$GPRMC,090126.000,A,3956.3640,N,11623.9486,E,3.16,266.08,180812,,,A*62
268,
$GPRMC,090127.000,A,3956.3642,N,11623.9473,E,2.85,270.47,180812,,,A*6C
269,
$GPRMC,090128.000,A,3956.3646,N,11623.9459,E,3.27,273.49,180812,,,A*6B
270,
$GPRMC,090129.000,A,3956.3651,N,11623.9445,E,3.00,278.66,180812,,,A*62
270,
$GPRMC,090130.000,A,3956.3655,N,11623.9436,E,1.21,310.53,180812,,,A*62
270,
$GPRMC,090131.000,A,3956.3658,N,11623.9432,E,0.29,356.10,180812,,,A*66
270,
$GPRMC,090132.000,A,3956.3661,N,11623.9429,E,0.08,234.88,180812,,,A*62
270,
$GPRMC,090133.000,A,3956.3664,N,11623.9425,E,0.06,59.80,180812,,,A*55
269,
$GPRMC,090134.000,A,3956.3666,N,11623.9423,E,0.24,161.36,180812,,,A*61
269,
$GPRMC,090135.000,A,3956.3669,N,11623.9420,E,0.45,320.79,180812,,,A*67
268,
$GPRMC,090136.000,A,3956.3673,N,11623.9418,E,0.42,318.50,180812,,,A*63
268,
$GPRMC,090137.000,A,3956.3676,N,11623.9415,E,0.26,356.16,180812,,,A*60
268,
$GPRMC,090138.000,A,3956.3677,N,11623.9412,E,0.45,291.12,180812,,,A*62
269,
$GPRMC,090139.000,A,3956.3678,N,11623.9409,E,0.27,256.28,180812,,,A*60
269,
$GPRMC,090140.000,A,3956.3679,N,11623.9407,E,0.30,19.43,180812,,,A*53
269,
$GPRMC,090141.000,A,3956.3680,N,11623.9408,E,0.81,72.87,180812,,,A*54
268,
$GPRMC,090142.000,A,3956.3682,N,11623.9408,E,0.39,69.38,180812,,,A*58
268,
$GPRMC,090143.000,A,3956.3684,N,11623.9406,E,0.10,80.32,180812,,,A*57
269,
$GPRMC,090144.000,A,3956.3686,N,11623.9404,E,0.31,282.78,180812,,,A*6D
269,
$GPRMC,090145.000,A,3956.3687,N,11623.9400,E,0.10,335.83,180812,,,A*63
270,
$GPRMC,090146.000,A,3956.3688,N,11623.9398,E,0.31,248.56,180812,,,A*69
270,
$GPRMC,090147.000,A,3956.3689,N,11623.9396,E,0.34,213.38,180812,,,A*64
270,
$GPRMC,090148.000,A,3956.3690,N,11623.9393,E,0.51,306.91,180812,,,A*63
270,
$GPRMC,090149.000,A,3956.3692,N,11623.9392,E,0.02,326.07,180812,,,A*6A
270,
$GPRMC,090150.000,A,3956.3693,N,11623.9391,E,0.13,62.31,180812,,,A*56
269,
$GPRMC,090151.000,A,3956.3693,N,11623.9392,E,0.37,110.99,180812,,,A*64
269,
$GPRMC,090152.000,A,3956.3694,N,11623.9391,E,0.33,328.56,180812,,,A*6D
269,
$GPRMC,090153.000,A,3956.3695,N,11623.9390,E,0.28,336.92,180812,,,A*61
269,
$GPRMC,090154.000,A,3956.3696,N,11623.9389,E,0.09,198.61,180812,,,A*64
269,
$GPRMC,090155.000,A,3956.3696,N,11623.9389,E,0.57,117.30,180812,,,A*6D
269,
$GPRMC,090156.000,A,3956.3696,N,11623.9389,E,0.36,92.52,180812,,,A*51
269,
$GPRMC,090157.000,A,3956.3696,N,11623.9388,E,0.11,260.91,180812,,,A*64
268,
$GPRMC,090158.000,A,3956.3697,N,11623.9386,E,0.22,143.07,180812,,,A*69
268,
$GPRMC,090159.000,A,3956.3697,N,11623.9384,E,0.41,301.71,180812,,,A*6A
268,
$GPRMC,090200.000,A,3956.3698,N,11623.9381,E,0.41,341.70,180812,,,A*6A
267,
$GPRMC,090201.000,A,3956.3700,N,11623.9380,E,0.31,342.02,180812,,,A*6B
267,
$GPRMC,090202.000,A,3956.3701,N,11623.9379,E,0.10,216.17,180812,,,A*68
266,
$GPRMC,090203.000,A,3956.3701,N,11623.9379,E,0.34,122.01,180812,,,A*6C
266,
$GPRMC,090204.000,A,3956.3702,N,11623.9379,E,0.47,332.16,180812,,,A*69
266,
$GPRMC,090205.000,A,3956.3704,N,11623.9378,E,0.24,296.19,180812,,,A*6A
265,
$GPRMC,090206.000,A,3956.3704,N,11623.9377,E,0.14,343.32,180812,,,A*65
265,
$GPRMC,090207.000,A,3956.3704,N,11623.9376,E,0.27,359.19,180812,,,A*67
264,
$GPRMC,090208.000,A,3956.3704,N,11623.9374,E,0.35,284.31,180812,,,A*62
264,
$GPRMC,090209.000,A,3956.3705,N,11623.9374,E,0.02,130.68,180812,,,A*66
264,
$GPRMC,090210.000,A,3956.3705,N,11623.9372,E,0.37,256.12,180812,,,A*60
264,
$GPRMC,090211.000,A,3956.3706,N,11623.9372,E,0.09,325.11,180812,,,A*69
263,
$GPRMC,090212.000,A,3956.3706,N,11623.9373,E,0.35,59.45,180812,,,A*5D
263,
$GPRMC,090213.000,A,3956.3707,N,11623.9375,E,0.10,147.51,180812,,,A*67
263,
$GPRMC,090214.000,A,3956.3708,N,11623.9377,E,0.30,55.37,180812,,,A*5D
262,
$GPRMC,090215.000,A,3956.3709,N,11623.9378,E,0.06,213.99,180812,,,A*63
261,
$GPRMC,090216.000,A,3956.3709,N,11623.9379,E,0.05,102.03,180812,,,A*62
261,
$GPRMC,090217.000,A,3956.3709,N,11623.9380,E,0.33,211.06,180812,,,A*64
261,
$GPRMC,090218.000,A,3956.3709,N,11623.9379,E,0.28,215.36,180812,,,A*60
261,
$GPRMC,090219.000,A,3956.3709,N,11623.9378,E,0.09,277.18,180812,,,A*6B
260,
$GPRMC,090220.000,A,3956.3709,N,11623.9379,E,0.43,156.10,180812,,,A*66
260,
