$GPRMC,081517.000,A,3956.0340,N,11622.4061,E,0.14,27.63,180812,,,A*58
226,
$GPRMC,081518.000,A,3956.0375,N,11622.4049,E,0.46,5.83,180812,,,A*62
227,
$GPRMC,081519.000,A,3956.0403,N,11622.4061,E,0.21,132.12,180812,,,A*63
227,
$GPRMC,081520.000,A,3956.0398,N,11622.4071,E,0.28,166.31,180812,,,A*64
227,
$GPRMC,081521.000,A,3956.0407,N,11622.4066,E,0.11,339.42,180812,,,A*64
228,
$GPRMC,081522.000,A,3956.0408,N,11622.4071,E,0.29,46.92,180812,,,A*53
228,
$GPRMC,081523.000,A,3956.0410,N,11622.4070,E,0.22,22.72,180812,,,A*5D
228,
$GPRMC,081524.000,A,3956.0408,N,11622.4075,E,0.08,239.31,180812,,,A*61
228,
$GPRMC,081525.000,A,3956.0404,N,11622.4075,E,0.40,216.64,180812,,,A*6D
228,
$GPRMC,081526.000,A,3956.0399,N,11622.4073,E,0.15,31.36,180812,,,A*5B
228,
$GPRMC,081527.000,A,3956.0397,N,11622.4071,E,0.13,46.07,180812,,,A*52
228,
$GPRMC,081528.000,A,3956.0397,N,11622.4070,E,0.13,59.67,180812,,,A*54
228,
$GPRMC,081529.000,A,3956.0396,N,11622.4068,E,0.09,186.78,180812,,,A*6B
228,
$GPRMC,081530.000,A,3956.0395,N,11622.4067,E,0.14,63.14,180812,,,A*53
229,
$GPRMC,081531.000,A,3956.0395,N,11622.4067,E,0.14,134.20,180812,,,A*66
229,
$GPRMC,081532.000,A,3956.0395,N,11622.4066,E,0.12,92.87,180812,,,A*52
228,
$GPRMC,081533.000,A,3956.0395,N,11622.4066,E,0.07,136.53,180812,,,A*61
228,
$GPRMC,081534.000,A,3956.0395,N,11622.4066,E,0.14,127.60,180812,,,A*64
228,
$GPRMC,081535.000,A,3956.0395,N,11622.4065,E,0.14,139.95,180812,,,A*63
227,
$GPRMC,081536.000,A,3956.0395,N,11622.4064,E,0.13,58.24,180812,,,A*5A
227,
$GPRMC,081537.000,A,3956.0395,N,11622.4064,E,0.11,97.03,180812,,,A*5F
227,
$GPRMC,081538.000,A,3956.0396,N,11622.4064,E,0.13,68.47,180812,,,A*51
227,
$GPRMC,081539.000,A,3956.0396,N,11622.4065,E,0.27,168.74,180812,,,A*67
227,
$GPRMC,081540.000,A,3956.0396,N,11622.4065,E,0.22,47.89,180812,,,A*52
227,
$GPRMC,081541.000,A,3956.0397,N,11622.4065,E,0.13,139.62,180812,,,A*6D
227,
$GPRMC,081542.000,A,3956.0397,N,11622.4065,E,0.12,79.60,180812,,,A*58
227,
$GPRMC,081543.000,A,3956.0397,N,11622.4066,E,0.12,115.32,180812,,,A*66
228,
$GPRMC,081544.000,A,3956.0398,N,11622.4066,E,0.17,57.17,180812,,,A*5B
228,
$GPRMC,081545.000,A,3956.0398,N,11622.4066,E,0.14,74.04,180812,,,A*5A
228,
$GPRMC,081546.000,A,3956.0399,N,11622.4067,E,0.25,42.46,180812,,,A*58
228,
$GPRMC,081547.000,A,3956.0400,N,11622.4067,E,0.15,125.81,180812,,,A*66
228,
$GPRMC,081548.000,A,3956.0400,N,11622.4067,E,0.13,110.75,180812,,,A*62
228,
$GPRMC,081549.000,A,3956.0400,N,11622.4066,E,0.11,112.97,180812,,,A*6E
227,
$GPRMC,081550.000,A,3956.0400,N,11622.4066,E,0.13,127.75,180812,,,A*6E
227,
$GPRMC,081551.000,A,3956.0400,N,11622.4066,E,0.13,122.17,180812,,,A*6E
227,
$GPRMC,081552.000,A,3956.0399,N,11622.4066,E,0.22,162.67,180812,,,A*6B
227,
$GPRMC,081553.000,A,3956.0399,N,11622.4065,E,0.25,170.89,180812,,,A*6D
226,
$GPRMC,081554.000,A,3956.0398,N,11622.4065,E,0.36,140.88,180812,,,A*6B
226,
$GPRMC,081555.000,A,3956.0398,N,11622.4066,E,0.45,109.56,180812,,,A*63
226,
$GPRMC,081556.000,A,3956.0398,N,11622.4066,E,0.36,52.23,180812,,,A*59
226,
$GPRMC,081557.000,A,3956.0398,N,11622.4066,E,0.15,147.07,180812,,,A*6A
226,
$GPRMC,081558.000,A,3956.0399,N,11622.4066,E,0.20,37.47,180812,,,A*50
226,
$GPRMC,081559.000,A,3956.0399,N,11622.4066,E,0.22,140.32,180812,,,A*60
226,
$GPRMC,081600.000,A,3956.0399,N,11622.4067,E,0.41,134.48,180812,,,A*65
226,
$GPRMC,081601.000,A,3956.0399,N,11622.4068,E,0.32,95.82,180812,,,A*53
226,
$GPRMC,081602.000,A,3956.0399,N,11622.4068,E,0.26,79.86,180812,,,A*53
226,
$GPRMC,081603.000,A,3956.0399,N,11622.4068,E,0.05,355.50,180812,,,A*65
226,
$GPRMC,081604.000,A,3956.0399,N,11622.4068,E,0.10,96.14,180812,,,A*5A
226,
$GPRMC,081605.000,A,3956.0399,N,11622.4068,E,0.09,70.09,180812,,,A*57
226,
$GPRMC,081606.000,A,3956.0399,N,11622.4067,E,0.12,72.83,180812,,,A*51
226,
$GPRMC,081607.000,A,3956.0399,N,11622.4067,E,0.12,346.89,180812,,,A*6E
226,
$GPRMC,081608.000,A,3956.0400,N,11622.4067,E,0.10,68.14,180812,,,A*5F
226,
$GPRMC,081609.000,A,3956.0400,N,11622.4067,E,0.05,359.08,180812,,,A*66
226,
$GPRMC,081610.000,A,3956.0400,N,11622.4066,E,0.22,217.91,180812,,,A*61
226,
$GPRMC,081611.000,A,3956.0399,N,11622.4064,E,0.15,260.29,180812,,,A*62
226,
$GPRMC,081612.000,A,3956.0399,N,11622.4063,E,0.08,325.05,180812,,,A*64
226,
$GPRMC,081613.000,A,3956.0400,N,11622.4062,E,0.22,236.40,180812,,,A*69
226,
$GPRMC,081614.000,A,3956.0400,N,11622.4062,E,0.12,323.87,180812,,,A*63
226,
$GPRMC,081615.000,A,3956.0399,N,11622.4061,E,0.47,209.70,180812,,,A*67
226,
$GPRMC,081616.000,A,3956.0399,N,11622.4060,E,0.08,261.88,180812,,,A*67
226,
$GPRMC,081617.000,A,3956.0400,N,11622.4061,E,0.19,16.76,180812,,,A*53
226,
$GPRMC,081618.000,A,3956.0402,N,11622.4063,E,0.23,44.98,180812,,,A*52
225,
$GPRMC,081619.000,A,3956.0402,N,11622.4063,E,0.05,332.01,180812,,,A*65
225,
$GPRMC,081620.000,A,3956.0402,N,11622.4063,E,0.04,51.35,180812,,,A*5F
225,
$GPRMC,081621.000,A,3956.0404,N,11622.4063,E,0.49,62.18,180812,,,A*5E
228,
$GPRMC,081622.000,A,3956.0405,N,11622.4064,E,0.60,0.40,180812,,,A*69
230,
$GPRMC,081623.000,A,3956.0406,N,11622.4063,E,0.16,232.64,180812,,,A*68
234,
$GPRMC,081624.000,A,3956.0406,N,11622.4062,E,0.01,96.25,180812,,,A*51
235,
$GPRMC,081625.000,A,3956.0406,N,11622.4062,E,0.11,353.36,180812,,,A*69
234,
$GPRMC,081626.000,A,3956.0407,N,11622.4063,E,0.29,18.88,180812,,,A*58
233,
$GPRMC,081627.000,A,3956.0407,N,11622.4063,E,0.15,219.62,180812,,,A*61
232,
$GPRMC,081628.000,A,3956.0408,N,11622.4063,E,0.11,182.18,180812,,,A*69
232,
$GPRMC,081629.000,A,3956.0407,N,11622.4063,E,0.04,61.75,180812,,,A*54
231,
$GPRMC,081630.000,A,3956.0407,N,11622.4063,E,0.10,79.92,180812,,,A*59
231,
$GPRMC,081631.000,A,3956.0406,N,11622.4063,E,0.17,23.96,180812,,,A*55
232,
$GPRMC,081632.000,A,3956.0406,N,11622.4062,E,0.52,322.33,180812,,,A*6B
233,
$GPRMC,081633.000,A,3956.0405,N,11622.4062,E,0.04,1.60,180812,,,A*6E
233,
$GPRMC,081634.000,A,3956.0405,N,11622.4063,E,0.40,207.47,180812,,,A*69
233,
$GPRMC,081635.000,A,3956.0406,N,11622.4062,E,0.63,332.11,180812,,,A*6F
233,
$GPRMC,081636.000,A,3956.0405,N,11622.4061,E,0.37,203.05,180812,,,A*6B
233,
$GPRMC,081637.000,A,3956.0403,N,11622.4060,E,0.68,194.24,180812,,,A*69
233,
$GPRMC,081638.000,A,3956.0403,N,11622.4059,E,0.32,16.77,180812,,,A*5E
234,
$GPRMC,081639.000,A,3956.0402,N,11622.4057,E,0.01,240.91,180812,,,A*69
235,
$GPRMC,081640.000,A,3956.0399,N,11622.4058,E,0.75,153.49,180812,,,A*6A
235,
$GPRMC,081641.000,A,3956.0394,N,11622.4059,E,0.50,171.38,180812,,,A*66
235,
$GPRMC,081642.000,A,3956.0393,N,11622.4060,E,0.31,21.14,180812,,,A*55
235,
$GPRMC,081643.000,A,3956.0392,N,11622.4060,E,0.37,189.53,180812,,,A*63
234,
$GPRMC,081644.000,A,3956.0390,N,11622.4060,E,0.27,146.40,180812,,,A*66
234,
$GPRMC,081645.000,A,3956.0389,N,11622.4060,E,0.38,188.82,180812,,,A*6D
233,
$GPRMC,081646.000,A,3956.0389,N,11622.4060,E,0.25,147.27,180812,,,A*6E
234,
$GPRMC,081647.000,A,3956.0387,N,11622.4060,E,0.77,200.11,180812,,,A*63
233,
$GPRMC,081648.000,A,3956.0387,N,11622.4059,E,0.19,52.86,180812,,,A*55
233,
$GPRMC,081649.000,A,3956.0387,N,11622.4059,E,0.35,46.97,180812,,,A*5F
233,
$GPRMC,081650.000,A,3956.0388,N,11622.4060,E,0.11,229.33,180812,,,A*61
232,
$GPRMC,081651.000,A,3956.0390,N,11622.4060,E,0.42,22.89,180812,,,A*57
231,
$GPRMC,081652.000,A,3956.0390,N,11622.4059,E,0.18,218.45,180812,,,A*6A
230,
$GPRMC,081653.000,A,3956.0390,N,11622.4060,E,0.12,308.53,180812,,,A*6C
230,
$GPRMC,081654.000,A,3956.0391,N,11622.4062,E,0.42,63.63,180812,,,A*50
230,
$GPRMC,081655.000,A,3956.0390,N,11622.4066,E,1.49,106.55,180812,,,A*69
230,
$GPRMC,081656.000,A,3956.0389,N,11622.4073,E,2.44,97.02,180812,,,A*53
229,
$GPRMC,081657.000,A,3956.0388,N,11622.4081,E,2.21,99.24,180812,,,A*57
229,
$GPRMC,081658.000,A,3956.0386,N,11622.4088,E,1.96,107.64,180812,,,A*62
229,
$GPRMC,081659.000,A,3956.0383,N,11622.4095,E,1.87,131.92,180812,,,A*66
229,
$GPRMC,081700.000,A,3956.0381,N,11622.4100,E,1.46,97.26,180812,,,A*5B
229,
$GPRMC,081701.000,A,3956.0381,N,11622.4105,E,1.17,66.27,180812,,,A*54
229,
$GPRMC,081702.000,A,3956.0382,N,11622.4108,E,0.20,59.97,180812,,,A*5B
228,
$GPRMC,081703.000,A,3956.0382,N,11622.4108,E,0.05,221.09,180812,,,A*67
228,
$GPRMC,081704.000,A,3956.0382,N,11622.4108,E,0.04,41.22,180812,,,A*5C
228,
$GPRMC,081705.000,A,3956.0382,N,11622.4109,E,0.16,122.57,180812,,,A*69
228,
$GPRMC,081706.000,A,3956.0382,N,11622.4110,E,0.44,39.53,180812,,,A*5A
228,
$GPRMC,081707.000,A,3956.0383,N,11622.4112,E,0.41,29.28,180812,,,A*50
227,
$GPRMC,081708.000,A,3956.0384,N,11622.4113,E,0.27,55.90,180812,,,A*51
227,
$GPRMC,081709.000,A,3956.0385,N,11622.4114,E,0.34,77.44,180812,,,A*5D
227,
$GPRMC,081710.000,A,3956.0383,N,11622.4112,E,0.13,29.56,180812,,,A*58
226,
$GPRMC,081711.000,A,3956.0383,N,11622.4111,E,0.15,186.34,180812,,,A*6C
226,
$GPRMC,081712.000,A,3956.0382,N,11622.4110,E,0.06,86.89,180812,,,A*5A
226,
$GPRMC,081713.000,A,3956.0382,N,11622.4110,E,0.05,93.68,180812,,,A*53
226,
$GPRMC,081714.000,A,3956.0381,N,11622.4109,E,0.07,165.17,180812,,,A*6D
226,
$GPRMC,081715.000,A,3956.0380,N,11622.4108,E,0.13,187.56,180812,,,A*60
226,
$GPRMC,081716.000,A,3956.0379,N,11622.4106,E,0.07,175.72,180812,,,A*65
225,
$GPRMC,081717.000,A,3956.0379,N,11622.4106,E,0.08,82.16,180812,,,A*50
225,
$GPRMC,081718.000,A,3956.0379,N,11622.4106,E,0.08,104.31,180812,,,A*65
225,
$GPRMC,081719.000,A,3956.0378,N,11622.4105,E,0.06,122.92,180812,,,A*65
225,
$GPRMC,081720.000,A,3956.0377,N,11622.4105,E,0.09,135.06,180812,,,A*64
225,
$GPRMC,081721.000,A,3956.0377,N,11622.4104,E,0.08,173.42,180812,,,A*67
224,
$GPRMC,081722.000,A,3956.0377,N,11622.4104,E,0.15,40.45,180812,,,A*5E
224,
$GPRMC,081723.000,A,3956.0377,N,11622.4103,E,0.22,38.47,180812,,,A*51
224,
$GPRMC,081724.000,A,3956.0376,N,11622.4103,E,0.39,32.72,180812,,,A*51
224,
$GPRMC,081725.000,A,3956.0376,N,11622.4103,E,0.25,163.74,180812,,,A*6E
224,
$GPRMC,081726.000,A,3956.0376,N,11622.4103,E,0.14,162.48,180812,,,A*61
224,
$GPRMC,081727.000,A,3956.0375,N,11622.4103,E,0.68,198.68,180812,,,A*6F
224,
$GPRMC,081728.000,A,3956.0374,N,11622.4102,E,0.43,173.00,180812,,,A*62
223,
$GPRMC,081729.000,A,3956.0375,N,11622.4103,E,0.12,121.70,180812,,,A*67
224,
$GPRMC,081730.000,A,3956.0375,N,11622.4104,E,0.35,27.07,180812,,,A*5A
227,
$GPRMC,081731.000,A,3956.0374,N,11622.4104,E,0.19,178.37,180812,,,A*6C
227,
$GPRMC,081732.000,A,3956.0373,N,11622.4103,E,0.39,201.24,180812,,,A*62
227,
$GPRMC,081733.000,A,3956.0374,N,11622.4103,E,0.28,51.05,180812,,,A*50
227,
$GPRMC,081734.000,A,3956.0374,N,11622.4103,E,0.36,36.77,180812,,,A*5C
227,
$GPRMC,081735.000,A,3956.0375,N,11622.4104,E,0.16,54.53,180812,,,A*5B
227,
$GPRMC,081736.000,A,3956.0377,N,11622.4105,E,0.35,32.44,180812,,,A*5C
226,
$GPRMC,081737.000,A,3956.0378,N,11622.4105,E,0.08,21.03,180812,,,A*5D
226,
$GPRMC,081738.000,A,3956.0379,N,11622.4107,E,0.25,54.52,180812,,,A*58
225,
$GPRMC,081739.000,A,3956.0379,N,11622.4107,E,0.22,186.20,180812,,,A*65
225,
$GPRMC,081740.000,A,3956.0379,N,11622.4108,E,0.06,131.58,180812,,,A*61
224,
$GPRMC,081741.000,A,3956.0379,N,11622.4107,E,0.21,179.09,180812,,,A*62
224,
$GPRMC,081742.000,A,3956.0379,N,11622.4108,E,0.06,106.69,180812,,,A*65
223,
$GPRMC,081743.000,A,3956.0380,N,11622.4109,E,0.12,174.09,180812,,,A*65
223,
$GPRMC,081744.000,A,3956.0379,N,11622.4108,E,0.11,154.85,180812,,,A*60
223,
$GPRMC,081745.000,A,3956.0378,N,11622.4108,E,0.07,178.45,180812,,,A*65
223,
$GPRMC,081746.000,A,3956.0378,N,11622.4107,E,0.11,176.04,180812,,,A*65
222,
$GPRMC,081747.000,A,3956.0377,N,11622.4106,E,0.09,132.49,180812,,,A*6A
222,
$GPRMC,081748.000,A,3956.0377,N,11622.4106,E,0.16,187.23,180812,,,A*69
222,
$GPRMC,081749.000,A,3956.0376,N,11622.4105,E,0.15,196.70,180812,,,A*6F
222,
$GPRMC,081750.000,A,3956.0376,N,11622.4105,E,0.08,130.47,180812,,,A*63
222,
$GPRMC,081751.000,A,3956.0376,N,11622.4104,E,0.23,202.47,180812,,,A*68
222,
$GPRMC,081752.000,A,3956.0375,N,11622.4104,E,0.15,37.13,180812,,,A*58
222,
$GPRMC,081753.000,A,3956.0375,N,11622.4104,E,0.05,112.01,180812,,,A*6D
222,
$GPRMC,081754.000,A,3956.0375,N,11622.4104,E,0.07,156.27,180812,,,A*6C
222,
$GPRMC,081755.000,A,3956.0376,N,11622.4104,E,0.17,46.54,180812,,,A*5B
221,
$GPRMC,081756.000,A,3956.0375,N,11622.4106,E,1.21,123.87,180812,,,A*61
221,
$GPRMC,081757.000,A,3956.0371,N,11622.4110,E,2.25,141.01,180812,,,A*6E
221,
$GPRMC,081758.000,A,3956.0367,N,11622.4117,E,2.75,115.62,180812,,,A*60
222,
$GPRMC,081759.000,A,3956.0365,N,11622.4126,E,2.41,98.30,180812,,,A*55
222,
$GPRMC,081800.000,A,3956.0365,N,11622.4134,E,2.15,96.22,180812,,,A*59
223,
$GPRMC,081801.000,A,3956.0365,N,11622.4141,E,2.05,87.20,180812,,,A*59
224,
$GPRMC,081802.000,A,3956.0366,N,11622.4149,E,2.00,81.99,180812,,,A*50
224,
$GPRMC,081803.000,A,3956.0367,N,11622.4155,E,1.88,80.46,180812,,,A*5D
225,
$GPRMC,081804.000,A,3956.0366,N,11622.4161,E,1.70,103.14,180812,,,A*66
225,
$GPRMC,081805.000,A,3956.0364,N,11622.4166,E,1.21,103.09,180812,,,A*6A
226,
$GPRMC,081806.000,A,3956.0362,N,11622.4170,E,1.49,102.20,180812,,,A*6C
226,
$GPRMC,081807.000,A,3956.0361,N,11622.4174,E,1.14,128.73,180812,,,A*6C
226,
$GPRMC,081808.000,A,3956.0360,N,11622.4176,E,0.51,119.21,180812,,,A*65
227,
$GPRMC,081809.000,A,3956.0359,N,11622.4177,E,0.33,130.74,180812,,,A*60
227,
$GPRMC,081810.000,A,3956.0359,N,11622.4178,E,0.11,108.79,180812,,,A*61
228,
$GPRMC,081811.000,A,3956.0359,N,11622.4179,E,0.14,129.23,180812,,,A*68
230,
$GPRMC,081812.000,A,3956.0358,N,11622.4179,E,0.13,116.67,180812,,,A*61
232,
$GPRMC,081813.000,A,3956.0358,N,11622.4180,E,0.13,168.95,180812,,,A*62
234,
$GPRMC,081814.000,A,3956.0358,N,11622.4180,E,0.13,131.10,180812,,,A*64
234,
$GPRMC,081815.000,A,3956.0359,N,11622.4181,E,0.11,135.86,180812,,,A*6C
233,
$GPRMC,081816.000,A,3956.0358,N,11622.4181,E,0.12,135.28,180812,,,A*69
233,
$GPRMC,081817.000,A,3956.0358,N,11622.4182,E,0.14,122.38,180812,,,A*6A
232,
$GPRMC,081818.000,A,3956.0358,N,11622.4183,E,0.16,66.03,180812,,,A*5F
231,
$GPRMC,081819.000,A,3956.0359,N,11622.4183,E,0.12,100.19,180812,,,A*61
231,
$GPRMC,081820.000,A,3956.0359,N,11622.4185,E,0.54,84.00,180812,,,A*5A
230,
$GPRMC,081821.000,A,3956.0358,N,11622.4189,E,2.06,100.43,180812,,,A*69
230,
$GPRMC,081822.000,A,3956.0357,N,11622.4197,E,2.60,89.80,180812,,,A*55
230,
$GPRMC,081823.000,A,3956.0357,N,11622.4207,E,3.28,90.24,180812,,,A*55
231,
$GPRMC,081824.000,A,3956.0358,N,11622.4219,E,3.41,88.20,180812,,,A*50
232,
$GPRMC,081825.000,A,3956.0359,N,11622.4232,E,3.32,86.68,180812,,,A*5F
233,
$GPRMC,081826.000,A,3956.0359,N,11622.4242,E,2.89,88.37,180812,,,A*5E
233,
$GPRMC,081827.000,A,3956.0362,N,11622.4251,E,2.84,64.12,180812,,,A*5D
232,
$GPRMC,081828.000,A,3956.0366,N,11622.4261,E,3.12,67.38,180812,,,A*50
232,
$GPRMC,081829.000,A,3956.0369,N,11622.4272,E,3.40,76.85,180812,,,A*5D
232,
$GPRMC,081830.000,A,3956.0370,N,11622.4284,E,3.71,88.74,180812,,,A*59
232,
$GPRMC,081831.000,A,3956.0372,N,11622.4299,E,4.24,86.87,180812,,,A*53
231,
$GPRMC,081832.000,A,3956.0373,N,11622.4315,E,4.30,102.62,180812,,,A*67
231,
$GPRMC,081833.000,A,3956.0373,N,11622.4331,E,4.36,98.62,180812,,,A*54
230,
$GPRMC,081834.000,A,3956.0372,N,11622.4348,E,4.42,103.16,180812,,,A*6F
230,
$GPRMC,081835.000,A,3956.0371,N,11622.4364,E,4.34,116.41,180812,,,A*64
229,
$GPRMC,081836.000,A,3956.0367,N,11622.4380,E,4.60,107.51,180812,,,A*6A
229,
$GPRMC,081837.000,A,3956.0365,N,11622.4396,E,4.41,106.25,180812,,,A*6F
229,
$GPRMC,081838.000,A,3956.0363,N,11622.4413,E,4.73,110.34,180812,,,A*6A
229,
$GPRMC,081839.000,A,3956.0359,N,11622.4429,E,4.61,120.23,180812,,,A*6D
229,
$GPRMC,081840.000,A,3956.0358,N,11622.4445,E,3.93,98.81,180812,,,A*58
229,
$GPRMC,081841.000,A,3956.0359,N,11622.4461,E,3.78,101.69,180812,,,A*6C
229,
$GPRMC,081842.000,A,3956.0360,N,11622.4478,E,4.01,101.42,180812,,,A*6D
229,
$GPRMC,081843.000,A,3956.0361,N,11622.4495,E,4.18,93.53,180812,,,A*5C
229,
$GPRMC,081844.000,A,3956.0363,N,11622.4513,E,3.96,90.80,180812,,,A*5A
229,
$GPRMC,081845.000,A,3956.0366,N,11622.4529,E,3.79,87.96,180812,,,A*57
229,
$GPRMC,081846.000,A,3956.0369,N,11622.4545,E,3.79,86.11,180812,,,A*5F
229,
$GPRMC,081847.000,A,3956.0371,N,11622.4561,E,4.18,91.84,180812,,,A*5B
228,
$GPRMC,081848.000,A,3956.0370,N,11622.4578,E,4.39,103.97,180812,,,A*66
228,
$GPRMC,081849.000,A,3956.0369,N,11622.4596,E,4.57,98.04,180812,,,A*5E
228,
$GPRMC,081850.000,A,3956.0370,N,11622.4615,E,5.06,94.39,180812,,,A*51
228,
$GPRMC,081851.000,A,3956.0371,N,11622.4636,E,4.93,95.86,180812,,,A*58
227,
$GPRMC,081852.000,A,3956.0373,N,11622.4655,E,4.44,94.92,180812,,,A*52
227,
$GPRMC,081853.000,A,3956.0376,N,11622.4675,E,4.66,85.83,180812,,,A*54
227,
$GPRMC,081854.000,A,3956.0380,N,11622.4695,E,4.92,84.73,180812,,,A*51
227,
$GPRMC,081855.000,A,3956.0385,N,11622.4716,E,4.98,86.73,180812,,,A*57
228,
$GPRMC,081856.000,A,3956.0388,N,11622.4738,E,5.69,82.51,180812,,,A*5E
228,
$GPRMC,081857.000,A,3956.0391,N,11622.4760,E,5.48,87.46,180812,,,A*5A
229,
$GPRMC,081858.000,A,3956.0392,N,11622.4781,E,5.20,92.99,180812,,,A*51
229,
$GPRMC,081859.000,A,3956.0393,N,11622.4802,E,5.26,88.82,180812,,,A*52
229,
$GPRMC,081900.000,A,3956.0396,N,11622.4823,E,5.14,88.51,180812,,,A*56
228,
$GPRMC,081901.000,A,3956.0399,N,11622.4844,E,4.52,107.23,180812,,,A*69
228,
$GPRMC,081902.000,A,3956.0398,N,11622.4863,E,4.53,106.23,180812,,,A*6E
228,
$GPRMC,081903.000,A,3956.0399,N,11622.4883,E,5.19,92.18,180812,,,A*5B
228,
$GPRMC,081904.000,A,3956.0400,N,11622.4905,E,5.82,101.48,180812,,,A*68
228,
$GPRMC,081905.000,A,3956.0399,N,11622.4927,E,5.16,112.67,180812,,,A*6C
227,
$GPRMC,081906.000,A,3956.0396,N,11622.4947,E,5.15,118.16,180812,,,A*69
227,
$GPRMC,081907.000,A,3956.0394,N,11622.4967,E,5.29,101.87,180812,,,A*67
227,
$GPRMC,081908.000,A,3956.0394,N,11622.4988,E,5.57,96.51,180812,,,A*54
227,
$GPRMC,081909.000,A,3956.0396,N,11622.5011,E,5.67,89.26,180812,,,A*52
228,
$GPRMC,081910.000,A,3956.0401,N,11622.5033,E,4.53,85.85,180812,,,A*50
228,
$GPRMC,081911.000,A,3956.0402,N,11622.5052,E,4.84,110.89,180812,,,A*6E
227,
$GPRMC,081912.000,A,3956.0403,N,11622.5071,E,4.23,106.45,180812,,,A*67
227,
$GPRMC,081913.000,A,3956.0405,N,11622.5087,E,3.31,90.07,180812,,,A*55
227,
$GPRMC,081914.000,A,3956.0408,N,11622.5105,E,4.29,95.83,180812,,,A*53
227,
$GPRMC,081915.000,A,3956.0410,N,11622.5123,E,3.35,108.33,180812,,,A*6B
227,
$GPRMC,081916.000,A,3956.0411,N,11622.5142,E,4.72,102.48,180812,,,A*6C
226,
$GPRMC,081917.000,A,3956.0413,N,11622.5162,E,4.58,94.61,180812,,,A*50
226,
$GPRMC,081918.000,A,3956.0413,N,11622.5181,E,4.13,106.95,180812,,,A*6C
226,
$GPRMC,081919.000,A,3956.0416,N,11622.5199,E,3.92,100.45,180812,,,A*64
227,
$GPRMC,081920.000,A,3956.0416,N,11622.5217,E,3.56,106.28,180812,,,A*6E
227,
$GPRMC,081921.000,A,3956.0415,N,11622.5236,E,4.08,102.50,180812,,,A*68
227,
$GPRMC,081922.000,A,3956.0419,N,11622.5254,E,4.01,94.65,180812,,,A*52
227,
$GPRMC,081923.000,A,3956.0421,N,11622.5275,E,5.02,93.40,180812,,,A*59
227,
$GPRMC,081924.000,A,3956.0424,N,11622.5299,E,5.05,89.24,180812,,,A*57
226,
$GPRMC,081925.000,A,3956.0426,N,11622.5322,E,4.31,103.85,180812,,,A*6B
226,
$GPRMC,081926.000,A,3956.0427,N,11622.5343,E,4.67,97.41,180812,,,A*59
226,
$GPRMC,081927.000,A,3956.0430,N,11622.5366,E,4.95,95.50,180812,,,A*56
226,
$GPRMC,081928.000,A,3956.0430,N,11622.5389,E,5.15,100.17,180812,,,A*6F
226,
$GPRMC,081929.000,A,3956.0432,N,11622.5413,E,5.13,104.13,180812,,,A*6E
226,
$GPRMC,081930.000,A,3956.0428,N,11622.5435,E,5.28,105.09,180812,,,A*6B
226,
$GPRMC,081931.000,A,3956.0426,N,11622.5458,E,5.10,108.41,180812,,,A*65
226,
$GPRMC,081932.000,A,3956.0426,N,11622.5481,E,5.18,103.84,180812,,,A*68
226,
$GPRMC,081933.000,A,3956.0426,N,11622.5505,E,4.97,106.70,180812,,,A*6C
225,
$GPRMC,081934.000,A,3956.0428,N,11622.5529,E,5.03,95.23,180812,,,A*5A
225,
$GPRMC,081935.000,A,3956.0431,N,11622.5553,E,5.38,94.83,180812,,,A*5D
225,
$GPRMC,081936.000,A,3956.0430,N,11622.5576,E,4.57,108.38,180812,,,A*64
225,
$GPRMC,081937.000,A,3956.0430,N,11622.5596,E,4.30,105.24,180812,,,A*6A
225,
$GPRMC,081938.000,A,3956.0427,N,11622.5617,E,4.58,116.56,180812,,,A*60
225,
$GPRMC,081939.000,A,3956.0424,N,11622.5637,E,4.56,115.55,180812,,,A*6E
225,
$GPRMC,081940.000,A,3956.0424,N,11622.5658,E,4.85,94.51,180812,,,A*5B
225,
$GPRMC,081941.000,A,3956.0428,N,11622.5681,E,5.27,91.66,180812,,,A*5A
225,
$GPRMC,081942.000,A,3956.0430,N,11622.5704,E,4.54,106.50,180812,,,A*63
226,
$GPRMC,081943.000,A,3956.0433,N,11622.5725,E,4.42,99.25,180812,,,A*50
225,
$GPRMC,081944.000,A,3956.0435,N,11622.5746,E,4.02,99.53,180812,,,A*51
225,
$GPRMC,081945.000,A,3956.0436,N,11622.5765,E,3.78,100.35,180812,,,A*69
225,
$GPRMC,081946.000,A,3956.0436,N,11622.5786,E,4.52,98.19,180812,,,A*56
225,
$GPRMC,081947.000,A,3956.0437,N,11622.5807,E,4.05,113.09,180812,,,A*61
225,
$GPRMC,081948.000,A,3956.0436,N,11622.5827,E,4.36,106.77,180812,,,A*60
224,
$GPRMC,081949.000,A,3956.0437,N,11622.5848,E,4.86,96.59,180812,,,A*56
224,
$GPRMC,081950.000,A,3956.0440,N,11622.5871,E,4.90,89.99,180812,,,A*51
224,
$GPRMC,081951.000,A,3956.0444,N,11622.5894,E,5.07,92.69,180812,,,A*55
225,
$GPRMC,081952.000,A,3956.0446,N,11622.5917,E,5.10,100.49,180812,,,A*60
224,
$GPRMC,081953.000,A,3956.0447,N,11622.5941,E,5.40,96.97,180812,,,A*5B
224,
$GPRMC,081954.000,A,3956.0449,N,11622.5965,E,5.52,90.78,180812,,,A*50
224,
$GPRMC,081955.000,A,3956.0451,N,11622.5988,E,5.71,85.82,180812,,,A*5B
224,
$GPRMC,081956.000,A,3956.0456,N,11622.6011,E,5.45,84.87,180812,,,A*56
224,
$GPRMC,081957.000,A,3956.0460,N,11622.6032,E,5.29,84.17,180812,,,A*50
224,
$GPRMC,081958.000,A,3956.0460,N,11622.6051,E,4.54,95.54,180812,,,A*56
223,
$GPRMC,081959.000,A,3956.0462,N,11622.6069,E,4.75,91.62,180812,,,A*5C
223,
$GPRMC,082000.000,A,3956.0464,N,11622.6087,E,4.94,89.53,180812,,,A*58
223,
$GPRMC,082001.000,A,3956.0468,N,11622.6105,E,5.02,92.46,180812,,,A*5E
223,
$GPRMC,082002.000,A,3956.0471,N,11622.6125,E,5.24,91.50,180812,,,A*57
222,
$GPRMC,082003.000,A,3956.0472,N,11622.6147,E,5.53,103.61,180812,,,A*69
222,
$GPRMC,082004.000,A,3956.0473,N,11622.6168,E,5.00,95.16,180812,,,A*5A
222,
$GPRMC,082005.000,A,3956.0474,N,11622.6190,E,4.93,95.61,180812,,,A*50
221,
$GPRMC,082006.000,A,3956.0477,N,11622.6213,E,4.69,94.41,180812,,,A*5E
221,
$GPRMC,082007.000,A,3956.0477,N,11622.6234,E,4.30,103.61,180812,,,A*6B
221,
$GPRMC,082008.000,A,3956.0478,N,11622.6255,E,4.58,103.82,180812,,,A*6F
220,
$GPRMC,082009.000,A,3956.0480,N,11622.6275,E,3.41,101.31,180812,,,A*6E
220,
$GPRMC,082010.000,A,3956.0484,N,11622.6291,E,2.47,96.82,180812,,,A*58
220,
$GPRMC,082011.000,A,3956.0488,N,11622.6307,E,3.08,101.18,180812,,,A*6D
220,
$GPRMC,082012.000,A,3956.0492,N,11622.6325,E,3.67,93.52,180812,,,A*58
220,
$GPRMC,082013.000,A,3956.0494,N,11622.6345,E,3.87,101.82,180812,,,A*60
220,
$GPRMC,082014.000,A,3956.0497,N,11622.6368,E,4.16,82.60,180812,,,A*52
220,
$GPRMC,082015.000,A,3956.0499,N,11622.6389,E,4.21,92.43,180812,,,A*56
220,
$GPRMC,082016.000,A,3956.0500,N,11622.6410,E,3.07,94.16,180812,,,A*56
220,
$GPRMC,082017.000,A,3956.0504,N,11622.6426,E,3.54,88.42,180812,,,A*5C
220,
$GPRMC,082018.000,A,3956.0508,N,11622.6448,E,4.02,91.11,180812,,,A*5D
220,
$GPRMC,082019.000,A,3956.0509,N,11622.6471,E,4.12,93.08,180812,,,A*5C
220,
$GPRMC,082020.000,A,3956.0512,N,11622.6493,E,4.42,96.66,180812,,,A*58
220,
$GPRMC,082021.000,A,3956.0515,N,11622.6516,E,4.32,101.36,180812,,,A*6F
220,
$GPRMC,082022.000,A,3956.0514,N,11622.6540,E,4.53,102.04,180812,,,A*6B
220,
$GPRMC,082023.000,A,3956.0517,N,11622.6562,E,3.40,88.74,180812,,,A*58
219,
$GPRMC,082024.000,A,3956.0519,N,11622.6583,E,4.28,99.85,180812,,,A*59
219,
$GPRMC,082025.000,A,3956.0519,N,11622.6604,E,4.35,96.72,180812,,,A*5F
219,
$GPRMC,082026.000,A,3956.0523,N,11622.6626,E,3.95,85.49,180812,,,A*52
219,
$GPRMC,082027.000,A,3956.0525,N,11622.6644,E,3.49,98.55,180812,,,A*51
219,
$GPRMC,082028.000,A,3956.0529,N,11622.6661,E,2.66,92.16,180812,,,A*54
219,
$GPRMC,082029.000,A,3956.0531,N,11622.6673,E,1.60,86.99,180812,,,A*58
219,
$GPRMC,082030.000,A,3956.0533,N,11622.6684,E,1.51,85.15,180812,,,A*5F
219,
$GPRMC,082031.000,A,3956.0536,N,11622.6695,E,2.06,71.57,180812,,,A*57
219,
$GPRMC,082032.000,A,3956.0539,N,11622.6708,E,2.83,91.10,180812,,,A*5E
219,
$GPRMC,082033.000,A,3956.0540,N,11622.6725,E,3.92,94.59,180812,,,A*57
219,
$GPRMC,082034.000,A,3956.0540,N,11622.6744,E,4.73,101.77,180812,,,A*6E
219,
$GPRMC,082035.000,A,3956.0538,N,11622.6765,E,4.97,108.07,180812,,,A*67
219,
$GPRMC,082036.000,A,3956.0537,N,11622.6786,E,4.81,105.00,180812,,,A*6B
219,
$GPRMC,082037.000,A,3956.0539,N,11622.6805,E,4.24,89.94,180812,,,A*57
219,
$GPRMC,082038.000,A,3956.0542,N,11622.6824,E,3.83,74.61,180812,,,A*55
219,
$GPRMC,082039.000,A,3956.0546,N,11622.6843,E,4.43,94.36,180812,,,A*56
219,
$GPRMC,082040.000,A,3956.0546,N,11622.6864,E,4.80,89.20,180812,,,A*59
219,
$GPRMC,082041.000,A,3956.0549,N,11622.6887,E,4.59,87.47,180812,,,A*51
219,
$GPRMC,082042.000,A,3956.0553,N,11622.6905,E,4.23,75.53,180812,,,A*57
219,
$GPRMC,082043.000,A,3956.0556,N,11622.6927,E,4.54,82.01,180812,,,A*5C
219,
$GPRMC,082044.000,A,3956.0560,N,11622.6945,E,4.15,88.30,180812,,,A*57
220,
$GPRMC,082045.000,A,3956.0563,N,11622.6965,E,4.62,75.08,180812,,,A*5E
220,
$GPRMC,082046.000,A,3956.0568,N,11622.6987,E,4.66,70.14,180812,,,A*56
220,
$GPRMC,082047.000,A,3956.0573,N,11622.7007,E,4.75,77.14,180812,,,A*58
220,
$GPRMC,082048.000,A,3956.0575,N,11622.7030,E,4.86,94.31,180812,,,A*53
220,
$GPRMC,082049.000,A,3956.0572,N,11622.7050,E,3.67,115.20,180812,,,A*63
219,
$GPRMC,082050.000,A,3956.0569,N,11622.7065,E,3.98,104.67,180812,,,A*64
219,
$GPRMC,082051.000,A,3956.0569,N,11622.7083,E,4.18,104.80,180812,,,A*6B
220,
$GPRMC,082052.000,A,3956.0569,N,11622.7101,E,4.08,106.72,180812,,,A*6D
220,
$GPRMC,082053.000,A,3956.0570,N,11622.7116,E,2.46,99.52,180812,,,A*5B
220,
$GPRMC,082054.000,A,3956.0572,N,11622.7131,E,2.82,88.98,180812,,,A*55
220,
$GPRMC,082055.000,A,3956.0572,N,11622.7147,E,3.22,97.69,180812,,,A*5E
219,
$GPRMC,082056.000,A,3956.0575,N,11622.7163,E,2.81,80.24,180812,,,A*5B
219,
$GPRMC,082057.000,A,3956.0575,N,11622.7178,E,3.30,103.32,180812,,,A*66
220,
$GPRMC,082058.000,A,3956.0576,N,11622.7193,E,3.06,82.30,180812,,,A*50
219,
$GPRMC,082059.000,A,3956.0578,N,11622.7208,E,2.96,88.77,180812,,,A*5F
219,
$GPRMC,082100.000,A,3956.0579,N,11622.7223,E,3.13,90.49,180812,,,A*52
219,
$GPRMC,082101.000,A,3956.0579,N,11622.7239,E,2.94,110.26,180812,,,A*66
219,
$GPRMC,082102.000,A,3956.0577,N,11622.7253,E,3.06,112.35,180812,,,A*6D
219,
$GPRMC,082103.000,A,3956.0576,N,11622.7266,E,2.20,91.79,180812,,,A*5C
219,
$GPRMC,082104.000,A,3956.0575,N,11622.7280,E,3.32,110.51,180812,,,A*60
219,
$GPRMC,082105.000,A,3956.0575,N,11622.7295,E,3.16,103.73,180812,,,A*61
219,
$GPRMC,082106.000,A,3956.0576,N,11622.7311,E,2.98,93.16,180812,,,A*50
219,
$GPRMC,082107.000,A,3956.0577,N,11622.7326,E,3.10,87.83,180812,,,A*5C
219,
$GPRMC,082108.000,A,3956.0578,N,11622.7340,E,2.87,90.95,180812,,,A*52
219,
$GPRMC,082109.000,A,3956.0581,N,11622.7354,E,2.88,81.15,180812,,,A*57
219,
$GPRMC,082110.000,A,3956.0582,N,11622.7367,E,2.22,105.65,180812,,,A*66
219,
$GPRMC,082111.000,A,3956.0584,N,11622.7377,E,1.62,94.37,180812,,,A*59
219,
$GPRMC,082112.000,A,3956.0587,N,11622.7389,E,2.82,100.60,180812,,,A*6B
219,
$GPRMC,082113.000,A,3956.0588,N,11622.7404,E,3.31,99.59,180812,,,A*55
219,
$GPRMC,082114.000,A,3956.0590,N,11622.7419,E,2.83,99.75,180812,,,A*51
219,
$GPRMC,082115.000,A,3956.0591,N,11622.7433,E,2.62,107.19,180812,,,A*6A
219,
$GPRMC,082116.000,A,3956.0591,N,11622.7446,E,2.87,111.05,180812,,,A*6A
219,
$GPRMC,082117.000,A,3956.0591,N,11622.7459,E,2.83,102.43,180812,,,A*61
219,
$GPRMC,082118.000,A,3956.0591,N,11622.7472,E,2.92,108.35,180812,,,A*6C
219,
$GPRMC,082119.000,A,3956.0592,N,11622.7483,E,2.12,107.17,180812,,,A*67
219,
$GPRMC,082120.000,A,3956.0591,N,11622.7492,E,1.67,100.64,180812,,,A*6C
219,
$GPRMC,082121.000,A,3956.0592,N,11622.7500,E,1.12,113.79,180812,,,A*68
219,
$GPRMC,082122.000,A,3956.0592,N,11622.7510,E,2.31,114.82,180812,,,A*6B
219,
$GPRMC,082123.000,A,3956.0592,N,11622.7520,E,2.19,120.91,180812,,,A*66
219,
$GPRMC,082124.000,A,3956.0591,N,11622.7531,E,2.10,118.48,180812,,,A*64
219,
$GPRMC,082125.000,A,3956.0591,N,11622.7542,E,2.15,116.25,180812,,,A*61
220,
$GPRMC,082126.000,A,3956.0592,N,11622.7553,E,2.49,100.92,180812,,,A*63
220,
$GPRMC,082127.000,A,3956.0593,N,11622.7565,E,2.77,96.49,180812,,,A*53
220,
$GPRMC,082128.000,A,3956.0594,N,11622.7577,E,2.73,94.40,180812,,,A*57
221,
$GPRMC,082129.000,A,3956.0595,N,11622.7589,E,3.23,84.70,180812,,,A*50
221,
$GPRMC,082130.000,A,3956.0598,N,11622.7600,E,3.11,74.46,180812,,,A*5C
221,
$GPRMC,082131.000,A,3956.0601,N,11622.7613,E,3.67,76.88,180812,,,A*5D
221,
$GPRMC,082132.000,A,3956.0605,N,11622.7627,E,3.29,73.77,180812,,,A*52
221,
$GPRMC,082133.000,A,3956.0609,N,11622.7639,E,3.18,75.76,180812,,,A*55
220,
$GPRMC,082134.000,A,3956.0613,N,11622.7651,E,3.14,66.53,180812,,,A*5E
220,
$GPRMC,082135.000,A,3956.0617,N,11622.7663,E,2.90,77.66,180812,,,A*51
220,
$GPRMC,082136.000,A,3956.0621,N,11622.7674,E,3.22,64.35,180812,,,A*5D
220,
$GPRMC,082137.000,A,3956.0626,N,11622.7685,E,3.07,63.14,180812,,,A*56
220,
$GPRMC,082138.000,A,3956.0630,N,11622.7695,E,2.83,71.45,180812,,,A*55
220,
$GPRMC,082139.000,A,3956.0635,N,11622.7706,E,2.94,57.11,180812,,,A*59
220,
$GPRMC,082140.000,A,3956.0644,N,11622.7713,E,3.52,19.73,180812,,,A*50
221,
$GPRMC,082141.000,A,3956.0655,N,11622.7717,E,3.76,8.30,180812,,,A*64
221,
$GPRMC,082142.000,A,3956.0667,N,11622.7717,E,4.08,352.36,180812,,,A*62
221,
$GPRMC,082143.000,A,3956.0680,N,11622.7715,E,4.35,342.70,180812,,,A*65
222,
$GPRMC,082144.000,A,3956.0694,N,11622.7711,E,4.64,336.31,180812,,,A*61
222,
$GPRMC,082145.000,A,3956.0707,N,11622.7705,E,4.74,339.12,180812,,,A*61
221,
$GPRMC,082146.000,A,3956.0721,N,11622.7700,E,4.65,340.88,180812,,,A*6E
221,
$GPRMC,082147.000,A,3956.0735,N,11622.7695,E,5.08,341.51,180812,,,A*68
221,
$GPRMC,082148.000,A,3956.0749,N,11622.7689,E,5.44,339.84,180812,,,A*6E
221,
$GPRMC,082149.000,A,3956.0764,N,11622.7683,E,5.05,345.93,180812,,,A*62
220,
$GPRMC,082150.000,A,3956.0779,N,11622.7676,E,5.24,332.86,180812,,,A*6B
220,
$GPRMC,082151.000,A,3956.0793,N,11622.7669,E,5.12,338.19,180812,,,A*69
220,
$GPRMC,082152.000,A,3956.0807,N,11622.7664,E,4.46,342.26,180812,,,A*64
220,
$GPRMC,082153.000,A,3956.0821,N,11622.7658,E,5.05,343.39,180812,,,A*67
220,
$GPRMC,082154.000,A,3956.0837,N,11622.7652,E,5.30,338.76,180812,,,A*6C
220,
$GPRMC,082155.000,A,3956.0850,N,11622.7645,E,4.14,329.77,180812,,,A*6C
220,
$GPRMC,082156.000,A,3956.0862,N,11622.7638,E,4.01,337.89,180812,,,A*6E
220,
$GPRMC,082157.000,A,3956.0876,N,11622.7632,E,4.36,336.22,180812,,,A*64
220,
$GPRMC,082158.000,A,3956.0890,N,11622.7625,E,4.66,337.28,180812,,,A*6B
219,
$GPRMC,082159.000,A,3956.0904,N,11622.7619,E,4.31,342.02,180812,,,A*61
219,
$GPRMC,082200.000,A,3956.0919,N,11622.7615,E,4.56,342.40,180812,,,A*69
219,
$GPRMC,082201.000,A,3956.0931,N,11622.7610,E,3.67,332.86,180812,,,A*6F
219,
$GPRMC,082202.000,A,3956.0943,N,11622.7604,E,3.97,335.22,180812,,,A*6A
219,
$GPRMC,082203.000,A,3956.0956,N,11622.7597,E,3.88,338.70,180812,,,A*62
219,
$GPRMC,082204.000,A,3956.0970,N,11622.7591,E,4.24,335.19,180812,,,A*64
219,
$GPRMC,082205.000,A,3956.0986,N,11622.7584,E,4.95,338.13,180812,,,A*65
219,
$GPRMC,082206.000,A,3956.1001,N,11622.7577,E,4.09,332.03,180812,,,A*63
218,
$GPRMC,082207.000,A,3956.1015,N,11622.7568,E,4.44,327.75,180812,,,A*65
218,
$GPRMC,082208.000,A,3956.1030,N,11622.7559,E,4.61,333.69,180812,,,A*60
219,
$GPRMC,082209.000,A,3956.1045,N,11622.7552,E,4.95,336.62,180812,,,A*6D
219,
$GPRMC,082210.000,A,3956.1058,N,11622.7546,E,4.10,334.32,180812,,,A*66
220,
$GPRMC,082211.000,A,3956.1071,N,11622.7538,E,4.28,329.59,180812,,,A*6F
222,
$GPRMC,082212.000,A,3956.1083,N,11622.7530,E,4.60,326.21,180812,,,A*65
223,
$GPRMC,082213.000,A,3956.1097,N,11622.7521,E,4.92,327.80,180812,,,A*66
223,
$GPRMC,082214.000,A,3956.1111,N,11622.7512,E,4.97,332.19,180812,,,A*6F
223,
$GPRMC,082215.000,A,3956.1126,N,11622.7504,E,4.26,331.51,180812,,,A*68
223,
$GPRMC,082216.000,A,3956.1142,N,11622.7496,E,5.32,333.92,180812,,,A*6A
222,
$GPRMC,082217.000,A,3956.1159,N,11622.7488,E,5.31,332.49,180812,,,A*6A
223,
$GPRMC,082218.000,A,3956.1175,N,11622.7478,E,4.84,327.55,180812,,,A*62
223,
$GPRMC,082219.000,A,3956.1189,N,11622.7466,E,4.87,323.94,180812,,,A*65
223,
$GPRMC,082220.000,A,3956.1204,N,11622.7456,E,5.23,330.19,180812,,,A*62
223,
$GPRMC,082221.000,A,3956.1218,N,11622.7447,E,4.61,328.51,180812,,,A*6C
223,
$GPRMC,082222.000,A,3956.1231,N,11622.7440,E,4.57,331.97,180812,,,A*64
224,
$GPRMC,082223.000,A,3956.1245,N,11622.7432,E,4.21,331.33,180812,,,A*6C
225,
$GPRMC,082224.000,A,3956.1261,N,11622.7422,E,4.73,330.05,180812,,,A*6F
225,
$GPRMC,082225.000,A,3956.1277,N,11622.7414,E,4.40,330.78,180812,,,A*66
225,
$GPRMC,082226.000,A,3956.1292,N,11622.7406,E,4.51,331.22,180812,,,A*63
225,
$GPRMC,082227.000,A,3956.1307,N,11622.7396,E,4.40,327.66,180812,,,A*66
225,
$GPRMC,082228.000,A,3956.1320,N,11622.7387,E,4.71,330.72,180812,,,A*6D
224,
$GPRMC,082229.000,A,3956.1335,N,11622.7378,E,4.85,330.53,180812,,,A*60
225,
$GPRMC,082230.000,A,3956.1350,N,11622.7370,E,4.89,332.95,180812,,,A*67
225,
$GPRMC,082231.000,A,3956.1368,N,11622.7359,E,5.22,330.61,180812,,,A*6F
225,
$GPRMC,082232.000,A,3956.1383,N,11622.7351,E,3.99,332.34,180812,,,A*65
225,
$GPRMC,082233.000,A,3956.1399,N,11622.7343,E,4.58,327.59,180812,,,A*69
225,
$GPRMC,082234.000,A,3956.1413,N,11622.7335,E,4.33,327.32,180812,,,A*6A
224,
$GPRMC,082235.000,A,3956.1426,N,11622.7328,E,3.05,332.10,180812,,,A*67
224,
$GPRMC,082236.000,A,3956.1441,N,11622.7322,E,4.08,330.33,180812,,,A*66
224,
$GPRMC,082237.000,A,3956.1456,N,11622.7312,E,5.03,327.44,180812,,,A*6E
223,
$GPRMC,082238.000,A,3956.1473,N,11622.7302,E,4.76,328.96,180812,,,A*64
223,
$GPRMC,082239.000,A,3956.1488,N,11622.7293,E,4.19,326.25,180812,,,A*67
223,
$GPRMC,082240.000,A,3956.1502,N,11622.7285,E,4.74,326.42,180812,,,A*67
223,
$GPRMC,082241.000,A,3956.1517,N,11622.7276,E,4.87,325.56,180812,,,A*64
222,
$GPRMC,082242.000,A,3956.1531,N,11622.7268,E,4.59,328.46,180812,,,A*63
222,
$GPRMC,082243.000,A,3956.1545,N,11622.7259,E,4.27,325.33,180812,,,A*65
221,
$GPRMC,082244.000,A,3956.1556,N,11622.7252,E,3.07,323.87,180812,,,A*67
221,
$GPRMC,082245.000,A,3956.1567,N,11622.7245,E,2.98,327.99,180812,,,A*6E
221,
$GPRMC,082246.000,A,3956.1581,N,11622.7239,E,3.50,342.12,180812,,,A*6B
220,
$GPRMC,082247.000,A,3956.1597,N,11622.7235,E,4.34,345.62,180812,,,A*64
220,
$GPRMC,082248.000,A,3956.1614,N,11622.7229,E,4.76,338.33,180812,,,A*66
220,
$GPRMC,082249.000,A,3956.1632,N,11622.7222,E,5.10,343.27,180812,,,A*60
220,
$GPRMC,082250.000,A,3956.1649,N,11622.7218,E,5.59,344.55,180812,,,A*62
220,
$GPRMC,082251.000,A,3956.1667,N,11622.7211,E,5.17,336.77,180812,,,A*69
219,
$GPRMC,082252.000,A,3956.1683,N,11622.7203,E,4.68,339.06,180812,,,A*63
219,
$GPRMC,082253.000,A,3956.1699,N,11622.7195,E,4.73,334.55,180812,,,A*64
219,
$GPRMC,082254.000,A,3956.1717,N,11622.7188,E,5.18,343.92,180812,,,A*6F
219,
$GPRMC,082255.000,A,3956.1735,N,11622.7184,E,4.84,343.41,180812,,,A*68
219,
$GPRMC,082256.000,A,3956.1751,N,11622.7179,E,4.82,342.19,180812,,,A*61
219,
$GPRMC,082257.000,A,3956.1766,N,11622.7174,E,4.23,340.70,180812,,,A*6F
219,
$GPRMC,082258.000,A,3956.1783,N,11622.7166,E,5.29,339.66,180812,,,A*6A
219,
$GPRMC,082259.000,A,3956.1802,N,11622.7156,E,5.10,337.51,180812,,,A*6E
219,
$GPRMC,082300.000,A,3956.1818,N,11622.7149,E,4.17,341.97,180812,,,A*6B
219,
$GPRMC,082301.000,A,3956.1832,N,11622.7145,E,4.25,346.42,180812,,,A*60
219,
$GPRMC,082302.000,A,3956.1848,N,11622.7141,E,4.55,348.96,180812,,,A*6A
219,
$GPRMC,082303.000,A,3956.1865,N,11622.7135,E,4.79,339.40,180812,,,A*64
219,
$GPRMC,082304.000,A,3956.1883,N,11622.7127,E,4.98,340.22,180812,,,A*6D
219,
$GPRMC,082305.000,A,3956.1900,N,11622.7121,E,4.65,341.63,180812,,,A*66
219,
$GPRMC,082306.000,A,3956.1918,N,11622.7115,E,5.00,345.62,180812,,,A*6C
219,
$GPRMC,082307.000,A,3956.1936,N,11622.7109,E,4.86,344.11,180812,,,A*66
219,
$GPRMC,082308.000,A,3956.1955,N,11622.7101,E,5.18,340.16,180812,,,A*61
218,
$GPRMC,082309.000,A,3956.1972,N,11622.7095,E,4.74,343.42,180812,,,A*60
219,
$GPRMC,082310.000,A,3956.1989,N,11622.7089,E,4.90,346.38,180812,,,A*63
219,
$GPRMC,082311.000,A,3956.2008,N,11622.7086,E,4.88,351.63,180812,,,A*6F
219,
$GPRMC,082312.000,A,3956.2025,N,11622.7085,E,4.85,1.54,180812,,,A*6F
219,
$GPRMC,082313.000,A,3956.2042,N,11622.7084,E,4.11,356.20,180812,,,A*61
218,
$GPRMC,082314.000,A,3956.2057,N,11622.7081,E,4.09,345.41,180812,,,A*6B
218,
$GPRMC,082315.000,A,3956.2072,N,11622.7075,E,4.52,339.56,180812,,,A*65
218,
$GPRMC,082316.000,A,3956.2088,N,11622.7069,E,4.54,340.53,180812,,,A*63
218,
$GPRMC,082317.000,A,3956.2105,N,11622.7065,E,6.10,344.85,180812,,,A*67
218,
$GPRMC,082318.000,A,3956.2122,N,11622.7059,E,5.10,342.55,180812,,,A*6A
217,
$GPRMC,082319.000,A,3956.2136,N,11622.7053,E,4.42,334.78,180812,,,A*6C
217,
$GPRMC,082320.000,A,3956.2148,N,11622.7047,E,3.56,343.07,180812,,,A*60
217,
$GPRMC,082321.000,A,3956.2161,N,11622.7045,E,3.71,352.43,180812,,,A*6D
217,
$GPRMC,082322.000,A,3956.2174,N,11622.7044,E,2.93,343.68,180812,,,A*6F
217,
$GPRMC,082323.000,A,3956.2185,N,11622.7041,E,2.85,343.18,180812,,,A*65
217,
$GPRMC,082324.000,A,3956.2197,N,11622.7039,E,3.21,339.00,180812,,,A*65
217,
$GPRMC,082325.000,A,3956.2208,N,11622.7035,E,2.08,332.31,180812,,,A*6E
217,
$GPRMC,082326.000,A,3956.2221,N,11622.7031,E,3.03,346.23,180812,,,A*68
217,
$GPRMC,082327.000,A,3956.2232,N,11622.7030,E,2.77,355.35,180812,,,A*6D
217,
$GPRMC,082328.000,A,3956.2244,N,11622.7029,E,2.66,346.89,180812,,,A*6E
217,
$GPRMC,082329.000,A,3956.2256,N,11622.7025,E,3.32,342.43,180812,,,A*62
217,
$GPRMC,082330.000,A,3956.2266,N,11622.7023,E,3.06,352.06,180812,,,A*68
221,
$GPRMC,082331.000,A,3956.2278,N,11622.7021,E,2.70,352.87,180812,,,A*6D
222,
$GPRMC,082332.000,A,3956.2288,N,11622.7022,E,2.82,6.30,180812,,,A*61
222,
$GPRMC,082333.000,A,3956.2299,N,11622.7024,E,2.57,18.97,180812,,,A*5C
223,
$GPRMC,082334.000,A,3956.2307,N,11622.7029,E,2.39,36.99,180812,,,A*5A
221,
$GPRMC,082335.000,A,3956.2315,N,11622.7037,E,2.35,73.34,180812,,,A*5D
220,
$GPRMC,082336.000,A,3956.2321,N,11622.7046,E,2.54,53.48,180812,,,A*51
220,
$GPRMC,082337.000,A,3956.2328,N,11622.7057,E,2.73,80.35,180812,,,A*58
219,
$GPRMC,082338.000,A,3956.2332,N,11622.7069,E,3.32,81.91,180812,,,A*5A
219,
$GPRMC,082339.000,A,3956.2336,N,11622.7082,E,3.44,76.17,180812,,,A*5D
218,
$GPRMC,082340.000,A,3956.2338,N,11622.7095,E,3.78,91.01,180812,,,A*5A
218,
$GPRMC,082341.000,A,3956.2338,N,11622.7109,E,3.97,91.02,180812,,,A*5D
218,
$GPRMC,082342.000,A,3956.2337,N,11622.7126,E,4.34,99.01,180812,,,A*59
217,
$GPRMC,082343.000,A,3956.2339,N,11622.7142,E,4.16,90.69,180812,,,A*53
217,
$GPRMC,082344.000,A,3956.2342,N,11622.7157,E,4.15,80.54,180812,,,A*50
217,
$GPRMC,082345.000,A,3956.2345,N,11622.7172,E,3.89,85.02,180812,,,A*55
217,
$GPRMC,082346.000,A,3956.2349,N,11622.7186,E,3.58,81.87,180812,,,A*54
217,
$GPRMC,082347.000,A,3956.2353,N,11622.7197,E,2.89,87.09,180812,,,A*53
217,
$GPRMC,082348.000,A,3956.2355,N,11622.7207,E,2.51,78.44,180812,,,A*5C
217,
$GPRMC,082349.000,A,3956.2357,N,11622.7220,E,4.43,89.23,180812,,,A*50
217,
$GPRMC,082350.000,A,3956.2356,N,11622.7236,E,4.20,94.70,180812,,,A*51
217,
$GPRMC,082351.000,A,3956.2356,N,11622.7252,E,4.15,96.88,180812,,,A*51
216,
$GPRMC,082352.000,A,3956.2357,N,11622.7268,E,4.46,93.24,180812,,,A*5F
216,
$GPRMC,082353.000,A,3956.2351,N,11622.7285,E,4.89,120.65,180812,,,A*64
216,
$GPRMC,082354.000,A,3956.2349,N,11622.7298,E,3.21,117.41,180812,,,A*61
216,
$GPRMC,082355.000,A,3956.2347,N,11622.7313,E,3.75,101.33,180812,,,A*6F
216,
$GPRMC,082356.000,A,3956.2351,N,11622.7329,E,3.89,78.59,180812,,,A*52
216,
$GPRMC,082357.000,A,3956.2360,N,11622.7348,E,4.63,73.73,180812,,,A*56
216,
$GPRMC,082358.000,A,3956.2366,N,11622.7365,E,4.21,77.74,180812,,,A*55
216,
$GPRMC,082359.000,A,3956.2371,N,11622.7384,E,4.96,84.48,180812,,,A*52
216,
$GPRMC,082400.000,A,3956.2375,N,11622.7405,E,4.97,81.91,180812,,,A*53
216,
$GPRMC,082401.000,A,3956.2380,N,11622.7423,E,4.79,83.21,180812,,,A*55
216,
$GPRMC,082402.000,A,3956.2383,N,11622.7442,E,4.93,83.42,180812,,,A*53
217,
$GPRMC,082403.000,A,3956.2385,N,11622.7463,E,5.02,90.15,180812,,,A*5E
217,
$GPRMC,082404.000,A,3956.2384,N,11622.7483,E,5.13,94.68,180812,,,A*58
217,
$GPRMC,082405.000,A,3956.2388,N,11622.7504,E,5.40,74.26,180812,,,A*59
216,
$GPRMC,082406.000,A,3956.2393,N,11622.7526,E,5.48,73.34,180812,,,A*5C
216,
$GPRMC,082407.000,A,3956.2399,N,11622.7545,E,4.69,69.12,180812,,,A*5F
216,
$GPRMC,082408.000,A,3956.2405,N,11622.7562,E,3.91,67.53,180812,,,A*5C
216,
$GPRMC,082409.000,A,3956.2413,N,11622.7578,E,4.15,66.10,180812,,,A*5C
216,
$GPRMC,082410.000,A,3956.2416,N,11622.7596,E,4.16,82.27,180812,,,A*5C
216,
$GPRMC,082411.000,A,3956.2421,N,11622.7615,E,4.67,78.37,180812,,,A*53
216,
$GPRMC,082412.000,A,3956.2421,N,11622.7635,E,4.39,76.04,180812,,,A*57
216,
$GPRMC,082413.000,A,3956.2427,N,11622.7653,E,4.13,64.74,180812,,,A*5C
216,
$GPRMC,082414.000,A,3956.2436,N,11622.7672,E,4.57,60.04,180812,,,A*5B
216,
$GPRMC,082415.000,A,3956.2442,N,11622.7692,E,4.77,75.23,180812,,,A*54
216,
$GPRMC,082416.000,A,3956.2447,N,11622.7716,E,5.30,68.62,180812,,,A*54
216,
$GPRMC,082417.000,A,3956.2451,N,11622.7737,E,4.81,78.58,180812,,,A*52
216,
$GPRMC,082418.000,A,3956.2456,N,11622.7760,E,5.68,67.57,180812,,,A*5F
216,
$GPRMC,082419.000,A,3956.2461,N,11622.7782,E,5.78,77.73,180812,,,A*50
216,
$GPRMC,082420.000,A,3956.2464,N,11622.7804,E,5.76,74.51,180812,,,A*53
216,
$GPRMC,082421.000,A,3956.2464,N,11622.7825,E,5.36,81.25,180812,,,A*5C
216,
$GPRMC,082422.000,A,3956.2463,N,11622.7846,E,4.93,87.77,180812,,,A*52
216,
$GPRMC,082423.000,A,3956.2463,N,11622.7867,E,5.20,88.27,180812,,,A*53
216,
$GPRMC,082424.000,A,3956.2464,N,11622.7889,E,5.63,82.30,180812,,,A*58
216,
$GPRMC,082425.000,A,3956.2467,N,11622.7912,E,5.08,81.22,180812,,,A*54
216,
$GPRMC,082426.000,A,3956.2469,N,11622.7933,E,5.11,97.86,180812,,,A*5B
216,
$GPRMC,082427.000,A,3956.2467,N,11622.7952,E,5.33,87.53,180812,,,A*5A
216,
$GPRMC,082428.000,A,3956.2468,N,11622.7975,E,5.68,84.14,180812,,,A*51
216,
$GPRMC,082429.000,A,3956.2470,N,11622.7999,E,5.99,84.22,180812,,,A*50
216,
$GPRMC,082430.000,A,3956.2472,N,11622.8022,E,5.75,84.29,180812,,,A*55
217,
$GPRMC,082431.000,A,3956.2474,N,11622.8045,E,5.79,85.87,180812,,,A*5A
217,
$GPRMC,082432.000,A,3956.2475,N,11622.8067,E,5.55,85.38,180812,,,A*52
216,
$GPRMC,082433.000,A,3956.2478,N,11622.8089,E,5.58,77.73,180812,,,A*51
216,
$GPRMC,082434.000,A,3956.2482,N,11622.8110,E,5.69,76.61,180812,,,A*52
216,
$GPRMC,082435.000,A,3956.2486,N,11622.8132,E,5.56,79.73,180812,,,A*57
216,
$GPRMC,082436.000,A,3956.2490,N,11622.8154,E,5.47,77.53,180812,,,A*5F
216,
$GPRMC,082437.000,A,3956.2495,N,11622.8174,E,5.54,75.54,180812,,,A*5E
216,
$GPRMC,082438.000,A,3956.2499,N,11622.8196,E,5.68,78.19,180812,,,A*5A
216,
$GPRMC,082439.000,A,3956.2502,N,11622.8218,E,5.60,79.70,180812,,,A*5B
216,
$GPRMC,082440.000,A,3956.2507,N,11622.8239,E,4.87,84.09,180812,,,A*57
216,
$GPRMC,082441.000,A,3956.2509,N,11622.8258,E,4.54,84.31,180812,,,A*5A
216,
$GPRMC,082442.000,A,3956.2515,N,11622.8274,E,3.81,61.75,180812,,,A*5E
217,
$GPRMC,082443.000,A,3956.2523,N,11622.8284,E,3.92,25.63,180812,,,A*50
217,
$GPRMC,082444.000,A,3956.2538,N,11622.8289,E,4.88,5.76,180812,,,A*6A
217,
$GPRMC,082445.000,A,3956.2553,N,11622.8292,E,4.93,3.64,180812,,,A*63
217,
$GPRMC,082446.000,A,3956.2569,N,11622.8294,E,5.15,0.12,180812,,,A*62
218,
$GPRMC,082447.000,A,3956.2585,N,11622.8294,E,4.93,351.21,180812,,,A*69
218,
$GPRMC,082448.000,A,3956.2600,N,11622.8292,E,5.01,353.92,180812,,,A*6E
218,
$GPRMC,082449.000,A,3956.2616,N,11622.8291,E,5.22,354.67,180812,,,A*67
218,
$GPRMC,082450.000,A,3956.2631,N,11622.8293,E,4.62,9.61,180812,,,A*60
218,
$GPRMC,082451.000,A,3956.2645,N,11622.8300,E,4.66,36.29,180812,,,A*5D
219,
$GPRMC,082452.000,A,3956.2654,N,11622.8313,E,4.54,57.34,180812,,,A*56
220,
$GPRMC,082453.000,A,3956.2663,N,11622.8327,E,3.97,61.96,180812,,,A*51
220,
$GPRMC,082454.000,A,3956.2670,N,11622.8339,E,4.17,49.34,180812,,,A*56
220,
$GPRMC,082455.000,A,3956.2681,N,11622.8351,E,5.48,36.41,180812,,,A*56
220,
$GPRMC,082456.000,A,3956.2693,N,11622.8364,E,4.20,53.85,180812,,,A*54
219,
$GPRMC,082457.000,A,3956.2699,N,11622.8380,E,4.06,90.03,180812,,,A*50
220,
$GPRMC,082458.000,A,3956.2699,N,11622.8396,E,4.32,99.13,180812,,,A*57
220,
$GPRMC,082459.000,A,3956.2699,N,11622.8416,E,4.95,98.95,180812,,,A*5B
220,
$GPRMC,082500.000,A,3956.2696,N,11622.8435,E,5.04,104.75,180812,,,A*6B
219,
$GPRMC,082501.000,A,3956.2693,N,11622.8453,E,4.93,111.43,180812,,,A*61
219,
$GPRMC,082502.000,A,3956.2688,N,11622.8471,E,4.84,118.06,180812,,,A*66
219,
$GPRMC,082503.000,A,3956.2681,N,11622.8488,E,5.05,118.86,180812,,,A*68
219,
$GPRMC,082504.000,A,3956.2676,N,11622.8506,E,5.02,113.01,180812,,,A*63
218,
$GPRMC,082505.000,A,3956.2673,N,11622.8527,E,5.44,107.59,180812,,,A*6E
218,
$GPRMC,082506.000,A,3956.2671,N,11622.8548,E,5.44,104.78,180812,,,A*66
218,
$GPRMC,082507.000,A,3956.2670,N,11622.8571,E,5.70,97.32,180812,,,A*5E
218,
$GPRMC,082508.000,A,3956.2669,N,11622.8594,E,5.47,106.01,180812,,,A*6F
218,
$GPRMC,082509.000,A,3956.2668,N,11622.8615,E,5.43,100.40,180812,,,A*62
218,
$GPRMC,082510.000,A,3956.2668,N,11622.8638,E,5.48,102.20,180812,,,A*6A
218,
$GPRMC,082511.000,A,3956.2669,N,11622.8661,E,5.29,104.95,180812,,,A*69
218,
$GPRMC,082512.000,A,3956.2669,N,11622.8683,E,5.15,109.28,180812,,,A*62
218,
$GPRMC,082513.000,A,3956.2668,N,11622.8705,E,5.24,103.76,180812,,,A*6E
217,
$GPRMC,082514.000,A,3956.2667,N,11622.8726,E,5.22,101.95,180812,,,A*6E
217,
$GPRMC,082515.000,A,3956.2667,N,11622.8745,E,5.30,97.66,180812,,,A*5B
217,
$GPRMC,082516.000,A,3956.2664,N,11622.8763,E,4.45,106.04,180812,,,A*61
217,
$GPRMC,082517.000,A,3956.2659,N,11622.8779,E,4.82,122.37,180812,,,A*68
217,
$GPRMC,082518.000,A,3956.2654,N,11622.8798,E,5.06,112.92,180812,,,A*64
217,
$GPRMC,082519.000,A,3956.2651,N,11622.8817,E,4.84,115.49,180812,,,A*62
217,
$GPRMC,082520.000,A,3956.2647,N,11622.8836,E,5.49,104.60,180812,,,A*67
217,
$GPRMC,082521.000,A,3956.2645,N,11622.8857,E,5.42,99.81,180812,,,A*52
216,
$GPRMC,082522.000,A,3956.2644,N,11622.8879,E,5.35,98.40,180812,,,A*50
216,
$GPRMC,082523.000,A,3956.2642,N,11622.8899,E,5.13,108.24,180812,,,A*67
216,
$GPRMC,082524.000,A,3956.2640,N,11622.8919,E,5.31,104.46,180812,,,A*63
216,
$GPRMC,082525.000,A,3956.2640,N,11622.8941,E,5.66,101.15,180812,,,A*6E
216,
$GPRMC,082526.000,A,3956.2642,N,11622.8964,E,5.01,101.82,180812,,,A*67
216,
$GPRMC,082527.000,A,3956.2644,N,11622.8986,E,5.28,113.15,180812,,,A*6A
216,
$GPRMC,082528.000,A,3956.2649,N,11622.9009,E,4.86,95.54,180812,,,A*58
216,
$GPRMC,082529.000,A,3956.2654,N,11622.9030,E,4.58,93.82,180812,,,A*51
216,
$GPRMC,082530.000,A,3956.2657,N,11622.9049,E,4.28,98.76,180812,,,A*53
216,
$GPRMC,082531.000,A,3956.2661,N,11622.9067,E,4.10,88.96,180812,,,A*5F
216,
$GPRMC,082532.000,A,3956.2663,N,11622.9085,E,3.68,89.16,180812,,,A*53
216,
$GPRMC,082533.000,A,3956.2664,N,11622.9100,E,3.93,93.68,180812,,,A*5F
216,
$GPRMC,082534.000,A,3956.2667,N,11622.9117,E,3.74,97.38,180812,,,A*55
216,
$GPRMC,082535.000,A,3956.2666,N,11622.9133,E,4.07,97.65,180812,,,A*58
216,
$GPRMC,082536.000,A,3956.2668,N,11622.9152,E,4.56,88.86,180812,,,A*55
216,
$GPRMC,082537.000,A,3956.2668,N,11622.9170,E,4.85,96.40,180812,,,A*5F
216,
$GPRMC,082538.000,A,3956.2666,N,11622.9190,E,5.02,104.99,180812,,,A*60
216,
$GPRMC,082539.000,A,3956.2663,N,11622.9209,E,5.26,110.76,180812,,,A*65
216,
$GPRMC,082540.000,A,3956.2658,N,11622.9228,E,5.60,105.49,180812,,,A*6A
216,
$GPRMC,082541.000,A,3956.2657,N,11622.9246,E,4.47,107.44,180812,,,A*67
216,
$GPRMC,082542.000,A,3956.2656,N,11622.9263,E,4.66,100.47,180812,,,A*65
216,
$GPRMC,082543.000,A,3956.2653,N,11622.9282,E,4.94,104.51,180812,,,A*60
216,
$GPRMC,082544.000,A,3956.2651,N,11622.9301,E,4.98,101.43,180812,,,A*65
216,
$GPRMC,082545.000,A,3956.2651,N,11622.9319,E,4.62,97.75,180812,,,A*53
216,
$GPRMC,082546.000,A,3956.2652,N,11622.9334,E,3.32,100.66,180812,,,A*63
216,
$GPRMC,082547.000,A,3956.2653,N,11622.9346,E,2.65,86.53,180812,,,A*5C
216,
$GPRMC,082548.000,A,3956.2658,N,11622.9357,E,2.52,68.55,180812,,,A*5A
216,
$GPRMC,082549.000,A,3956.2663,N,11622.9367,E,1.91,60.70,180812,,,A*53
216,
$GPRMC,082550.000,A,3956.2672,N,11622.9373,E,3.06,3.02,180812,,,A*62
215,
$GPRMC,082551.000,A,3956.2686,N,11622.9378,E,3.42,3.36,180812,,,A*64
216,
$GPRMC,082552.000,A,3956.2701,N,11622.9384,E,4.41,3.74,180812,,,A*68
215,
$GPRMC,082553.000,A,3956.2717,N,11622.9388,E,4.82,4.23,180812,,,A*68
215,
$GPRMC,082554.000,A,3956.2734,N,11622.9390,E,5.07,2.08,180812,,,A*64
215,
$GPRMC,082555.000,A,3956.2751,N,11622.9392,E,5.46,3.97,180812,,,A*66
215,
$GPRMC,082556.000,A,3956.2769,N,11622.9394,E,6.08,3.43,180812,,,A*68
215,
$GPRMC,082557.000,A,3956.2787,N,11622.9393,E,5.53,354.27,180812,,,A*60
215,
$GPRMC,082558.000,A,3956.2803,N,11622.9394,E,4.49,359.37,180812,,,A*6D
215,
$GPRMC,082559.000,A,3956.2818,N,11622.9396,E,3.85,9.55,180812,,,A*61
214,
$GPRMC,082600.000,A,3956.2834,N,11622.9401,E,4.76,10.70,180812,,,A*5D
214,
$GPRMC,082601.000,A,3956.2853,N,11622.9405,E,5.47,6.01,180812,,,A*6B
214,
$GPRMC,082602.000,A,3956.2871,N,11622.9411,E,4.23,10.32,180812,,,A*59
214,
$GPRMC,082603.000,A,3956.2883,N,11622.9417,E,2.52,3.83,180812,,,A*6B
215,
$GPRMC,082604.000,A,3956.2895,N,11622.9423,E,2.41,22.03,180812,,,A*55
215,
$GPRMC,082605.000,A,3956.2910,N,11622.9431,E,3.65,8.84,180812,,,A*6B
215,
$GPRMC,082606.000,A,3956.2925,N,11622.9438,E,4.07,18.49,180812,,,A*54
215,
$GPRMC,082607.000,A,3956.2939,N,11622.9451,E,4.12,50.36,180812,,,A*57
215,
$GPRMC,082608.000,A,3956.2949,N,11622.9469,E,4.74,79.64,180812,,,A*58
215,
$GPRMC,082609.000,A,3956.2952,N,11622.9490,E,5.61,93.24,180812,,,A*50
215,
$GPRMC,082610.000,A,3956.2955,N,11622.9510,E,5.40,100.64,180812,,,A*6A
215,
$GPRMC,082611.000,A,3956.2955,N,11622.9533,E,5.69,101.44,180812,,,A*62
215,
$GPRMC,082612.000,A,3956.2952,N,11622.9554,E,5.13,111.80,180812,,,A*63
215,
$GPRMC,082613.000,A,3956.2949,N,11622.9574,E,5.37,106.18,180812,,,A*6B
215,
$GPRMC,082614.000,A,3956.2950,N,11622.9594,E,4.95,102.65,180812,,,A*6D
215,
$GPRMC,082615.000,A,3956.2951,N,11622.9614,E,5.13,106.44,180812,,,A*6E
215,
$GPRMC,082616.000,A,3956.2950,N,11622.9631,E,4.29,101.01,180812,,,A*65
215,
$GPRMC,082617.000,A,3956.2949,N,11622.9648,E,4.35,111.85,180812,,,A*62
215,
$GPRMC,082618.000,A,3956.2947,N,11622.9662,E,3.50,112.50,180812,,,A*64
215,
$GPRMC,082619.000,A,3956.2947,N,11622.9678,E,3.72,105.37,180812,,,A*69
215,
$GPRMC,082620.000,A,3956.2947,N,11622.9697,E,4.69,114.83,180812,,,A*60
215,
$GPRMC,082621.000,A,3956.2946,N,11622.9714,E,3.40,109.82,180812,,,A*6B
215,
$GPRMC,082622.000,A,3956.2945,N,11622.9731,E,4.41,101.85,180812,,,A*65
215,
$GPRMC,082623.000,A,3956.2941,N,11622.9750,E,5.16,113.57,180812,,,A*68
215,
$GPRMC,082624.000,A,3956.2936,N,11622.9770,E,5.49,117.29,180812,,,A*6A
215,
$GPRMC,082625.000,A,3956.2929,N,11622.9789,E,5.62,118.32,180812,,,A*6F
215,
$GPRMC,082626.000,A,3956.2923,N,11622.9809,E,5.43,123.28,180812,,,A*61
215,
$GPRMC,082627.000,A,3956.2917,N,11622.9827,E,4.93,110.16,180812,,,A*6A
215,
$GPRMC,082628.000,A,3956.2913,N,11622.9846,E,5.36,108.40,180812,,,A*62
215,
$GPRMC,082629.000,A,3956.2910,N,11622.9865,E,4.75,112.61,180812,,,A*6F
214,
$GPRMC,082630.000,A,3956.2908,N,11622.9883,E,4.41,102.01,180812,,,A*66
214,
$GPRMC,082631.000,A,3956.2906,N,11622.9899,E,4.36,109.67,180812,,,A*69
214,
$GPRMC,082632.000,A,3956.2902,N,11622.9918,E,4.99,112.83,180812,,,A*63
214,
$GPRMC,082633.000,A,3956.2899,N,11622.9936,E,5.05,109.95,180812,,,A*64
214,
$GPRMC,082634.000,A,3956.2897,N,11622.9956,E,4.87,105.16,180812,,,A*67
214,
$GPRMC,082635.000,A,3956.2896,N,11622.9977,E,4.92,107.02,180812,,,A*67
214,
$GPRMC,082636.000,A,3956.2893,N,11622.9995,E,4.86,106.55,180812,,,A*6B
214,
$GPRMC,082637.000,A,3956.2891,N,11623.0012,E,3.58,97.52,180812,,,A*5C
214,
$GPRMC,082638.000,A,3956.2889,N,11623.0027,E,3.36,106.81,180812,,,A*63
214,
$GPRMC,082639.000,A,3956.2887,N,11623.0041,E,3.65,109.17,180812,,,A*6A
214,
$GPRMC,082640.000,A,3956.2882,N,11623.0055,E,4.35,124.12,180812,,,A*6C
214,
$GPRMC,082641.000,A,3956.2878,N,11623.0073,E,4.68,114.65,180812,,,A*67
214,
$GPRMC,082642.000,A,3956.2875,N,11623.0093,E,5.14,112.65,180812,,,A*6B
214,
$GPRMC,082643.000,A,3956.2870,N,11623.0113,E,4.94,116.36,180812,,,A*6D
214,
$GPRMC,082644.000,A,3956.2866,N,11623.0133,E,5.07,111.98,180812,,,A*67
214,
$GPRMC,082645.000,A,3956.2863,N,11623.0155,E,5.28,109.31,180812,,,A*64
214,
$GPRMC,082646.000,A,3956.2862,N,11623.0176,E,5.03,104.51,180812,,,A*65
214,
$GPRMC,082647.000,A,3956.2861,N,11623.0195,E,4.23,97.61,180812,,,A*51
214,
$GPRMC,082648.000,A,3956.2860,N,11623.0216,E,4.77,103.62,180812,,,A*69
213,
$GPRMC,082649.000,A,3956.2857,N,11623.0236,E,5.66,106.54,180812,,,A*6F
213,
$GPRMC,082650.000,A,3956.2853,N,11623.0258,E,5.41,111.01,180812,,,A*68
213,
$GPRMC,082651.000,A,3956.2847,N,11623.0280,E,5.58,114.59,180812,,,A*69
213,
$GPRMC,082652.000,A,3956.2840,N,11623.0302,E,5.57,115.44,180812,,,A*64
213,
$GPRMC,082653.000,A,3956.2837,N,11623.0321,E,4.77,106.16,180812,,,A*62
213,
$GPRMC,082654.000,A,3956.2835,N,11623.0341,E,3.79,96.74,180812,,,A*54
213,
$GPRMC,082655.000,A,3956.2832,N,11623.0359,E,4.91,115.66,180812,,,A*63
213,
$GPRMC,082656.000,A,3956.2826,N,11623.0378,E,4.70,126.97,180812,,,A*67
213,
$GPRMC,082657.000,A,3956.2821,N,11623.0399,E,4.86,115.78,180812,,,A*66
213,
$GPRMC,082658.000,A,3956.2818,N,11623.0420,E,5.14,104.65,180812,,,A*60
213,
$GPRMC,082659.000,A,3956.2816,N,11623.0440,E,4.57,104.76,180812,,,A*6D
213,
$GPRMC,082700.000,A,3956.2814,N,11623.0458,E,3.28,110.48,180812,,,A*6C
213,
$GPRMC,082701.000,A,3956.2814,N,11623.0468,E,1.67,108.00,180812,,,A*62
214,
$GPRMC,082702.000,A,3956.2814,N,11623.0475,E,1.28,110.99,180812,,,A*6F
214,
$GPRMC,082703.000,A,3956.2814,N,11623.0482,E,1.26,106.68,180812,,,A*61
214,
$GPRMC,082704.000,A,3956.2816,N,11623.0489,E,2.29,95.28,180812,,,A*5C
214,
$GPRMC,082705.000,A,3956.2817,N,11623.0500,E,2.63,82.66,180812,,,A*5E
213,
$GPRMC,082706.000,A,3956.2818,N,11623.0513,E,2.44,97.37,180812,,,A*55
213,
$GPRMC,082707.000,A,3956.2817,N,11623.0526,E,3.02,105.97,180812,,,A*6E
213,
$GPRMC,082708.000,A,3956.2815,N,11623.0539,E,2.72,105.68,180812,,,A*6B
213,
$GPRMC,082709.000,A,3956.2814,N,11623.0552,E,3.23,110.11,180812,,,A*69
213,
$GPRMC,082710.000,A,3956.2810,N,11623.0566,E,3.67,125.69,180812,,,A*6B
213,
$GPRMC,082711.000,A,3956.2803,N,11623.0579,E,3.83,130.41,180812,,,A*62
213,
$GPRMC,082712.000,A,3956.2795,N,11623.0594,E,3.88,134.72,180812,,,A*6D
213,
$GPRMC,082713.000,A,3956.2789,N,11623.0603,E,2.26,145.32,180812,,,A*6B
213,
$GPRMC,082714.000,A,3956.2787,N,11623.0610,E,1.44,122.98,180812,,,A*66
213,
$GPRMC,082715.000,A,3956.2787,N,11623.0619,E,2.50,86.21,180812,,,A*55
213,
$GPRMC,082716.000,A,3956.2789,N,11623.0633,E,2.58,74.16,180812,,,A*51
213,
$GPRMC,082717.000,A,3956.2789,N,11623.0647,E,3.36,90.87,180812,,,A*58
213,
$GPRMC,082718.000,A,3956.2787,N,11623.0663,E,4.11,100.07,180812,,,A*6D
213,
$GPRMC,082719.000,A,3956.2784,N,11623.0680,E,4.23,109.88,180812,,,A*6D
213,
$GPRMC,082720.000,A,3956.2779,N,11623.0696,E,4.21,117.04,180812,,,A*6B
213,
$GPRMC,082721.000,A,3956.2771,N,11623.0713,E,4.72,121.80,180812,,,A*61
213,
$GPRMC,082722.000,A,3956.2765,N,11623.0731,E,4.88,115.98,180812,,,A*6C
213,
$GPRMC,082723.000,A,3956.2759,N,11623.0749,E,4.98,120.87,180812,,,A*64
213,
$GPRMC,082724.000,A,3956.2754,N,11623.0769,E,5.02,108.69,180812,,,A*64
213,
$GPRMC,082725.000,A,3956.2749,N,11623.0788,E,4.94,114.38,180812,,,A*61
213,
$GPRMC,082726.000,A,3956.2744,N,11623.0807,E,4.95,119.56,180812,,,A*63
212,
$GPRMC,082727.000,A,3956.2738,N,11623.0826,E,4.96,122.47,180812,,,A*61
212,
$GPRMC,082728.000,A,3956.2736,N,11623.0843,E,3.75,105.24,180812,,,A*69
212,
$GPRMC,082729.000,A,3956.2734,N,11623.0861,E,3.74,102.93,180812,,,A*60
212,
$GPRMC,082730.000,A,3956.2732,N,11623.0879,E,4.59,112.51,180812,,,A*60
212,
$GPRMC,082731.000,A,3956.2728,N,11623.0898,E,4.52,121.17,180812,,,A*6C
212,
$GPRMC,082732.000,A,3956.2724,N,11623.0917,E,4.83,112.13,180812,,,A*6D
212,
$GPRMC,082733.000,A,3956.2722,N,11623.0936,E,4.60,114.65,180812,,,A*63
212,
$GPRMC,082734.000,A,3956.2718,N,11623.0956,E,5.16,119.47,180812,,,A*66
212,
$GPRMC,082735.000,A,3956.2713,N,11623.0977,E,5.35,121.30,180812,,,A*65
212,
$GPRMC,082736.000,A,3956.2708,N,11623.0998,E,5.17,110.13,180812,,,A*6E
212,
$GPRMC,082737.000,A,3956.2705,N,11623.1018,E,5.03,118.43,180812,,,A*6A
212,
$GPRMC,082738.000,A,3956.2703,N,11623.1039,E,4.89,110.60,180812,,,A*6A
212,
$GPRMC,082739.000,A,3956.2701,N,11623.1058,E,4.57,119.45,180812,,,A*63
212,
$GPRMC,082740.000,A,3956.2697,N,11623.1078,E,4.72,116.21,180812,,,A*6B
212,
$GPRMC,082741.000,A,3956.2691,N,11623.1097,E,5.15,123.03,180812,,,A*6B
212,
$GPRMC,082742.000,A,3956.2685,N,11623.1117,E,5.05,122.35,180812,,,A*61
212,
$GPRMC,082743.000,A,3956.2680,N,11623.1137,E,5.22,121.20,180812,,,A*65
212,
$GPRMC,082744.000,A,3956.2676,N,11623.1155,E,5.15,118.68,180812,,,A*6D
212,
$GPRMC,082745.000,A,3956.2672,N,11623.1176,E,5.12,115.73,180812,,,A*69
212,
$GPRMC,082746.000,A,3956.2669,N,11623.1196,E,5.08,111.32,180812,,,A*64
212,
$GPRMC,082747.000,A,3956.2665,N,11623.1215,E,4.90,114.49,180812,,,A*68
212,
$GPRMC,082748.000,A,3956.2662,N,11623.1234,E,5.06,118.59,180812,,,A*60
212,
$GPRMC,082749.000,A,3956.2659,N,11623.1254,E,4.99,117.20,180812,,,A*69
212,
$GPRMC,082750.000,A,3956.2656,N,11623.1274,E,4.96,109.35,180812,,,A*68
212,
$GPRMC,082751.000,A,3956.2654,N,11623.1294,E,4.91,116.90,180812,,,A*63
212,
$GPRMC,082752.000,A,3956.2651,N,11623.1312,E,4.67,107.22,180812,,,A*6A
212,
$GPRMC,082753.000,A,3956.2647,N,11623.1331,E,5.07,120.69,180812,,,A*60
212,
$GPRMC,082754.000,A,3956.2643,N,11623.1351,E,4.92,115.43,180812,,,A*66
212,
$GPRMC,082755.000,A,3956.2640,N,11623.1370,E,4.69,116.00,180812,,,A*67
212,
$GPRMC,082756.000,A,3956.2639,N,11623.1388,E,4.39,108.66,180812,,,A*67
211,
$GPRMC,082757.000,A,3956.2638,N,11623.1406,E,4.14,115.38,180812,,,A*6E
212,
$GPRMC,082758.000,A,3956.2634,N,11623.1424,E,4.82,118.53,180812,,,A*62
212,
$GPRMC,082759.000,A,3956.2632,N,11623.1441,E,4.34,125.35,180812,,,A*65
212,
$GPRMC,082800.000,A,3956.2630,N,11623.1456,E,3.10,117.50,180812,,,A*61
212,
$GPRMC,082801.000,A,3956.2629,N,11623.1468,E,3.24,121.95,180812,,,A*6E
212,
$GPRMC,082802.000,A,3956.2629,N,11623.1482,E,3.48,108.23,180812,,,A*65
212,
$GPRMC,082803.000,A,3956.2628,N,11623.1497,E,3.21,102.09,180812,,,A*6C
212,
$GPRMC,082804.000,A,3956.2626,N,11623.1514,E,4.41,102.24,180812,,,A*61
212,
$GPRMC,082805.000,A,3956.2626,N,11623.1533,E,4.57,100.53,180812,,,A*60
212,
$GPRMC,082806.000,A,3956.2626,N,11623.1552,E,4.06,101.57,180812,,,A*65
212,
$GPRMC,082807.000,A,3956.2626,N,11623.1568,E,3.00,99.41,180812,,,A*5B
212,
$GPRMC,082808.000,A,3956.2625,N,11623.1583,E,3.05,111.11,180812,,,A*63
212,
$GPRMC,082809.000,A,3956.2622,N,11623.1598,E,3.94,115.41,180812,,,A*66
212,
