$GPRMC,075912.828,A,3956.0426,N,11622.2920,E,0.15,132.22,180812,,,A*64
163,
$GPRMC,075913.828,A,3956.0390,N,11622.2918,E,0.50,195.44,180812,,,A*68
177,
$GPRMC,075914.828,A,3956.0380,N,11622.2922,E,0.72,173.24,180812,,,A*69
188,
$GPRMC,075915.828,A,3956.0356,N,11622.2945,E,0.10,134.34,180812,,,A*64
196,
$GPRMC,075916.827,A,3956.0363,N,11622.2947,E,0.24,178.40,180812,,,A*60
203,
$GPRMC,075917.827,A,3956.0367,N,11622.2952,E,0.41,7.96,180812,,,A*60
208,
$GPRMC,075918.827,A,3956.0373,N,11622.2946,E,0.50,319.20,180812,,,A*6E
212,
$GPRMC,075921.000,A,3956.0365,N,11622.2951,E,0.54,179.29,180812,,,A*61
219,
$GPRMC,075922.000,A,3956.0355,N,11622.2953,E,0.37,170.40,180812,,,A*60
221,
$GPRMC,075923.000,A,3956.0348,N,11622.2955,E,0.17,108.21,180812,,,A*61
222,
$GPRMC,075924.000,A,3956.0342,N,11622.2958,E,0.08,84.20,180812,,,A*5B
223,
$GPRMC,075925.000,A,3956.0336,N,11622.2959,E,0.16,90.56,180812,,,A*53
223,
$GPRMC,075926.000,A,3956.0334,N,11622.2963,E,0.47,27.05,180812,,,A*55
224,
$GPRMC,075927.000,A,3956.0332,N,11622.2969,E,0.52,30.15,180812,,,A*5B
224,
$GPRMC,075928.000,A,3956.0336,N,11622.2972,E,0.13,337.58,180812,,,A*62
224,
$GPRMC,075929.000,A,3956.0339,N,11622.2973,E,0.19,148.22,180812,,,A*60
224,
$GPRMC,075930.000,A,3956.0340,N,11622.2971,E,0.38,221.80,180812,,,A*63
225,
$GPRMC,075931.000,A,3956.0340,N,11622.2969,E,0.05,308.38,180812,,,A*6C
225,
$GPRMC,075932.000,A,3956.0340,N,11622.2968,E,0.57,31.69,180812,,,A*54
225,
$GPRMC,075933.000,A,3956.0339,N,11622.2972,E,0.68,69.62,180812,,,A*5A
225,
$GPRMC,075934.000,A,3956.0339,N,11622.2977,E,0.44,90.02,180812,,,A*56
225,
$GPRMC,075935.000,A,3956.0339,N,11622.2979,E,0.25,128.39,180812,,,A*64
224,
$GPRMC,075936.000,A,3956.0339,N,11622.2981,E,0.41,120.45,180812,,,A*61
224,
$GPRMC,075937.000,A,3956.0339,N,11622.2983,E,0.10,264.24,180812,,,A*62
224,
$GPRMC,075938.000,A,3956.0341,N,11622.2981,E,0.44,302.22,180812,,,A*66
224,
$GPRMC,075939.000,A,3956.0343,N,11622.2981,E,0.25,302.22,180812,,,A*62
223,
$GPRMC,075940.000,A,3956.0344,N,11622.2980,E,0.31,294.50,180812,,,A*64
223,
$GPRMC,075941.000,A,3956.0347,N,11622.2978,E,0.37,316.11,180812,,,A*69
223,
$GPRMC,075942.000,A,3956.0351,N,11622.2976,E,0.17,336.28,180812,,,A*69
223,
$GPRMC,075943.000,A,3956.0350,N,11622.2977,E,0.10,105.06,180812,,,A*61
223,
$GPRMC,075944.000,A,3956.0352,N,11622.2975,E,0.11,135.77,180812,,,A*62
223,
$GPRMC,075945.000,A,3956.0351,N,11622.2978,E,0.28,123.15,180812,,,A*64
222,
$GPRMC,075946.000,A,3956.0349,N,11622.2981,E,0.11,301.68,180812,,,A*6A
222,
$GPRMC,075947.000,A,3956.0348,N,11622.2983,E,0.03,192.35,180812,,,A*6B
222,
$GPRMC,075948.000,A,3956.0348,N,11622.2984,E,0.33,304.83,180812,,,A*60
222,
$GPRMC,075949.000,A,3956.0346,N,11622.2986,E,0.12,122.13,180812,,,A*61
221,
$GPRMC,075950.000,A,3956.0344,N,11622.2989,E,0.46,122.66,180812,,,A*67
221,
$GPRMC,075951.000,A,3956.0341,N,11622.2993,E,0.49,127.67,180812,,,A*63
221,
$GPRMC,075952.000,A,3956.0341,N,11622.2994,E,0.12,280.28,180812,,,A*6C
221,
$GPRMC,075953.000,A,3956.0339,N,11622.2997,E,0.46,128.73,180812,,,A*6F
221,
$GPRMC,075954.000,A,3956.0338,N,11622.2998,E,0.51,120.29,180812,,,A*67
221,
$GPRMC,075955.000,A,3956.0338,N,11622.2999,E,0.19,113.68,180812,,,A*6E
221,
$GPRMC,075956.000,A,3956.0340,N,11622.2996,E,0.07,99.53,180812,,,A*59
222,
$GPRMC,075957.000,A,3956.0343,N,11622.2993,E,0.26,165.98,180812,,,A*68
222,
$GPRMC,075958.000,A,3956.0343,N,11622.2991,E,0.61,131.19,180812,,,A*6E
221,
$GPRMC,075959.000,A,3956.0342,N,11622.2993,E,0.56,122.82,180812,,,A*68
221,
$GPRMC,080000.000,A,3956.0341,N,11622.2993,E,0.16,168.23,180812,,,A*65
220,
$GPRMC,080001.000,A,3956.0338,N,11622.2993,E,0.33,143.52,180812,,,A*62
221,
$GPRMC,080002.000,A,3956.0334,N,11622.2994,E,0.40,165.04,180812,,,A*69
221,
$GPRMC,080003.000,A,3956.0334,N,11622.2993,E,0.19,149.49,180812,,,A*64
220,
$GPRMC,080004.000,A,3956.0334,N,11622.2992,E,0.27,135.47,180812,,,A*6A
221,
$GPRMC,080005.000,A,3956.0334,N,11622.2991,E,0.10,162.97,180812,,,A*63
221,
$GPRMC,080006.000,A,3956.0335,N,11622.2990,E,0.32,129.21,180812,,,A*62
221,
$GPRMC,080007.000,A,3956.0334,N,11622.2990,E,0.21,133.03,180812,,,A*6B
221,
$GPRMC,080008.000,A,3956.0334,N,11622.2990,E,0.11,135.48,180812,,,A*6E
220,
$GPRMC,080009.000,A,3956.0334,N,11622.2990,E,0.11,92.12,180812,,,A*5C
221,
$GPRMC,080010.000,A,3956.0334,N,11622.2988,E,0.07,109.16,180812,,,A*6D
221,
$GPRMC,080011.000,A,3956.0336,N,11622.2986,E,0.17,147.98,180812,,,A*6D
221,
$GPRMC,080012.000,A,3956.0336,N,11622.2985,E,0.05,106.11,180812,,,A*6A
221,
$GPRMC,080013.000,A,3956.0338,N,11622.2986,E,0.56,35.41,180812,,,A*54
219,
$GPRMC,080014.000,A,3956.0339,N,11622.2987,E,0.41,34.61,180812,,,A*56
220,
$GPRMC,080015.000,A,3956.0340,N,11622.2987,E,0.07,352.04,180812,,,A*6B
220,
$GPRMC,080016.000,A,3956.0340,N,11622.2988,E,0.05,43.27,180812,,,A*57
219,
$GPRMC,080017.000,A,3956.0340,N,11622.2988,E,0.08,341.58,180812,,,A*62
220,
$GPRMC,080018.000,A,3956.0341,N,11622.2988,E,0.00,358.80,180812,,,A*69
219,
$GPRMC,080019.000,A,3956.0341,N,11622.2988,E,0.08,325.38,180812,,,A*69
219,
$GPRMC,080020.000,A,3956.0341,N,11622.2988,E,0.11,178.73,180812,,,A*6E
219,
$GPRMC,080021.000,A,3956.0342,N,11622.2987,E,0.17,342.65,180812,,,A*69
220,
$GPRMC,080022.000,A,3956.0344,N,11622.2986,E,0.08,318.35,180812,,,A*69
221,
$GPRMC,080023.000,A,3956.0345,N,11622.2985,E,0.09,317.41,180812,,,A*67
219,
$GPRMC,080024.000,A,3956.0347,N,11622.2985,E,0.14,313.45,180812,,,A*6E
219,
$GPRMC,080025.000,A,3956.0347,N,11622.2985,E,0.10,252.79,180812,,,A*60
218,
$GPRMC,080026.000,A,3956.0346,N,11622.2986,E,0.04,122.00,180812,,,A*6E
218,
$GPRMC,080027.000,A,3956.0343,N,11622.2990,E,0.13,191.63,180812,,,A*66
218,
$GPRMC,080028.000,A,3956.0341,N,11622.2992,E,0.09,190.50,180812,,,A*63
217,
$GPRMC,080029.000,A,3956.0340,N,11622.2993,E,0.08,184.49,180812,,,A*6E
216,
$GPRMC,080030.000,A,3956.0339,N,11622.2994,E,0.09,149.35,180812,,,A*64
216,
$GPRMC,080031.000,A,3956.0338,N,11622.2994,E,0.10,147.94,180812,,,A*69
218,
$GPRMC,080032.000,A,3956.0338,N,11622.2995,E,0.15,141.30,180812,,,A*66
218,
$GPRMC,080033.000,A,3956.0338,N,11622.2995,E,0.18,138.61,180812,,,A*60
217,
$GPRMC,080034.000,A,3956.0339,N,11622.2995,E,0.18,150.07,180812,,,A*68
217,
$GPRMC,080035.000,A,3956.0339,N,11622.2995,E,0.04,219.34,180812,,,A*6A
217,
$GPRMC,080036.000,A,3956.0339,N,11622.2995,E,0.10,220.88,180812,,,A*61
216,
$GPRMC,080037.000,A,3956.0339,N,11622.2995,E,0.47,65.99,180812,,,A*51
215,
$GPRMC,080038.000,A,3956.0340,N,11622.2997,E,0.56,45.24,180812,,,A*56
215,
$GPRMC,080039.000,A,3956.0340,N,11622.2998,E,0.08,103.66,180812,,,A*66
215,
$GPRMC,080040.000,A,3956.0340,N,11622.2998,E,0.09,116.78,180812,,,A*62
215,
$GPRMC,080041.000,A,3956.0341,N,11622.2998,E,0.24,40.64,180812,,,A*52
215,
$GPRMC,080042.000,A,3956.0341,N,11622.2998,E,0.05,127.57,180812,,,A*62
215,
$GPRMC,080043.000,A,3956.0341,N,11622.2998,E,0.06,105.02,180812,,,A*60
215,
$GPRMC,080044.000,A,3956.0341,N,11622.2998,E,0.06,64.99,180812,,,A*53
215,
$GPRMC,080045.000,A,3956.0341,N,11622.2998,E,0.04,109.32,180812,,,A*6B
214,
$GPRMC,080046.000,A,3956.0342,N,11622.2998,E,0.04,89.04,180812,,,A*57
214,
$GPRMC,080047.000,A,3956.0341,N,11622.2998,E,0.11,149.12,180812,,,A*6B
214,
$GPRMC,080048.000,A,3956.0341,N,11622.2998,E,0.04,171.76,180812,,,A*69
215,
$GPRMC,080049.000,A,3956.0341,N,11622.2998,E,0.04,110.40,180812,,,A*6A
214,
$GPRMC,080050.000,A,3956.0341,N,11622.2998,E,0.02,121.64,180812,,,A*60
215,
$GPRMC,080051.000,A,3956.0341,N,11622.2998,E,0.11,88.82,180812,,,A*59
215,
$GPRMC,080052.000,A,3956.0341,N,11622.2999,E,0.18,145.51,180812,,,A*6C
215,
$GPRMC,080053.000,A,3956.0341,N,11622.2999,E,0.05,106.09,180812,,,A*6B
215,
$GPRMC,080054.000,A,3956.0340,N,11622.2999,E,0.04,118.44,180812,,,A*6A
215,
$GPRMC,080055.000,A,3956.0340,N,11622.3000,E,0.03,120.61,180812,,,A*68
215,
$GPRMC,080056.000,A,3956.0340,N,11622.3000,E,0.08,175.96,180812,,,A*68
215,
$GPRMC,080057.000,A,3956.0340,N,11622.3000,E,0.14,121.85,180812,,,A*67
215,
$GPRMC,080058.000,A,3956.0338,N,11622.3003,E,0.46,129.20,180812,,,A*64
216,
$GPRMC,080059.000,A,3956.0336,N,11622.3004,E,0.17,184.90,180812,,,A*64
220,
$GPRMC,080100.000,A,3956.0336,N,11622.3004,E,0.24,292.23,180812,,,A*65
220,
$GPRMC,080101.000,A,3956.0334,N,11622.3005,E,0.48,211.49,180812,,,A*6A
216,
$GPRMC,080102.000,A,3956.0332,N,11622.3007,E,0.06,118.39,180812,,,A*6A
215,
$GPRMC,080103.000,A,3956.0330,N,11622.3009,E,0.17,139.54,180812,,,A*6F
215,
$GPRMC,080104.000,A,3956.0330,N,11622.3009,E,0.03,251.68,180812,,,A*6F
214,
$GPRMC,080105.000,A,3956.0332,N,11622.3006,E,0.28,36.00,180812,,,A*57
214,
$GPRMC,080106.000,A,3956.0334,N,11622.3005,E,0.31,9.69,180812,,,A*6A
214,
$GPRMC,080107.000,A,3956.0334,N,11622.3004,E,0.45,283.38,180812,,,A*6D
214,
$GPRMC,080108.000,A,3956.0333,N,11622.3003,E,0.29,237.13,180812,,,A*6E
213,
$GPRMC,080109.000,A,3956.0334,N,11622.3002,E,0.35,324.35,180812,,,A*63
212,
$GPRMC,080110.000,A,3956.0335,N,11622.3000,E,0.55,121.32,180812,,,A*6E
212,
$GPRMC,080111.000,A,3956.0337,N,11622.2997,E,0.44,299.86,180812,,,A*64
211,
$GPRMC,080112.000,A,3956.0337,N,11622.2992,E,0.07,133.13,180812,,,A*6A
211,
$GPRMC,080113.000,A,3956.0338,N,11622.2990,E,0.27,53.38,180812,,,A*5A
211,
$GPRMC,080114.000,A,3956.0337,N,11622.2991,E,0.53,155.88,180812,,,A*6C
211,
$GPRMC,080115.000,A,3956.0335,N,11622.2989,E,0.75,185.78,180812,,,A*60
211,
$GPRMC,080116.000,A,3956.0334,N,11622.2987,E,0.90,173.11,180812,,,A*61
211,
$GPRMC,080117.000,A,3956.0333,N,11622.2987,E,0.43,200.32,180812,,,A*6F
210,
$GPRMC,080118.000,A,3956.0333,N,11622.2985,E,0.20,353.26,180812,,,A*65
210,
$GPRMC,080119.000,A,3956.0334,N,11622.2984,E,0.29,13.01,180812,,,A*59
210,
$GPRMC,080120.000,A,3956.0335,N,11622.2983,E,0.78,24.60,180812,,,A*52
210,
$GPRMC,080121.000,A,3956.0337,N,11622.2982,E,0.17,64.24,180812,,,A*5D
210,
$GPRMC,080122.000,A,3956.0337,N,11622.2979,E,0.39,171.11,180812,,,A*65
210,
$GPRMC,080123.000,A,3956.0335,N,11622.2975,E,0.83,211.40,180812,,,A*6A
210,
$GPRMC,080124.000,A,3956.0334,N,11622.2972,E,0.28,244.21,180812,,,A*6D
210,
$GPRMC,080125.000,A,3956.0334,N,11622.2969,E,0.25,246.41,180812,,,A*6F
210,
$GPRMC,080126.000,A,3956.0334,N,11622.2967,E,0.26,172.33,180812,,,A*60
210,
$GPRMC,080127.000,A,3956.0336,N,11622.2967,E,0.43,46.93,180812,,,A*5C
210,
$GPRMC,080128.000,A,3956.0338,N,11622.2967,E,0.47,32.04,180812,,,A*54
210,
$GPRMC,080129.000,A,3956.0339,N,11622.2967,E,0.12,88.37,180812,,,A*55
210,
$GPRMC,080130.000,A,3956.0340,N,11622.2966,E,0.13,38.21,180812,,,A*5F
210,
$GPRMC,080131.000,A,3956.0340,N,11622.2966,E,0.32,7.53,180812,,,A*64
210,
$GPRMC,080132.000,A,3956.0340,N,11622.2965,E,0.13,214.91,180812,,,A*69
210,
$GPRMC,080133.000,A,3956.0339,N,11622.2964,E,0.21,16.58,180812,,,A*53
210,
$GPRMC,080134.000,A,3956.0337,N,11622.2963,E,0.05,32.80,180812,,,A*58
210,
$GPRMC,080135.000,A,3956.0336,N,11622.2961,E,0.09,252.06,180812,,,A*6C
210,
$GPRMC,080136.000,A,3956.0335,N,11622.2960,E,0.17,341.60,180812,,,A*61
209,
$GPRMC,080137.000,A,3956.0335,N,11622.2960,E,0.23,169.75,180812,,,A*6B
210,
$GPRMC,080138.000,A,3956.0334,N,11622.2959,E,0.22,123.43,180812,,,A*65
210,
$GPRMC,080139.000,A,3956.0334,N,11622.2959,E,0.16,52.43,180812,,,A*54
210,
$GPRMC,080140.000,A,3956.0336,N,11622.2960,E,0.23,66.42,180812,,,A*52
210,
$GPRMC,080141.000,A,3956.0337,N,11622.2961,E,0.12,66.07,180812,,,A*50
209,
$GPRMC,080142.000,A,3956.0337,N,11622.2962,E,0.13,358.35,180812,,,A*6E
210,
$GPRMC,080143.000,A,3956.0338,N,11622.2962,E,0.01,133.24,180812,,,A*6C
210,
$GPRMC,080144.000,A,3956.0338,N,11622.2961,E,0.06,46.88,180812,,,A*5A
210,
$GPRMC,080145.000,A,3956.0337,N,11622.2961,E,0.21,199.78,180812,,,A*6D
210,
$GPRMC,080146.000,A,3956.0336,N,11622.2960,E,0.14,177.24,180812,,,A*61
210,
$GPRMC,080147.000,A,3956.0335,N,11622.2960,E,0.08,202.58,180812,,,A*64
210,
$GPRMC,080148.000,A,3956.0335,N,11622.2960,E,0.29,181.05,180812,,,A*68
210,
$GPRMC,080149.000,A,3956.0335,N,11622.2960,E,0.07,128.39,180812,,,A*69
210,
$GPRMC,080150.000,A,3956.0335,N,11622.2960,E,0.16,54.43,180812,,,A*56
210,
$GPRMC,080151.000,A,3956.0336,N,11622.2961,E,0.20,42.01,180812,,,A*51
210,
$GPRMC,080152.000,A,3956.0337,N,11622.2961,E,0.14,51.44,180812,,,A*57
211,
$GPRMC,080153.000,A,3956.0336,N,11622.2961,E,0.24,38.75,180812,,,A*59
210,
$GPRMC,080154.000,A,3956.0335,N,11622.2960,E,0.21,165.83,180812,,,A*69
210,
$GPRMC,080155.000,A,3956.0337,N,11622.2961,E,0.17,71.24,180812,,,A*57
210,
$GPRMC,080156.000,A,3956.0337,N,11622.2961,E,0.13,176.58,180812,,,A*6D
210,
$GPRMC,080157.000,A,3956.0338,N,11622.2961,E,0.13,162.84,180812,,,A*67
210,
$GPRMC,080158.000,A,3956.0338,N,11622.2962,E,0.26,48.83,180812,,,A*53
209,
$GPRMC,080159.000,A,3956.0337,N,11622.2961,E,0.11,204.85,180812,,,A*66
209,
$GPRMC,080200.000,A,3956.0336,N,11622.2961,E,0.18,219.46,180812,,,A*62
209,
$GPRMC,080201.000,A,3956.0336,N,11622.2961,E,0.06,144.94,180812,,,A*68
209,
$GPRMC,080202.000,A,3956.0335,N,11622.2960,E,0.12,128.61,180812,,,A*6C
209,
$GPRMC,080203.000,A,3956.0335,N,11622.2961,E,0.32,107.28,180812,,,A*6E
209,
$GPRMC,080204.000,A,3956.0335,N,11622.2961,E,0.30,118.59,180812,,,A*63
209,
$GPRMC,080205.000,A,3956.0335,N,11622.2960,E,0.06,109.85,180812,,,A*67
209,
$GPRMC,080206.000,A,3956.0333,N,11622.2958,E,0.35,212.62,180812,,,A*69
209,
$GPRMC,080207.000,A,3956.0332,N,11622.2957,E,0.29,202.79,180812,,,A*60
209,
$GPRMC,080208.000,A,3956.0332,N,11622.2957,E,0.11,346.44,180812,,,A*6B
209,
$GPRMC,080209.000,A,3956.0331,N,11622.2957,E,0.06,203.27,180812,,,A*6A
209,
$GPRMC,080210.000,A,3956.0329,N,11622.2956,E,0.05,131.55,180812,,,A*6E
209,
$GPRMC,080211.000,A,3956.0328,N,11622.2954,E,0.10,30.74,180812,,,A*5B
210,
$GPRMC,080212.000,A,3956.0328,N,11622.2954,E,0.37,44.39,180812,,,A*57
209,
$GPRMC,080213.000,A,3956.0328,N,11622.2954,E,0.16,75.49,180812,,,A*50
209,
$GPRMC,080214.000,A,3956.0328,N,11622.2955,E,0.29,27.50,180812,,,A*55
209,
$GPRMC,080215.000,A,3956.0329,N,11622.2955,E,0.25,35.35,180812,,,A*59
209,
$GPRMC,080216.000,A,3956.0329,N,11622.2955,E,0.29,47.31,180812,,,A*57
209,
$GPRMC,080217.000,A,3956.0328,N,11622.2955,E,0.29,41.87,180812,,,A*5C
209,
$GPRMC,080218.000,A,3956.0326,N,11622.2954,E,0.47,15.26,180812,,,A*5E
209,
$GPRMC,080219.000,A,3956.0325,N,11622.2954,E,0.70,17.55,180812,,,A*5E
209,
$GPRMC,080220.000,A,3956.0327,N,11622.2954,E,0.89,17.78,180812,,,A*5F
209,
$GPRMC,080221.000,A,3956.0329,N,11622.2954,E,0.25,16.69,180812,,,A*57
209,
$GPRMC,080222.000,A,3956.0329,N,11622.2954,E,0.16,8.65,180812,,,A*67
209,
$GPRMC,080223.000,A,3956.0328,N,11622.2953,E,0.07,31.08,180812,,,A*51
209,
$GPRMC,080224.000,A,3956.0329,N,11622.2952,E,0.27,15.56,180812,,,A*59
209,
$GPRMC,080225.000,A,3956.0331,N,11622.2953,E,0.34,28.53,180812,,,A*59
209,
$GPRMC,080226.000,A,3956.0333,N,11622.2953,E,0.11,16.89,180812,,,A*55
209,
$GPRMC,080227.000,A,3956.0334,N,11622.2953,E,0.10,51.90,180812,,,A*59
209,
$GPRMC,080228.000,A,3956.0333,N,11622.2953,E,0.02,186.32,180812,,,A*61
208,
$GPRMC,080229.000,A,3956.0334,N,11622.2953,E,0.08,338.11,180812,,,A*6B
208,
$GPRMC,080230.000,A,3956.0334,N,11622.2952,E,0.10,345.04,180812,,,A*65
208,
$GPRMC,080231.000,A,3956.0337,N,11622.2953,E,0.11,339.47,180812,,,A*6B
208,
$GPRMC,080232.000,A,3956.0336,N,11622.2952,E,0.10,27.08,180812,,,A*5E
208,
$GPRMC,080233.000,A,3956.0336,N,11622.2952,E,0.07,147.85,180812,,,A*6B
208,
$GPRMC,080234.000,A,3956.0335,N,11622.2952,E,0.05,121.66,180812,,,A*60
208,
$GPRMC,080235.000,A,3956.0335,N,11622.2951,E,0.07,76.46,180812,,,A*51
208,
$GPRMC,080236.000,A,3956.0335,N,11622.2951,E,0.06,358.83,180812,,,A*65
208,
$GPRMC,080237.000,A,3956.0337,N,11622.2952,E,0.06,218.43,180812,,,A*6C
208,
$GPRMC,080238.000,A,3956.0338,N,11622.2951,E,0.04,156.45,180812,,,A*62
208,
$GPRMC,080239.000,A,3956.0338,N,11622.2951,E,0.25,229.86,180812,,,A*64
208,
$GPRMC,080240.000,A,3956.0339,N,11622.2950,E,0.22,222.33,180812,,,A*68
208,
$GPRMC,080241.000,A,3956.0339,N,11622.2950,E,0.08,121.78,180812,,,A*6E
208,
$GPRMC,080242.000,A,3956.0340,N,11622.2950,E,0.07,193.98,180812,,,A*6B
208,
$GPRMC,080243.000,A,3956.0340,N,11622.2951,E,0.08,53.98,180812,,,A*59
208,
$GPRMC,080244.000,A,3956.0340,N,11622.2951,E,0.13,218.02,180812,,,A*6A
208,
$GPRMC,080245.000,A,3956.0341,N,11622.2951,E,0.12,102.69,180812,,,A*6E
208,
$GPRMC,080246.000,A,3956.0341,N,11622.2951,E,0.15,219.46,180812,,,A*6E
208,
$GPRMC,080247.000,A,3956.0341,N,11622.2951,E,0.15,197.91,180812,,,A*60
208,
$GPRMC,080248.000,A,3956.0342,N,11622.2952,E,0.17,113.56,180812,,,A*6A
208,
$GPRMC,080249.000,A,3956.0344,N,11622.2952,E,0.28,51.42,180812,,,A*53
208,
$GPRMC,080250.000,A,3956.0345,N,11622.2953,E,0.22,36.66,180812,,,A*56
208,
$GPRMC,080251.000,A,3956.0345,N,11622.2953,E,0.13,4.37,180812,,,A*60
208,
$GPRMC,080252.000,A,3956.0345,N,11622.2953,E,0.03,182.10,180812,,,A*68
208,
$GPRMC,080253.000,A,3956.0345,N,11622.2953,E,0.18,100.16,180812,,,A*6F
208,
$GPRMC,080254.000,A,3956.0344,N,11622.2953,E,0.21,190.96,180812,,,A*62
208,
$GPRMC,080255.000,A,3956.0343,N,11622.2952,E,0.27,184.59,180812,,,A*65
208,
$GPRMC,080256.000,A,3956.0343,N,11622.2952,E,0.32,201.37,180812,,,A*64
208,
$GPRMC,080257.000,A,3956.0342,N,11622.2952,E,0.15,162.34,180812,,,A*64
208,
$GPRMC,080258.000,A,3956.0342,N,11622.2952,E,0.14,105.79,180812,,,A*62
208,
$GPRMC,080259.000,A,3956.0341,N,11622.2953,E,0.08,151.09,180812,,,A*6A
208,
$GPRMC,080300.000,A,3956.0341,N,11622.2953,E,0.12,129.14,180812,,,A*6F
208,
$GPRMC,080301.000,A,3956.0341,N,11622.2953,E,0.06,124.09,180812,,,A*6A
208,
$GPRMC,080302.000,A,3956.0340,N,11622.2953,E,0.09,141.72,180812,,,A*68
208,
$GPRMC,080303.000,A,3956.0340,N,11622.2953,E,0.14,73.50,180812,,,A*55
208,
$GPRMC,080304.000,A,3956.0342,N,11622.2954,E,0.04,13.28,180812,,,A*5F
208,
$GPRMC,080305.000,A,3956.0343,N,11622.2954,E,0.13,178.04,180812,,,A*6B
208,
$GPRMC,080306.000,A,3956.0342,N,11622.2954,E,0.07,105.19,180812,,,A*6A
207,
$GPRMC,080307.000,A,3956.0343,N,11622.2954,E,0.19,45.03,180812,,,A*5B
207,
$GPRMC,080308.000,A,3956.0344,N,11622.2954,E,0.15,82.89,180812,,,A*56
207,
$GPRMC,080309.000,A,3956.0344,N,11622.2955,E,0.06,216.66,180812,,,A*6A
207,
$GPRMC,080310.000,A,3956.0343,N,11622.2955,E,0.06,187.75,180812,,,A*6C
207,
$GPRMC,080311.000,A,3956.0343,N,11622.2955,E,0.13,192.91,180812,,,A*67
207,
$GPRMC,080312.000,A,3956.0344,N,11622.2955,E,0.38,52.24,180812,,,A*59
207,
$GPRMC,080313.000,A,3956.0345,N,11622.2956,E,0.45,36.34,180812,,,A*53
207,
$GPRMC,080314.000,A,3956.0346,N,11622.2957,E,0.12,52.71,180812,,,A*57
207,
$GPRMC,080315.000,A,3956.0346,N,11622.2957,E,0.07,201.77,180812,,,A*60
207,
$GPRMC,080316.000,A,3956.0346,N,11622.2957,E,0.09,245.46,180812,,,A*6F
207,
$GPRMC,080317.000,A,3956.0347,N,11622.2957,E,0.12,203.71,180812,,,A*63
207,
$GPRMC,080318.000,A,3956.0347,N,11622.2957,E,0.12,100.22,180812,,,A*6A
207,
$GPRMC,080319.000,A,3956.0347,N,11622.2957,E,0.16,100.36,180812,,,A*6A
207,
$GPRMC,080320.000,A,3956.0348,N,11622.2958,E,0.24,75.00,180812,,,A*57
207,
$GPRMC,080321.000,A,3956.0349,N,11622.2958,E,0.24,76.94,180812,,,A*59
207,
$GPRMC,080322.000,A,3956.0349,N,11622.2958,E,0.02,242.60,180812,,,A*60
207,
$GPRMC,080323.000,A,3956.0349,N,11622.2958,E,0.07,174.01,180812,,,A*65
207,
$GPRMC,080324.000,A,3956.0349,N,11622.2958,E,0.05,131.90,180812,,,A*69
207,
$GPRMC,080325.000,A,3956.0348,N,11622.2958,E,0.08,228.22,180812,,,A*66
207,
$GPRMC,080326.000,A,3956.0346,N,11622.2958,E,0.09,202.59,180812,,,A*6E
207,
$GPRMC,080327.000,A,3956.0346,N,11622.2957,E,0.15,126.40,180812,,,A*60
207,
$GPRMC,080328.000,A,3956.0345,N,11622.2957,E,0.13,219.10,180812,,,A*60
206,
$GPRMC,080329.000,A,3956.0343,N,11622.2957,E,0.15,202.15,180812,,,A*6E
206,
$GPRMC,080330.000,A,3956.0342,N,11622.2957,E,0.17,151.49,180812,,,A*69
206,
$GPRMC,080331.000,A,3956.0341,N,11622.2957,E,0.19,125.41,180812,,,A*6E
206,
$GPRMC,080332.000,A,3956.0339,N,11622.2956,E,0.16,127.08,180812,,,A*63
206,
$GPRMC,080333.000,A,3956.0336,N,11622.2956,E,0.27,198.53,180812,,,A*65
206,
$GPRMC,080334.000,A,3956.0334,N,11622.2955,E,0.29,168.40,180812,,,A*60
206,
$GPRMC,080335.000,A,3956.0334,N,11622.2955,E,0.16,175.28,180812,,,A*6F
206,
$GPRMC,080336.000,A,3956.0334,N,11622.2955,E,0.14,149.00,180812,,,A*6B
206,
$GPRMC,080337.000,A,3956.0334,N,11622.2955,E,0.19,111.35,180812,,,A*6C
206,
$GPRMC,080338.000,A,3956.0333,N,11622.2956,E,0.09,165.58,180812,,,A*6E
206,
$GPRMC,080339.000,A,3956.0334,N,11622.2956,E,0.25,93.62,180812,,,A*57
206,
$GPRMC,080340.000,A,3956.0334,N,11622.2956,E,0.12,53.74,180812,,,A*56
206,
$GPRMC,080341.000,A,3956.0334,N,11622.2956,E,0.07,232.19,180812,,,A*6D
206,
$GPRMC,080342.000,A,3956.0334,N,11622.2956,E,0.18,96.06,180812,,,A*52
206,
$GPRMC,080343.000,A,3956.0334,N,11622.2957,E,0.21,77.95,180812,,,A*5D
206,
$GPRMC,080344.000,A,3956.0334,N,11622.2958,E,0.29,74.83,180812,,,A*59
206,
$GPRMC,080345.000,A,3956.0335,N,11622.2959,E,0.29,71.43,180812,,,A*51
206,
$GPRMC,080346.000,A,3956.0336,N,11622.2960,E,0.10,7.23,180812,,,A*66
206,
$GPRMC,080347.000,A,3956.0337,N,11622.2960,E,0.09,57.70,180812,,,A*5D
206,
$GPRMC,080348.000,A,3956.0337,N,11622.2961,E,0.05,53.09,180812,,,A*55
206,
$GPRMC,080349.000,A,3956.0337,N,11622.2961,E,0.15,81.98,180812,,,A*52
206,
$GPRMC,080350.000,A,3956.0337,N,11622.2962,E,0.12,49.01,180812,,,A*5A
206,
$GPRMC,080351.000,A,3956.0338,N,11622.2962,E,0.16,293.08,180812,,,A*6C
206,
$GPRMC,080352.000,A,3956.0338,N,11622.2962,E,0.10,274.08,180812,,,A*60
206,
$GPRMC,080353.000,A,3956.0339,N,11622.2962,E,0.16,282.46,180812,,,A*65
206,
$GPRMC,080354.000,A,3956.0339,N,11622.2962,E,0.09,104.81,180812,,,A*6A
206,
$GPRMC,080355.000,A,3956.0339,N,11622.2962,E,0.16,284.38,180812,,,A*6C
205,
$GPRMC,080356.000,A,3956.0339,N,11622.2962,E,0.18,258.17,180812,,,A*6D
205,
$GPRMC,080357.000,A,3956.0339,N,11622.2961,E,0.09,218.03,180812,,,A*6E
205,
$GPRMC,080358.000,A,3956.0339,N,11622.2961,E,0.09,167.81,180812,,,A*60
205,
$GPRMC,080359.000,A,3956.0339,N,11622.2962,E,0.29,98.87,180812,,,A*57
205,
$GPRMC,080400.000,A,3956.0338,N,11622.2963,E,0.12,175.89,180812,,,A*68
205,
$GPRMC,080401.000,A,3956.0337,N,11622.2962,E,0.21,222.25,180812,,,A*60
205,
$GPRMC,080402.000,A,3956.0336,N,11622.2962,E,0.29,195.05,180812,,,A*67
205,
$GPRMC,080403.000,A,3956.0334,N,11622.2962,E,0.24,198.31,180812,,,A*63
205,
$GPRMC,080404.000,A,3956.0333,N,11622.2963,E,0.23,173.23,180812,,,A*63
205,
$GPRMC,080405.000,A,3956.0333,N,11622.2964,E,0.19,193.03,180812,,,A*60
205,
$GPRMC,080406.000,A,3956.0333,N,11622.2963,E,0.17,136.79,180812,,,A*68
205,
$GPRMC,080407.000,A,3956.0333,N,11622.2965,E,0.18,114.32,180812,,,A*6F
205,
$GPRMC,080408.000,A,3956.0333,N,11622.2966,E,0.18,120.46,180812,,,A*67
205,
$GPRMC,080409.000,A,3956.0332,N,11622.2966,E,0.13,136.99,180812,,,A*69
205,
$GPRMC,080410.000,A,3956.0331,N,11622.2967,E,0.14,135.63,180812,,,A*62
205,
$GPRMC,080411.000,A,3956.0331,N,11622.2967,E,0.30,101.55,180812,,,A*67
205,
$GPRMC,080412.000,A,3956.0332,N,11622.2968,E,0.33,98.28,180812,,,A*50
205,
$GPRMC,080413.000,A,3956.0331,N,11622.2968,E,0.19,96.83,180812,,,A*55
205,
$GPRMC,080414.000,A,3956.0331,N,11622.2968,E,0.17,93.45,180812,,,A*53
205,
$GPRMC,080415.000,A,3956.0331,N,11622.2967,E,0.04,233.32,180812,,,A*67
205,
$GPRMC,080416.000,A,3956.0331,N,11622.2967,E,0.08,106.98,180812,,,A*6D
205,
$GPRMC,080417.000,A,3956.0330,N,11622.2966,E,0.15,105.21,180812,,,A*61
205,
$GPRMC,080418.000,A,3956.0330,N,11622.2966,E,0.08,221.74,180812,,,A*67
205,
$GPRMC,080419.000,A,3956.0330,N,11622.2965,E,0.05,154.33,180812,,,A*6A
205,
$GPRMC,080420.000,A,3956.0330,N,11622.2965,E,0.19,108.66,180812,,,A*64
205,
$GPRMC,080421.000,A,3956.0330,N,11622.2965,E,0.06,130.63,180812,,,A*65
205,
$GPRMC,080422.000,A,3956.0330,N,11622.2964,E,0.06,114.67,180812,,,A*65
205,
$GPRMC,080423.000,A,3956.0330,N,11622.2964,E,0.08,127.13,180812,,,A*69
205,
$GPRMC,080424.000,A,3956.0331,N,11622.2964,E,0.12,83.59,180812,,,A*55
205,
$GPRMC,080425.000,A,3956.0331,N,11622.2964,E,0.05,225.34,180812,,,A*67
205,
$GPRMC,080426.000,A,3956.0331,N,11622.2963,E,0.11,89.20,180812,,,A*57
204,
$GPRMC,080427.000,A,3956.0331,N,11622.2963,E,0.12,77.03,180812,,,A*55
205,
$GPRMC,080428.000,A,3956.0331,N,11622.2963,E,0.12,246.57,180812,,,A*6B
204,
$GPRMC,080429.000,A,3956.0331,N,11622.2962,E,0.08,104.71,180812,,,A*61
204,
$GPRMC,080430.000,A,3956.0331,N,11622.2962,E,0.15,84.68,180812,,,A*54
204,
$GPRMC,080431.000,A,3956.0331,N,11622.2962,E,0.01,112.65,180812,,,A*63
204,
$GPRMC,080432.000,A,3956.0330,N,11622.2961,E,0.06,215.14,180812,,,A*67
204,
$GPRMC,080433.000,A,3956.0331,N,11622.2961,E,0.08,101.65,180812,,,A*69
204,
$GPRMC,080434.000,A,3956.0330,N,11622.2961,E,0.12,237.33,180812,,,A*61
205,
$GPRMC,080435.000,A,3956.0331,N,11622.2961,E,0.17,90.86,180812,,,A*55
204,
$GPRMC,080436.000,A,3956.0331,N,11622.2961,E,0.18,79.32,180812,,,A*51
205,
$GPRMC,080437.000,A,3956.0332,N,11622.2961,E,0.20,84.62,180812,,,A*5F
204,
$GPRMC,080438.000,A,3956.0332,N,11622.2961,E,0.18,84.79,180812,,,A*51
204,
$GPRMC,080439.000,A,3956.0333,N,11622.2961,E,0.09,101.73,180812,,,A*67
204,
$GPRMC,080440.000,A,3956.0333,N,11622.2960,E,0.11,49.74,180812,,,A*5B
205,
$GPRMC,080441.000,A,3956.0332,N,11622.2959,E,0.22,58.35,180812,,,A*54
205,
$GPRMC,080442.000,A,3956.0330,N,11622.2957,E,0.19,227.67,180812,,,A*6E
205,
$GPRMC,080443.000,A,3956.0330,N,11622.2956,E,0.11,160.14,180812,,,A*62
205,
$GPRMC,080444.000,A,3956.0329,N,11622.2955,E,0.20,127.14,180812,,,A*6F
205,
$GPRMC,080445.000,A,3956.0327,N,11622.2954,E,0.22,104.65,180812,,,A*64
205,
$GPRMC,080446.000,A,3956.0327,N,11622.2954,E,0.51,43.34,180812,,,A*55
205,
$GPRMC,080447.000,A,3956.0328,N,11622.2954,E,0.41,32.39,180812,,,A*51
205,
$GPRMC,080448.000,A,3956.0329,N,11622.2953,E,0.03,6.25,180812,,,A*64
205,
$GPRMC,080449.000,A,3956.0330,N,11622.2952,E,0.17,276.31,180812,,,A*69
205,
$GPRMC,080450.000,A,3956.0329,N,11622.2952,E,0.03,17.43,180812,,,A*5C
205,
$GPRMC,080451.000,A,3956.0329,N,11622.2951,E,0.09,198.63,180812,,,A*60
205,
$GPRMC,080452.000,A,3956.0329,N,11622.2952,E,0.05,166.69,180812,,,A*67
205,
$GPRMC,080453.000,A,3956.0328,N,11622.2951,E,0.32,213.56,180812,,,A*6D
205,
$GPRMC,080454.000,A,3956.0327,N,11622.2950,E,0.20,207.84,180812,,,A*6D
205,
$GPRMC,080455.000,A,3956.0327,N,11622.2950,E,0.19,58.28,180812,,,A*58
205,
$GPRMC,080456.000,A,3956.0327,N,11622.2951,E,0.07,144.63,180812,,,A*66
205,
$GPRMC,080457.000,A,3956.0326,N,11622.2951,E,0.12,212.74,180812,,,A*64
205,
$GPRMC,080458.000,A,3956.0326,N,11622.2951,E,0.10,194.00,180812,,,A*67
205,
$GPRMC,080459.000,A,3956.0325,N,11622.2950,E,0.28,198.65,180812,,,A*60
205,
$GPRMC,080500.000,A,3956.0323,N,11622.2949,E,0.47,200.82,180812,,,A*61
205,
$GPRMC,080501.000,A,3956.0321,N,11622.2948,E,0.18,171.23,180812,,,A*67
205,
$GPRMC,080502.000,A,3956.0321,N,11622.2948,E,0.20,176.26,180812,,,A*6D
204,
$GPRMC,080503.000,A,3956.0321,N,11622.2949,E,0.09,151.15,180812,,,A*63
204,
$GPRMC,080504.000,A,3956.0322,N,11622.2949,E,0.09,141.29,180812,,,A*69
204,
$GPRMC,080505.000,A,3956.0322,N,11622.2949,E,0.12,178.01,180812,,,A*62
204,
$GPRMC,080506.000,A,3956.0324,N,11622.2950,E,0.07,116.95,180812,,,A*6E
204,
$GPRMC,080507.000,A,3956.0324,N,11622.2951,E,0.38,206.87,180812,,,A*63
204,
$GPRMC,080508.000,A,3956.0323,N,11622.2950,E,0.45,206.19,180812,,,A*67
204,
$GPRMC,080509.000,A,3956.0323,N,11622.2950,E,0.09,160.56,180812,,,A*66
204,
$GPRMC,080510.000,A,3956.0323,N,11622.2950,E,0.34,202.88,180812,,,A*64
204,
$GPRMC,080511.000,A,3956.0323,N,11622.2950,E,0.10,118.83,180812,,,A*60
204,
$GPRMC,080512.000,A,3956.0325,N,11622.2951,E,0.08,83.14,180812,,,A*50
204,
$GPRMC,080513.000,A,3956.0326,N,11622.2952,E,0.11,68.36,180812,,,A*5C
204,
$GPRMC,080514.000,A,3956.0327,N,11622.2953,E,0.06,15.68,180812,,,A*5C
204,
$GPRMC,080515.000,A,3956.0328,N,11622.2953,E,0.02,153.99,180812,,,A*6B
204,
$GPRMC,080516.000,A,3956.0328,N,11622.2954,E,0.06,231.71,180812,,,A*6A
204,
$GPRMC,080517.000,A,3956.0329,N,11622.2954,E,0.04,268.58,180812,,,A*6F
204,
$GPRMC,080518.000,A,3956.0330,N,11622.2955,E,0.08,129.41,180812,,,A*6B
204,
$GPRMC,080519.000,A,3956.0331,N,11622.2955,E,0.06,109.34,180812,,,A*65
204,
$GPRMC,080520.000,A,3956.0332,N,11622.2956,E,0.03,64.06,180812,,,A*51
204,
$GPRMC,080521.000,A,3956.0333,N,11622.2957,E,0.04,344.44,180812,,,A*60
204,
$GPRMC,080522.000,A,3956.0334,N,11622.2958,E,0.01,140.89,180812,,,A*69
204,
$GPRMC,080523.000,A,3956.0337,N,11622.2959,E,0.16,93.72,180812,,,A*57
204,
$GPRMC,080524.000,A,3956.0338,N,11622.2960,E,0.19,92.35,180812,,,A*58
204,
$GPRMC,080525.000,A,3956.0339,N,11622.2960,E,0.09,1.85,180812,,,A*68
204,
$GPRMC,080526.000,A,3956.0340,N,11622.2960,E,0.09,318.12,180812,,,A*60
204,
$GPRMC,080527.000,A,3956.0341,N,11622.2961,E,0.17,96.35,180812,,,A*5E
204,
$GPRMC,080528.000,A,3956.0342,N,11622.2961,E,0.20,81.63,180812,,,A*53
204,
$GPRMC,080529.000,A,3956.0343,N,11622.2962,E,0.09,43.30,180812,,,A*53
204,
$GPRMC,080530.000,A,3956.0344,N,11622.2962,E,0.13,25.10,180812,,,A*55
204,
$GPRMC,080531.000,A,3956.0345,N,11622.2963,E,0.20,356.70,180812,,,A*65
204,
$GPRMC,080532.000,A,3956.0345,N,11622.2963,E,0.15,109.71,180812,,,A*69
204,
$GPRMC,080533.000,A,3956.0345,N,11622.2965,E,0.27,110.15,180812,,,A*65
204,
$GPRMC,080534.000,A,3956.0345,N,11622.2966,E,0.17,34.10,180812,,,A*50
204,
$GPRMC,080535.000,A,3956.0347,N,11622.2966,E,0.16,12.76,180812,,,A*56
204,
$GPRMC,080536.000,A,3956.0348,N,11622.2965,E,0.29,332.59,180812,,,A*69
204,
$GPRMC,080537.000,A,3956.0348,N,11622.2965,E,0.07,105.10,180812,,,A*6F
204,
$GPRMC,080538.000,A,3956.0347,N,11622.2966,E,0.34,132.28,180812,,,A*63
204,
$GPRMC,080539.000,A,3956.0347,N,11622.2967,E,0.06,98.80,180812,,,A*51
204,
$GPRMC,080540.000,A,3956.0347,N,11622.2967,E,0.07,121.78,180812,,,A*6A
204,
$GPRMC,080541.000,A,3956.0346,N,11622.2968,E,0.30,329.15,180812,,,A*60
204,
$GPRMC,080542.000,A,3956.0347,N,11622.2968,E,0.09,26.17,180812,,,A*56
204,
$GPRMC,080543.000,A,3956.0346,N,11622.2969,E,0.09,104.30,180812,,,A*63
204,
$GPRMC,080544.000,A,3956.0345,N,11622.2970,E,0.06,300.25,180812,,,A*62
204,
$GPRMC,080545.000,A,3956.0345,N,11622.2970,E,0.03,203.19,180812,,,A*6B
204,
$GPRMC,080546.000,A,3956.0344,N,11622.2970,E,0.06,282.28,180812,,,A*67
204,
$GPRMC,080547.000,A,3956.0345,N,11622.2970,E,0.03,69.86,180812,,,A*51
204,
$GPRMC,080548.000,A,3956.0346,N,11622.2969,E,0.12,297.90,180812,,,A*61
204,
$GPRMC,080549.000,A,3956.0348,N,11622.2968,E,0.03,167.67,180812,,,A*6B
204,
$GPRMC,080550.000,A,3956.0348,N,11622.2968,E,0.06,256.34,180812,,,A*61
204,
$GPRMC,080551.000,A,3956.0350,N,11622.2967,E,0.05,160.13,180812,,,A*66
204,
$GPRMC,080552.000,A,3956.0350,N,11622.2967,E,0.04,153.99,180812,,,A*66
204,
$GPRMC,080553.000,A,3956.0351,N,11622.2967,E,0.03,200.31,180812,,,A*66
204,
$GPRMC,080554.000,A,3956.0352,N,11622.2966,E,0.10,283.63,180812,,,A*6D
204,
$GPRMC,080555.000,A,3956.0353,N,11622.2966,E,0.08,150.90,180812,,,A*65
204,
$GPRMC,080556.000,A,3956.0354,N,11622.2965,E,0.01,231.05,180812,,,A*63
204,
$GPRMC,080557.000,A,3956.0355,N,11622.2966,E,0.25,123.26,180812,,,A*67
204,
$GPRMC,080558.000,A,3956.0356,N,11622.2966,E,0.21,108.66,180812,,,A*62
204,
$GPRMC,080559.000,A,3956.0356,N,11622.2967,E,0.14,102.75,180812,,,A*6C
204,
$GPRMC,080600.000,A,3956.0357,N,11622.2967,E,0.08,42.41,180812,,,A*5D
204,
$GPRMC,080601.000,A,3956.0358,N,11622.2967,E,0.11,65.76,180812,,,A*5A
204,
$GPRMC,080602.000,A,3956.0359,N,11622.2968,E,0.24,111.97,180812,,,A*6C
204,
$GPRMC,080603.000,A,3956.0360,N,11622.2969,E,0.14,82.41,180812,,,A*55
203,
$GPRMC,080604.000,A,3956.0360,N,11622.2969,E,0.12,61.71,180812,,,A*5A
203,
$GPRMC,080605.000,A,3956.0361,N,11622.2969,E,0.16,347.97,180812,,,A*61
203,
$GPRMC,080606.000,A,3956.0360,N,11622.2969,E,0.07,35.00,180812,,,A*5B
203,
$GPRMC,080607.000,A,3956.0359,N,11622.2970,E,0.09,71.37,180812,,,A*52
203,
$GPRMC,080608.000,A,3956.0358,N,11622.2971,E,0.09,109.57,180812,,,A*65
203,
$GPRMC,080609.000,A,3956.0357,N,11622.2972,E,0.09,106.43,180812,,,A*62
203,
$GPRMC,080610.000,A,3956.0355,N,11622.2973,E,0.09,106.84,180812,,,A*62
203,
$GPRMC,080611.000,A,3956.0354,N,11622.2973,E,0.09,117.31,180812,,,A*6C
203,
$GPRMC,080612.000,A,3956.0354,N,11622.2974,E,0.10,110.93,180812,,,A*6F
203,
$GPRMC,080613.000,A,3956.0353,N,11622.2975,E,0.09,118.38,180812,,,A*69
203,
$GPRMC,080614.000,A,3956.0353,N,11622.2975,E,0.07,103.04,180812,,,A*65
203,
$GPRMC,080615.000,A,3956.0353,N,11622.2975,E,0.06,94.19,180812,,,A*56
203,
$GPRMC,080616.000,A,3956.0352,N,11622.2975,E,0.08,100.80,180812,,,A*66
203,
$GPRMC,080617.000,A,3956.0352,N,11622.2975,E,0.04,80.73,180812,,,A*5E
203,
$GPRMC,080618.000,A,3956.0352,N,11622.2975,E,0.08,105.51,180812,,,A*61
203,
$GPRMC,080619.000,A,3956.0352,N,11622.2975,E,0.06,101.75,180812,,,A*6C
203,
$GPRMC,080620.000,A,3956.0352,N,11622.2975,E,0.06,65.96,180812,,,A*58
203,
$GPRMC,080621.000,A,3956.0352,N,11622.2975,E,0.06,99.21,180812,,,A*56
203,
$GPRMC,080622.000,A,3956.0352,N,11622.2975,E,0.06,87.97,180812,,,A*57
203,
$GPRMC,080623.000,A,3956.0352,N,11622.2975,E,0.06,89.04,180812,,,A*52
203,
$GPRMC,080624.000,A,3956.0352,N,11622.2975,E,0.06,97.08,180812,,,A*56
203,
$GPRMC,080625.000,A,3956.0352,N,11622.2975,E,0.05,66.51,180812,,,A*56
203,
$GPRMC,080626.000,A,3956.0354,N,11622.2973,E,0.08,5.35,180812,,,A*6F
203,
$GPRMC,080627.000,A,3956.0356,N,11622.2972,E,0.15,128.32,180812,,,A*68
203,
$GPRMC,080628.000,A,3956.0356,N,11622.2972,E,0.06,97.44,180812,,,A*51
203,
$GPRMC,080629.000,A,3956.0356,N,11622.2971,E,0.06,46.43,180812,,,A*58
203,
$GPRMC,080630.000,A,3956.0357,N,11622.2971,E,0.06,85.34,180812,,,A*5E
203,
$GPRMC,080631.000,A,3956.0357,N,11622.2970,E,0.04,79.71,180812,,,A*5E
203,
$GPRMC,080632.000,A,3956.0357,N,11622.2970,E,0.06,92.00,180812,,,A*5C
203,
$GPRMC,080633.000,A,3956.0357,N,11622.2970,E,0.05,76.00,180812,,,A*54
203,
$GPRMC,080634.000,A,3956.0358,N,11622.2969,E,0.05,94.40,180812,,,A*5C
203,
$GPRMC,080635.000,A,3956.0358,N,11622.2969,E,0.07,99.67,180812,,,A*57
203,
$GPRMC,080636.000,A,3956.0358,N,11622.2969,E,0.05,99.20,180812,,,A*55
203,
$GPRMC,080637.000,A,3956.0358,N,11622.2969,E,0.06,88.88,180812,,,A*55
203,
$GPRMC,080638.000,A,3956.0358,N,11622.2969,E,0.06,76.63,180812,,,A*5E
202,
$GPRMC,080639.000,A,3956.0358,N,11622.2968,E,0.06,124.40,180812,,,A*69
202,
$GPRMC,080640.000,A,3956.0358,N,11622.2968,E,0.06,103.31,180812,,,A*64
202,
$GPRMC,080641.000,A,3956.0358,N,11622.2968,E,0.07,117.64,180812,,,A*61
203,
$GPRMC,080642.000,A,3956.0358,N,11622.2968,E,0.06,77.56,180812,,,A*55
203,
$GPRMC,080643.000,A,3956.0358,N,11622.2968,E,0.06,96.57,180812,,,A*5A
202,
$GPRMC,080644.000,A,3956.0358,N,11622.2967,E,0.05,110.21,180812,,,A*6F
202,
$GPRMC,080645.000,A,3956.0358,N,11622.2967,E,0.05,170.06,180812,,,A*6D
202,
$GPRMC,080646.000,A,3956.0358,N,11622.2967,E,0.05,104.50,180812,,,A*6E
203,
$GPRMC,080647.000,A,3956.0358,N,11622.2966,E,0.05,77.52,180812,,,A*59
203,
$GPRMC,080648.000,A,3956.0358,N,11622.2966,E,0.06,102.05,180812,,,A*64
204,
$GPRMC,080649.000,A,3956.0358,N,11622.2966,E,0.06,116.01,180812,,,A*64
204,
$GPRMC,080650.000,A,3956.0358,N,11622.2966,E,0.06,97.77,180812,,,A*55
205,
$GPRMC,080651.000,A,3956.0358,N,11622.2967,E,0.05,84.04,180812,,,A*50
206,
$GPRMC,080652.000,A,3956.0358,N,11622.2968,E,0.11,116.73,180812,,,A*63
206,
$GPRMC,080653.000,A,3956.0358,N,11622.2967,E,0.04,3.91,180812,,,A*60
207,
$GPRMC,080654.000,A,3956.0358,N,11622.2967,E,0.16,325.31,180812,,,A*69
207,
$GPRMC,080655.000,A,3956.0358,N,11622.2968,E,0.09,115.06,180812,,,A*6C
208,
$GPRMC,080656.000,A,3956.0357,N,11622.2971,E,0.17,121.53,180812,,,A*60
209,
$GPRMC,080657.000,A,3956.0357,N,11622.2972,E,0.21,113.09,180812,,,A*69
209,
$GPRMC,080658.000,A,3956.0357,N,11622.2972,E,0.20,126.74,180812,,,A*6B
209,
$GPRMC,080659.000,A,3956.0357,N,11622.2972,E,0.05,357.36,180812,,,A*6F
210,
$GPRMC,080700.000,A,3956.0357,N,11622.2971,E,0.08,331.13,180812,,,A*6B
210,
$GPRMC,080701.000,A,3956.0357,N,11622.2972,E,0.24,124.00,180812,,,A*63
211,
$GPRMC,080702.000,A,3956.0357,N,11622.2971,E,0.14,119.31,180812,,,A*6C
211,
$GPRMC,080703.000,A,3956.0357,N,11622.2971,E,0.14,121.31,180812,,,A*66
212,
$GPRMC,080704.000,A,3956.0357,N,11622.2972,E,0.06,102.36,180812,,,A*67
212,
$GPRMC,080705.000,A,3956.0357,N,11622.2971,E,0.12,329.28,180812,,,A*64
212,
$GPRMC,080706.000,A,3956.0357,N,11622.2972,E,0.18,123.73,180812,,,A*68
212,
$GPRMC,080707.000,A,3956.0357,N,11622.2972,E,0.10,328.79,180812,,,A*62
212,
$GPRMC,080708.000,A,3956.0357,N,11622.2972,E,0.13,114.34,180812,,,A*6A
212,
$GPRMC,080709.000,A,3956.0357,N,11622.2973,E,0.23,125.71,180812,,,A*6A
212,
$GPRMC,080710.000,A,3956.0357,N,11622.2974,E,0.23,122.80,180812,,,A*6C
212,
$GPRMC,080711.000,A,3956.0356,N,11622.2974,E,0.27,129.29,180812,,,A*60
211,
$GPRMC,080712.000,A,3956.0356,N,11622.2974,E,0.10,107.77,180812,,,A*60
211,
$GPRMC,080713.000,A,3956.0356,N,11622.2974,E,0.22,123.58,180812,,,A*6B
212,
$GPRMC,080714.000,A,3956.0356,N,11622.2974,E,0.15,116.19,180812,,,A*6B
212,
$GPRMC,080715.000,A,3956.0357,N,11622.2973,E,0.06,351.27,180812,,,A*62
212,
$GPRMC,080716.000,A,3956.0357,N,11622.2973,E,0.05,89.02,180812,,,A*53
212,
$GPRMC,080717.000,A,3956.0357,N,11622.2972,E,0.05,71.72,180812,,,A*53
212,
$GPRMC,080718.000,A,3956.0357,N,11622.2972,E,0.07,98.53,180812,,,A*5A
212,
$GPRMC,080719.000,A,3956.0357,N,11622.2971,E,0.04,54.31,180812,,,A*5F
212,
$GPRMC,080720.000,A,3956.0358,N,11622.2971,E,0.05,68.65,180812,,,A*55
213,
$GPRMC,080721.000,A,3956.0358,N,11622.2970,E,0.06,94.63,180812,,,A*53
213,
$GPRMC,080722.000,A,3956.0358,N,11622.2970,E,0.06,99.75,180812,,,A*5A
213,
$GPRMC,080723.000,A,3956.0358,N,11622.2970,E,0.23,122.97,180812,,,A*61
213,
$GPRMC,080724.000,A,3956.0358,N,11622.2970,E,0.09,329.56,180812,,,A*6A
213,
$GPRMC,080725.000,A,3956.0358,N,11622.2969,E,0.11,115.43,180812,,,A*63
212,
$GPRMC,080726.000,A,3956.0358,N,11622.2969,E,0.25,127.90,180812,,,A*68
212,
$GPRMC,080727.000,A,3956.0358,N,11622.2969,E,0.08,98.64,180812,,,A*58
212,
$GPRMC,080728.000,A,3956.0358,N,11622.2969,E,0.06,343.49,180812,,,A*63
212,
$GPRMC,080729.000,A,3956.0358,N,11622.2969,E,0.08,333.55,180812,,,A*66
212,
$GPRMC,080730.000,A,3956.0358,N,11622.2969,E,0.07,351.60,180812,,,A*63
211,
$GPRMC,080731.000,A,3956.0358,N,11622.2969,E,0.05,49.65,180812,,,A*5F
211,
$GPRMC,080732.000,A,3956.0358,N,11622.2969,E,0.03,15.94,180812,,,A*5D
211,
$GPRMC,080733.000,A,3956.0358,N,11622.2968,E,0.06,311.98,180812,,,A*63
212,
$GPRMC,080734.000,A,3956.0358,N,11622.2968,E,0.32,140.94,180812,,,A*69
212,
$GPRMC,080735.000,A,3956.0356,N,11622.2969,E,0.20,139.38,180812,,,A*6C
212,
$GPRMC,080736.000,A,3956.0356,N,11622.2969,E,0.04,192.12,180812,,,A*60
212,
$GPRMC,080737.000,A,3956.0356,N,11622.2969,E,0.13,30.49,180812,,,A*50
212,
$GPRMC,080738.000,A,3956.0356,N,11622.2969,E,0.07,63.65,180812,,,A*52
212,
$GPRMC,080739.000,A,3956.0356,N,11622.2968,E,0.03,242.44,180812,,,A*64
212,
$GPRMC,080740.000,A,3956.0355,N,11622.2967,E,0.10,209.59,180812,,,A*67
212,
$GPRMC,080741.000,A,3956.0355,N,11622.2966,E,0.02,148.47,180812,,,A*6D
212,
$GPRMC,080742.000,A,3956.0355,N,11622.2965,E,0.06,31.94,180812,,,A*58
212,
$GPRMC,080743.000,A,3956.0355,N,11622.2964,E,0.10,37.12,180812,,,A*57
212,
$GPRMC,080744.000,A,3956.0354,N,11622.2962,E,0.10,214.75,180812,,,A*65
212,
$GPRMC,080745.000,A,3956.0353,N,11622.2961,E,0.07,192.34,180812,,,A*6E
212,
$GPRMC,080746.000,A,3956.0353,N,11622.2960,E,0.03,86.86,180812,,,A*55
212,
$GPRMC,080747.000,A,3956.0353,N,11622.2960,E,0.06,174.05,180812,,,A*66
212,
$GPRMC,080748.000,A,3956.0353,N,11622.2959,E,0.03,157.76,180812,,,A*63
212,
$GPRMC,080749.000,A,3956.0353,N,11622.2959,E,0.03,157.97,180812,,,A*6D
212,
$GPRMC,080750.000,A,3956.0354,N,11622.2959,E,0.01,101.71,180812,,,A*6B
212,
$GPRMC,080751.000,A,3956.0354,N,11622.2959,E,0.03,95.68,180812,,,A*5C
212,
$GPRMC,080752.000,A,3956.0354,N,11622.2959,E,0.04,69.28,180812,,,A*5F
212,
$GPRMC,080753.000,A,3956.0355,N,11622.2959,E,0.06,50.75,180812,,,A*5F
212,
$GPRMC,080754.000,A,3956.0355,N,11622.2959,E,0.01,42.68,180812,,,A*50
212,
$GPRMC,080755.000,A,3956.0356,N,11622.2959,E,0.03,59.59,180812,,,A*58
212,
$GPRMC,080756.000,A,3956.0356,N,11622.2959,E,0.04,35.84,180812,,,A*56
212,
$GPRMC,080757.000,A,3956.0356,N,11622.2959,E,0.03,80.64,180812,,,A*50
212,
$GPRMC,080758.000,A,3956.0355,N,11622.2959,E,0.03,44.46,180812,,,A*54
212,
$GPRMC,080759.000,A,3956.0356,N,11622.2959,E,0.05,62.63,180812,,,A*53
212,
$GPRMC,080800.000,A,3956.0356,N,11622.2958,E,0.03,47.25,180812,,,A*52
212,
$GPRMC,080801.000,A,3956.0356,N,11622.2958,E,0.05,66.50,180812,,,A*54
212,
$GPRMC,080802.000,A,3956.0356,N,11622.2958,E,0.05,37.00,180812,,,A*56
212,
$GPRMC,080803.000,A,3956.0356,N,11622.2958,E,0.04,38.79,180812,,,A*57
212,
$GPRMC,080804.000,A,3956.0356,N,11622.2958,E,0.02,30.84,180812,,,A*5C
212,
$GPRMC,080805.000,A,3956.0356,N,11622.2958,E,0.04,57.88,180812,,,A*56
212,
$GPRMC,080806.000,A,3956.0356,N,11622.2958,E,0.03,38.62,180812,,,A*5F
212,
$GPRMC,080807.000,A,3956.0355,N,11622.2958,E,0.07,97.26,180812,,,A*5C
212,
$GPRMC,080808.000,A,3956.0354,N,11622.2958,E,0.02,120.86,180812,,,A*60
212,
$GPRMC,080809.000,A,3956.0353,N,11622.2957,E,0.09,72.66,180812,,,A*5A
213,
$GPRMC,080810.000,A,3956.0353,N,11622.2957,E,0.04,112.54,180812,,,A*69
213,
$GPRMC,080811.000,A,3956.0353,N,11622.2957,E,0.06,106.84,180812,,,A*62
213,
$GPRMC,080812.000,A,3956.0352,N,11622.2957,E,0.07,89.79,180812,,,A*55
213,
$GPRMC,080813.000,A,3956.0352,N,11622.2957,E,0.07,116.67,180812,,,A*6C
213,
$GPRMC,080814.000,A,3956.0351,N,11622.2957,E,0.04,97.92,180812,,,A*59
213,
$GPRMC,080815.000,A,3956.0350,N,11622.2957,E,0.06,127.21,180812,,,A*69
213,
$GPRMC,080816.000,A,3956.0348,N,11622.2956,E,0.06,128.02,180812,,,A*6C
213,
$GPRMC,080817.000,A,3956.0347,N,11622.2956,E,0.07,141.64,180812,,,A*6C
213,
$GPRMC,080818.000,A,3956.0346,N,11622.2956,E,0.06,120.49,180812,,,A*6B
213,
$GPRMC,080819.000,A,3956.0346,N,11622.2956,E,0.09,119.92,180812,,,A*69
213,
$GPRMC,080820.000,A,3956.0345,N,11622.2956,E,0.08,145.28,180812,,,A*69
213,
$GPRMC,080821.000,A,3956.0344,N,11622.2956,E,0.06,132.92,180812,,,A*66
213,
$GPRMC,080822.000,A,3956.0344,N,11622.2956,E,0.08,133.65,180812,,,A*62
213,
$GPRMC,080823.000,A,3956.0343,N,11622.2956,E,0.09,145.69,180812,,,A*68
213,
$GPRMC,080824.000,A,3956.0343,N,11622.2956,E,0.06,112.61,180812,,,A*6A
213,
$GPRMC,080825.000,A,3956.0342,N,11622.2956,E,0.05,140.38,180812,,,A*62
212,
$GPRMC,080826.000,A,3956.0342,N,11622.2956,E,0.07,123.37,180812,,,A*69
212,
$GPRMC,080827.000,A,3956.0342,N,11622.2956,E,0.05,124.79,180812,,,A*67
212,
$GPRMC,080828.000,A,3956.0342,N,11622.2956,E,0.05,98.16,180812,,,A*57
211,
$GPRMC,080829.000,A,3956.0341,N,11622.2956,E,0.07,114.15,180812,,,A*61
211,
$GPRMC,080830.000,A,3956.0341,N,11622.2956,E,0.05,86.26,180812,,,A*51
211,
$GPRMC,080831.000,A,3956.0341,N,11622.2956,E,0.07,111.08,180812,,,A*61
211,
$GPRMC,080832.000,A,3956.0341,N,11622.2956,E,0.04,82.74,180812,,,A*51
211,
$GPRMC,080833.000,A,3956.0341,N,11622.2957,E,0.06,90.66,180812,,,A*53
211,
$GPRMC,080834.000,A,3956.0341,N,11622.2957,E,0.05,96.60,180812,,,A*57
211,
$GPRMC,080835.000,A,3956.0341,N,11622.2957,E,0.03,109.60,180812,,,A*67
211,
$GPRMC,080836.000,A,3956.0341,N,11622.2957,E,0.06,83.14,180812,,,A*51
212,
$GPRMC,080837.000,A,3956.0341,N,11622.2957,E,0.06,86.86,180812,,,A*5E
212,
$GPRMC,080838.000,A,3956.0341,N,11622.2957,E,0.06,73.94,180812,,,A*58
212,
$GPRMC,080839.000,A,3956.0341,N,11622.2957,E,0.05,41.13,180812,,,A*54
212,
$GPRMC,080840.000,A,3956.0341,N,11622.2957,E,0.06,52.82,180812,,,A*53
212,
$GPRMC,080841.000,A,3956.0341,N,11622.2957,E,0.07,51.38,180812,,,A*51
212,
$GPRMC,080842.000,A,3956.0341,N,11622.2957,E,0.08,56.89,180812,,,A*50
212,
$GPRMC,080843.000,A,3956.0341,N,11622.2958,E,0.07,77.43,180812,,,A*54
212,
$GPRMC,080844.000,A,3956.0341,N,11622.2958,E,0.09,79.16,180812,,,A*53
211,
$GPRMC,080845.000,A,3956.0342,N,11622.2958,E,0.07,79.06,180812,,,A*5E
211,
$GPRMC,080846.000,A,3956.0343,N,11622.2958,E,0.08,50.08,180812,,,A*56
211,
$GPRMC,080847.000,A,3956.0344,N,11622.2959,E,0.07,57.24,180812,,,A*57
211,
$GPRMC,080848.000,A,3956.0344,N,11622.2959,E,0.08,52.52,180812,,,A*53
211,
$GPRMC,080849.000,A,3956.0344,N,11622.2959,E,0.02,56.15,180812,,,A*5F
211,
$GPRMC,080850.000,A,3956.0344,N,11622.2959,E,0.08,29.11,180812,,,A*51
211,
$GPRMC,080851.000,A,3956.0344,N,11622.2959,E,0.15,30.35,180812,,,A*52
212,
$GPRMC,080852.000,A,3956.0344,N,11622.2959,E,0.03,278.75,180812,,,A*6C
212,
$GPRMC,080853.000,A,3956.0343,N,11622.2959,E,0.05,261.20,180812,,,A*64
212,
$GPRMC,080854.000,A,3956.0342,N,11622.2959,E,0.12,55.66,180812,,,A*53
212,
$GPRMC,080855.000,A,3956.0341,N,11622.2959,E,0.06,52.90,180812,,,A*5A
212,
$GPRMC,080856.000,A,3956.0342,N,11622.2959,E,0.10,33.76,180812,,,A*52
211,
$GPRMC,080857.000,A,3956.0343,N,11622.2960,E,0.14,30.33,180812,,,A*5E
211,
$GPRMC,080858.000,A,3956.0343,N,11622.2960,E,0.04,23.12,180812,,,A*51
211,
$GPRMC,080859.000,A,3956.0343,N,11622.2960,E,0.07,330.17,180812,,,A*67
211,
$GPRMC,080900.000,A,3956.0343,N,11622.2960,E,0.03,33.03,180812,,,A*5B
211,
$GPRMC,080901.000,A,3956.0343,N,11622.2961,E,0.02,135.66,180812,,,A*6E
211,
$GPRMC,080902.000,A,3956.0342,N,11622.2961,E,0.09,178.03,180812,,,A*6D
212,
$GPRMC,080903.000,A,3956.0342,N,11622.2961,E,0.16,33.00,180812,,,A*5F
212,
$GPRMC,080904.000,A,3956.0343,N,11622.2962,E,0.16,29.53,180812,,,A*57
211,
$GPRMC,080905.000,A,3956.0345,N,11622.2963,E,0.19,38.57,180812,,,A*5A
212,
$GPRMC,080906.000,A,3956.0348,N,11622.2964,E,0.23,24.55,180812,,,A*55
211,
$GPRMC,080907.000,A,3956.0349,N,11622.2964,E,0.21,23.08,180812,,,A*58
212,
$GPRMC,080908.000,A,3956.0350,N,11622.2965,E,0.13,18.04,180812,,,A*5B
211,
$GPRMC,080909.000,A,3956.0350,N,11622.2964,E,0.09,23.90,180812,,,A*55
211,
$GPRMC,080910.000,A,3956.0348,N,11622.2964,E,0.02,182.42,180812,,,A*6A
211,
$GPRMC,080911.000,A,3956.0347,N,11622.2964,E,0.05,49.93,180812,,,A*59
211,
$GPRMC,080912.000,A,3956.0347,N,11622.2963,E,0.07,36.84,180812,,,A*51
211,
$GPRMC,080913.000,A,3956.0347,N,11622.2963,E,0.07,46.72,180812,,,A*5E
210,
$GPRMC,080914.000,A,3956.0348,N,11622.2964,E,0.04,80.33,180812,,,A*5D
210,
$GPRMC,080915.000,A,3956.0349,N,11622.2964,E,0.05,42.07,180812,,,A*55
211,
$GPRMC,080916.000,A,3956.0350,N,11622.2964,E,0.07,37.70,180812,,,A*5E
211,
$GPRMC,080917.000,A,3956.0351,N,11622.2965,E,0.09,36.03,180812,,,A*54
211,
$GPRMC,080918.000,A,3956.0352,N,11622.2965,E,0.09,38.84,180812,,,A*59
211,
$GPRMC,080919.000,A,3956.0353,N,11622.2965,E,0.04,51.11,180812,,,A*57
211,
$GPRMC,080920.000,A,3956.0354,N,11622.2965,E,0.09,70.40,180812,,,A*50
212,
$GPRMC,080921.000,A,3956.0355,N,11622.2965,E,0.08,32.32,180812,,,A*52
212,
$GPRMC,080922.000,A,3956.0353,N,11622.2966,E,0.01,333.08,180812,,,A*66
212,
$GPRMC,080923.000,A,3956.0352,N,11622.2966,E,0.05,148.22,180812,,,A*64
212,
$GPRMC,080924.000,A,3956.0351,N,11622.2966,E,0.04,67.12,180812,,,A*5E
211,
$GPRMC,080925.000,A,3956.0350,N,11622.2967,E,0.09,175.43,180812,,,A*64
211,
$GPRMC,080926.000,A,3956.0350,N,11622.2967,E,0.08,81.03,180812,,,A*58
211,
$GPRMC,080927.000,A,3956.0350,N,11622.2967,E,0.08,69.42,180812,,,A*5A
211,
$GPRMC,080928.000,A,3956.0351,N,11622.2968,E,0.08,65.06,180812,,,A*57
210,
$GPRMC,080929.000,A,3956.0349,N,11622.2968,E,0.05,156.89,180812,,,A*64
210,
$GPRMC,080930.000,A,3956.0347,N,11622.2967,E,0.11,177.33,180812,,,A*6A
210,
$GPRMC,080931.000,A,3956.0347,N,11622.2968,E,0.06,121.88,180812,,,A*61
209,
$GPRMC,080932.000,A,3956.0348,N,11622.2968,E,0.05,121.20,180812,,,A*6C
209,
$GPRMC,080933.000,A,3956.0348,N,11622.2968,E,0.07,78.30,180812,,,A*53
208,
$GPRMC,080934.000,A,3956.0349,N,11622.2969,E,0.07,98.37,180812,,,A*5D
208,
$GPRMC,080935.000,A,3956.0349,N,11622.2969,E,0.07,125.99,180812,,,A*6F
207,
$GPRMC,080936.000,A,3956.0349,N,11622.2969,E,0.10,128.30,180812,,,A*64
205,
$GPRMC,080937.000,A,3956.0349,N,11622.2970,E,0.09,54.44,180812,,,A*5C
203,
$GPRMC,080938.000,A,3956.0350,N,11622.2970,E,0.28,31.63,180812,,,A*5E
200,
$GPRMC,080939.000,A,3956.0349,N,11622.2970,E,0.46,99.51,180812,,,A*5C
195,
$GPRMC,080940.000,A,3956.0348,N,11622.2972,E,0.86,127.54,180812,,,A*6C
189,
$GPRMC,080941.000,A,3956.0346,N,11622.2973,E,1.24,165.96,180812,,,A*63
183,
$GPRMC,080942.000,A,3956.0344,N,11622.2973,E,1.03,193.98,180812,,,A*60
175,
