$PSRFTXT,Version:GSW3.5.0_3.5.00.00-SDK-3EP2.01 *46
217,
$GPRMC,070432.000,A,3956.3731,N,11624.1489,E,0.49,304.68,180812,,,A*61
217,
$GPRMC,070433.000,A,3956.3735,N,11624.1485,E,1.01,257.40,180812,,,A*68
216,
$GPRMC,070434.000,A,3956.3724,N,11624.1480,E,2.57,202.91,180812,,,A*66
217,
$GPRMC,070435.000,A,3956.3719,N,11624.1470,E,2.08,258.16,180812,,,A*6C
216,
$GPRMC,070436.000,A,3956.3723,N,11624.1456,E,2.34,301.75,180812,,,A*65
215,
$GPRMC,070437.000,A,3956.3729,N,11624.1450,E,0.80,321.17,180812,,,A*63
216,
$GPRMC,070438.000,A,3956.3730,N,11624.1445,E,1.81,297.15,180812,,,A*6E
216,
$GPRMC,070439.000,A,3956.3731,N,11624.1435,E,2.70,276.54,180812,,,A*6E
216,
$GPRMC,070440.000,A,3956.3733,N,11624.1425,E,2.85,279.44,180812,,,A*67
216,
$GPRMC,070441.000,A,3956.3733,N,11624.1418,E,2.48,273.10,180812,,,A*62
216,
$GPRMC,070442.000,A,3956.3732,N,11624.1413,E,2.50,275.65,180812,,,A*66
215,
$GPRMC,070443.000,A,3956.3729,N,11624.1399,E,3.99,264.24,180812,,,A*69
214,
$GPRMC,070444.000,A,3956.3729,N,11624.1385,E,3.99,274.44,180812,,,A*64
215,
$GPRMC,070445.000,A,3956.3728,N,11624.1373,E,3.58,272.86,180812,,,A*68
216,
$GPRMC,070446.000,A,3956.3726,N,11624.1361,E,3.89,264.82,180812,,,A*69
216,
$GPRMC,070447.000,A,3956.3723,N,11624.1348,E,4.13,252.08,180812,,,A*65
217,
$GPRMC,070448.000,A,3956.3722,N,11624.1335,E,2.86,257.39,180812,,,A*6C
217,
$GPRMC,070449.000,A,3956.3718,N,11624.1328,E,2.25,234.29,180812,,,A*65
216,
$GPRMC,070450.000,A,3956.3715,N,11624.1320,E,3.07,246.77,180812,,,A*67
215,
$GPRMC,070451.000,A,3956.3716,N,11624.1306,E,4.69,289.29,180812,,,A*66
216,
$GPRMC,070452.000,A,3956.3718,N,11624.1293,E,2.99,277.99,180812,,,A*65
216,
$GPRMC,070453.000,A,3956.3717,N,11624.1284,E,2.69,270.30,180812,,,A*66
217,
$GPRMC,070454.000,A,3956.3716,N,11624.1278,E,3.17,271.04,180812,,,A*6D
217,
$GPRMC,070455.000,A,3956.3712,N,11624.1269,E,4.30,259.98,180812,,,A*65
218,
$GPRMC,070456.000,A,3956.3710,N,11624.1255,E,4.65,264.28,180812,,,A*6E
218,
$GPRMC,070457.000,A,3956.3708,N,11624.1241,E,4.70,270.37,180812,,,A*6C
217,
$GPRMC,070458.000,A,3956.3705,N,11624.1227,E,4.60,268.84,180812,,,A*6E
217,
$GPRMC,070459.000,A,3956.3704,N,11624.1212,E,4.23,265.38,180812,,,A*65
216,
$GPRMC,070500.000,A,3956.3702,N,11624.1198,E,4.27,262.52,180812,,,A*60
216,
$GPRMC,070501.000,A,3956.3699,N,11624.1187,E,3.85,263.53,180812,,,A*63
216,
$GPRMC,070502.000,A,3956.3697,N,11624.1177,E,3.15,258.80,180812,,,A*6E
215,
$GPRMC,070503.000,A,3956.3695,N,11624.1167,E,3.00,259.26,180812,,,A*65
216,
$GPRMC,070504.000,A,3956.3693,N,11624.1158,E,2.89,252.73,180812,,,A*63
216,
$GPRMC,070505.000,A,3956.3689,N,11624.1152,E,2.84,248.22,180812,,,A*61
216,
$GPRMC,070506.000,A,3956.3686,N,11624.1142,E,3.56,243.64,180812,,,A*6B
216,
$GPRMC,070507.000,A,3956.3682,N,11624.1132,E,3.50,261.38,180812,,,A*66
217,
$GPRMC,070508.000,A,3956.3682,N,11624.1116,E,3.58,253.07,180812,,,A*6A
217,
$GPRMC,070509.000,A,3956.3683,N,11624.1099,E,4.32,261.78,180812,,,A*6E
218,
$GPRMC,070510.000,A,3956.3683,N,11624.1080,E,5.08,262.28,180812,,,A*60
218,
$GPRMC,070511.000,A,3956.3683,N,11624.1057,E,5.30,263.45,180812,,,A*6A
218,
$GPRMC,070512.000,A,3956.3683,N,11624.1033,E,6.11,266.93,180812,,,A*65
218,
$GPRMC,070513.000,A,3956.3685,N,11624.1007,E,6.93,269.07,180812,,,A*6D
219,
$GPRMC,070514.000,A,3956.3682,N,11624.0984,E,5.69,265.49,180812,,,A*6E
220,
$GPRMC,070515.000,A,3956.3678,N,11624.0960,E,5.85,257.05,180812,,,A*6B
221,
$GPRMC,070516.000,A,3956.3675,N,11624.0936,E,6.77,265.64,180812,,,A*6E
219,
$GPRMC,070517.000,A,3956.3674,N,11624.0908,E,7.55,268.27,180812,,,A*68
221,
$GPRMC,070518.000,A,3956.3672,N,11624.0882,E,6.84,267.99,180812,,,A*65
223,
$GPRMC,070519.000,A,3956.3668,N,11624.0859,E,6.85,264.66,180812,,,A*6B
223,
$GPRMC,070520.000,A,3956.3666,N,11624.0834,E,6.15,263.81,180812,,,A*63
223,
$GPRMC,070521.000,A,3956.3665,N,11624.0805,E,6.31,264.01,180812,,,A*6A
224,
$GPRMC,070522.000,A,3956.3666,N,11624.0776,E,6.85,262.82,180812,,,A*63
223,
$GPRMC,070523.000,A,3956.3662,N,11624.0747,E,6.39,255.47,180812,,,A*6E
221,
$GPRMC,070524.000,A,3956.3662,N,11624.0721,E,6.38,258.82,180812,,,A*6C
220,
$GPRMC,070525.000,A,3956.3663,N,11624.0693,E,6.01,261.80,180812,,,A*66
217,
$GPRMC,070526.000,A,3956.3662,N,11624.0669,E,6.51,261.43,180812,,,A*6B
219,
$GPRMC,070527.000,A,3956.3660,N,11624.0646,E,5.95,262.31,180812,,,A*68
214,
$GPRMC,070528.000,A,3956.3661,N,11624.0622,E,5.35,263.69,180812,,,A*62
218,
$GPRMC,070529.000,A,3956.3660,N,11624.0600,E,5.50,258.74,180812,,,A*65
220,
$GPRMC,070530.000,A,3956.3661,N,11624.0578,E,4.32,258.48,180812,,,A*6A
220,
$GPRMC,070531.000,A,3956.3660,N,11624.0562,E,2.59,255.64,180812,,,A*69
221,
$GPRMC,070532.000,A,3956.3663,N,11624.0544,E,2.66,257.08,180812,,,A*69
224,
$GPRMC,070533.000,A,3956.3661,N,11624.0526,E,3.57,245.03,180812,,,A*65
225,
$GPRMC,070534.000,A,3956.3655,N,11624.0507,E,5.76,255.70,180812,,,A*66
225,
$GPRMC,070535.000,A,3956.3651,N,11624.0480,E,6.55,256.56,180812,,,A*68
226,
$GPRMC,070536.000,A,3956.3651,N,11624.0448,E,6.90,260.93,180812,,,A*6A
226,
$GPRMC,070537.000,A,3956.3648,N,11624.0418,E,6.71,258.65,180812,,,A*6B
227,
$GPRMC,070538.000,A,3956.3643,N,11624.0391,E,6.68,255.65,180812,,,A*6C
225,
$GPRMC,070539.000,A,3956.3641,N,11624.0364,E,6.07,260.40,180812,,,A*6D
226,
$GPRMC,070540.000,A,3956.3645,N,11624.0335,E,6.58,267.31,180812,,,A*68
223,
$GPRMC,070541.000,A,3956.3650,N,11624.0303,E,6.90,274.05,180812,,,A*69
225,
$GPRMC,070542.000,A,3956.3655,N,11624.0272,E,5.78,278.06,180812,,,A*62
227,
$GPRMC,070543.000,A,3956.3660,N,11624.0247,E,5.00,271.72,180812,,,A*66
228,
$GPRMC,070544.000,A,3956.3659,N,11624.0226,E,4.34,268.20,180812,,,A*65
230,
$GPRMC,070545.000,A,3956.3658,N,11624.0206,E,4.53,263.43,180812,,,A*68
231,
$GPRMC,070546.000,A,3956.3657,N,11624.0183,E,4.92,271.93,180812,,,A*69
231,
$GPRMC,070547.000,A,3956.3655,N,11624.0161,E,5.78,259.55,180812,,,A*63
231,
$GPRMC,070548.000,A,3956.3650,N,11624.0140,E,5.74,269.53,180812,,,A*63
232,
$GPRMC,070549.000,A,3956.3647,N,11624.0119,E,5.16,272.49,180812,,,A*6D
230,
$GPRMC,070550.000,A,3956.3646,N,11624.0097,E,5.02,266.35,180812,,,A*68
230,
$GPRMC,070551.000,A,3956.3645,N,11624.0075,E,4.83,266.21,180812,,,A*6B
229,
$GPRMC,070552.000,A,3956.3645,N,11624.0049,E,6.18,272.13,180812,,,A*63
228,
$GPRMC,070553.000,A,3956.3649,N,11624.0020,E,5.70,269.28,180812,,,A*6E
229,
$GPRMC,070554.000,A,3956.3646,N,11623.9994,E,5.33,259.53,180812,,,A*66
231,
$GPRMC,070555.000,A,3956.3644,N,11623.9970,E,5.77,259.30,180812,,,A*6A
231,
$GPRMC,070556.000,A,3956.3644,N,11623.9944,E,5.86,260.17,180812,,,A*6F
232,
$GPRMC,070557.000,A,3956.3645,N,11623.9918,E,5.27,266.22,180812,,,A*6D
233,
$GPRMC,070558.000,A,3956.3644,N,11623.9897,E,4.84,264.20,180812,,,A*6D
233,
$GPRMC,070559.000,A,3956.3641,N,11623.9882,E,4.14,260.06,180812,,,A*64
234,
$GPRMC,070600.000,A,3956.3642,N,11623.9865,E,2.67,273.12,180812,,,A*64
234,
$GPRMC,070601.000,A,3956.3650,N,11623.9848,E,3.21,277.57,180812,,,A*6F
234,
$GPRMC,070602.000,A,3956.3652,N,11623.9830,E,3.34,266.60,180812,,,A*61
234,
$GPRMC,070603.000,A,3956.3649,N,11623.9813,E,2.99,244.64,180812,,,A*69
233,
$GPRMC,070604.000,A,3956.3649,N,11623.9798,E,3.84,255.50,180812,,,A*68
231,
$GPRMC,070605.000,A,3956.3649,N,11623.9782,E,2.28,245.81,180812,,,A*68
230,
$GPRMC,070606.000,A,3956.3650,N,11623.9774,E,0.98,324.62,180812,,,A*68
229,
$GPRMC,070607.000,A,3956.3652,N,11623.9772,E,0.24,128.33,180812,,,A*60
229,
$GPRMC,070608.000,A,3956.3649,N,11623.9774,E,0.47,192.34,180812,,,A*60
229,
$GPRMC,070609.000,A,3956.3652,N,11623.9771,E,0.66,224.77,180812,,,A*64
229,
$GPRMC,070610.000,A,3956.3650,N,11623.9771,E,1.09,193.76,180812,,,A*68
228,
$GPRMC,070611.000,A,3956.3648,N,11623.9768,E,1.82,207.26,180812,,,A*60
227,
$GPRMC,070612.000,A,3956.3645,N,11623.9763,E,1.24,230.61,180812,,,A*6E
227,
$GPRMC,070613.000,A,3956.3644,N,11623.9755,E,1.99,219.12,180812,,,A*62
228,
$GPRMC,070614.000,A,3956.3641,N,11623.9751,E,1.38,199.24,180812,,,A*61
226,
$GPRMC,070615.000,A,3956.3636,N,11623.9750,E,1.80,184.26,180812,,,A*6C
226,
$GPRMC,070616.000,A,3956.3628,N,11623.9754,E,1.91,168.29,180812,,,A*69
224,
$GPRMC,070617.000,A,3956.3621,N,11623.9755,E,2.41,185.75,180812,,,A*64
224,
$GPRMC,070618.000,A,3956.3616,N,11623.9752,E,2.44,210.54,180812,,,A*61
225,
$GPRMC,070619.000,A,3956.3612,N,11623.9749,E,1.59,213.18,180812,,,A*6A
227,
$GPRMC,070620.000,A,3956.3609,N,11623.9746,E,1.94,230.42,180812,,,A*6A
227,
$GPRMC,070621.000,A,3956.3609,N,11623.9737,E,2.42,238.02,180812,,,A*69
227,
$GPRMC,070622.000,A,3956.3611,N,11623.9724,E,2.53,255.62,180812,,,A*6C
226,
$GPRMC,070623.000,A,3956.3613,N,11623.9714,E,1.27,254.49,180812,,,A*64
226,
$GPRMC,070624.000,A,3956.3614,N,11623.9705,E,2.62,245.46,180812,,,A*69
225,
$GPRMC,070625.000,A,3956.3614,N,11623.9695,E,2.55,256.55,180812,,,A*64
225,
$GPRMC,070626.000,A,3956.3618,N,11623.9685,E,1.23,281.77,180812,,,A*62
224,
$GPRMC,070627.000,A,3956.3621,N,11623.9676,E,2.14,282.75,180812,,,A*63
224,
$GPRMC,070628.000,A,3956.3627,N,11623.9663,E,2.09,278.20,180812,,,A*67
224,
$GPRMC,070629.000,A,3956.3631,N,11623.9649,E,2.47,275.46,180812,,,A*6E
224,
$GPRMC,070630.000,A,3956.3635,N,11623.9639,E,1.06,285.75,180812,,,A*6C
224,
$GPRMC,070631.000,A,3956.3637,N,11623.9632,E,1.01,241.25,180812,,,A*6E
224,
$GPRMC,070632.000,A,3956.3635,N,11623.9626,E,1.60,225.80,180812,,,A*60
223,
$GPRMC,070633.000,A,3956.3632,N,11623.9619,E,1.68,263.72,180812,,,A*6D
222,
$GPRMC,070634.000,A,3956.3633,N,11623.9609,E,2.38,263.45,180812,,,A*68
221,
$GPRMC,070635.000,A,3956.3633,N,11623.9597,E,2.15,271.05,180812,,,A*65
221,
$GPRMC,070636.000,A,3956.3633,N,11623.9590,E,1.72,255.55,180812,,,A*60
221,
$GPRMC,070637.000,A,3956.3630,N,11623.9582,E,2.31,251.18,180812,,,A*68
220,
$GPRMC,070638.000,A,3956.3630,N,11623.9574,E,1.40,269.01,180812,,,A*68
220,
$GPRMC,070639.000,A,3956.3631,N,11623.9564,E,2.28,283.97,180812,,,A*6F
219,
$GPRMC,070640.000,A,3956.3633,N,11623.9555,E,1.76,284.41,180812,,,A*65
219,
$GPRMC,070641.000,A,3956.3635,N,11623.9546,E,2.09,295.78,180812,,,A*61
219,
$GPRMC,070642.000,A,3956.3637,N,11623.9534,E,1.88,272.51,180812,,,A*6D
219,
$GPRMC,070643.000,A,3956.3636,N,11623.9525,E,1.41,259.67,180812,,,A*64
219,
$GPRMC,070644.000,A,3956.3636,N,11623.9516,E,1.92,253.85,180812,,,A*6B
218,
$GPRMC,070645.000,A,3956.3633,N,11623.9507,E,2.74,244.80,180812,,,A*67
217,
$GPRMC,070646.000,A,3956.3634,N,11623.9496,E,2.25,275.79,180812,,,A*6A
217,
$GPRMC,070647.000,A,3956.3635,N,11623.9483,E,2.14,247.99,180812,,,A*63
218,
$GPRMC,070648.000,A,3956.3633,N,11623.9473,E,1.87,224.62,180812,,,A*6D
218,
$GPRMC,070649.000,A,3956.3634,N,11623.9463,E,1.55,244.13,180812,,,A*65
217,
$GPRMC,070650.000,A,3956.3635,N,11623.9455,E,1.59,240.91,180812,,,A*6B
217,
$GPRMC,070651.000,A,3956.3636,N,11623.9447,E,1.17,280.38,180812,,,A*6F
217,
$GPRMC,070652.000,A,3956.3638,N,11623.9441,E,0.21,297.27,180812,,,A*68
217,
$GPRMC,070653.000,A,3956.3640,N,11623.9437,E,0.61,194.70,180812,,,A*61
216,
$GPRMC,070654.000,A,3956.3641,N,11623.9436,E,0.67,130.19,180812,,,A*61
216,
$GPRMC,070655.000,A,3956.3643,N,11623.9433,E,0.33,272.48,180812,,,A*67
216,
$GPRMC,070656.000,A,3956.3644,N,11623.9429,E,0.49,205.00,180812,,,A*69
216,
$GPRMC,070657.000,A,3956.3644,N,11623.9424,E,0.47,253.75,180812,,,A*6A
216,
$GPRMC,070658.000,A,3956.3646,N,11623.9420,E,0.15,257.72,180812,,,A*67
216,
$GPRMC,070659.000,A,3956.3649,N,11623.9420,E,0.09,355.27,180812,,,A*67
215,
$GPRMC,070700.000,A,3956.3649,N,11623.9421,E,0.86,162.20,180812,,,A*6D
215,
$GPRMC,070701.000,A,3956.3648,N,11623.9424,E,0.88,124.14,180812,,,A*63
215,
$GPRMC,070702.000,A,3956.3646,N,11623.9425,E,0.42,210.99,180812,,,A*68
215,
$GPRMC,070703.000,A,3956.3646,N,11623.9424,E,0.42,253.12,180812,,,A*6C
214,
$GPRMC,070704.000,A,3956.3646,N,11623.9420,E,1.02,219.64,180812,,,A*65
214,
$GPRMC,070705.000,A,3956.3641,N,11623.9418,E,1.38,176.94,180812,,,A*64
213,
$GPRMC,070706.000,A,3956.3633,N,11623.9418,E,3.12,167.53,180812,,,A*63
213,
$GPRMC,070707.000,A,3956.3623,N,11623.9421,E,2.56,156.35,180812,,,A*6A
213,
$GPRMC,070708.000,A,3956.3614,N,11623.9425,E,2.58,156.81,180812,,,A*64
212,
$GPRMC,070709.000,A,3956.3604,N,11623.9428,E,2.86,168.88,180812,,,A*6E
212,
$GPRMC,070710.000,A,3956.3592,N,11623.9426,E,2.86,181.66,180812,,,A*63
212,
$GPRMC,070711.000,A,3956.3583,N,11623.9424,E,2.34,193.29,180812,,,A*61
212,
$GPRMC,070712.000,A,3956.3575,N,11623.9418,E,3.37,200.48,180812,,,A*68
212,
$GPRMC,070713.000,A,3956.3569,N,11623.9415,E,1.67,195.76,180812,,,A*6C
212,
$GPRMC,070714.000,A,3956.3564,N,11623.9412,E,1.30,178.56,180812,,,A*62
211,
$GPRMC,070715.000,A,3956.3560,N,11623.9412,E,1.08,184.55,180812,,,A*6C
211,
$GPRMC,070716.000,A,3956.3555,N,11623.9411,E,1.46,185.49,180812,,,A*6C
211,
$GPRMC,070717.000,A,3956.3549,N,11623.9413,E,1.14,194.37,180812,,,A*6C
211,
$GPRMC,070718.000,A,3956.3544,N,11623.9417,E,0.32,86.58,180812,,,A*54
211,
$GPRMC,070719.000,A,3956.3541,N,11623.9420,E,0.34,105.79,180812,,,A*6B
211,
$GPRMC,070720.000,A,3956.3540,N,11623.9423,E,0.59,58.65,180812,,,A*5C
211,
$GPRMC,070721.000,A,3956.3539,N,11623.9424,E,0.21,92.13,180812,,,A*5C
210,
$GPRMC,070722.000,A,3956.3540,N,11623.9424,E,0.52,152.24,180812,,,A*6C
210,
$GPRMC,070723.000,A,3956.3541,N,11623.9423,E,0.46,176.38,180812,,,A*65
210,
$GPRMC,070724.000,A,3956.3541,N,11623.9420,E,0.27,110.01,180812,,,A*6C
210,
$GPRMC,070725.000,A,3956.3543,N,11623.9417,E,0.68,24.83,180812,,,A*5C
210,
$GPRMC,070726.000,A,3956.3545,N,11623.9413,E,0.41,238.45,180812,,,A*63
209,
$GPRMC,070727.000,A,3956.3546,N,11623.9413,E,0.95,73.60,180812,,,A*52
209,
$GPRMC,070728.000,A,3956.3546,N,11623.9417,E,0.68,80.90,180812,,,A*58
209,
$GPRMC,070729.000,A,3956.3547,N,11623.9414,E,0.25,139.23,180812,,,A*69
209,
$GPRMC,070730.000,A,3956.3547,N,11623.9412,E,0.32,237.59,180812,,,A*61
209,
$GPRMC,070731.000,A,3956.3545,N,11623.9412,E,0.97,61.30,180812,,,A*53
208,
$GPRMC,070732.000,A,3956.3543,N,11623.9412,E,0.82,184.49,180812,,,A*66
208,
$GPRMC,070733.000,A,3956.3542,N,11623.9406,E,0.50,265.34,180812,,,A*6A
208,
$GPRMC,070734.000,A,3956.3544,N,11623.9403,E,0.33,27.16,180812,,,A*5F
208,
$GPRMC,070735.000,A,3956.3544,N,11623.9401,E,0.21,203.75,180812,,,A*6E
207,
$GPRMC,070736.000,A,3956.3541,N,11623.9401,E,0.83,171.54,180812,,,A*65
207,
$GPRMC,070737.000,A,3956.3539,N,11623.9399,E,0.33,269.01,180812,,,A*6C
207,
$GPRMC,070738.000,A,3956.3544,N,11623.9396,E,0.97,349.50,180812,,,A*6F
207,
$GPRMC,070739.000,A,3956.3550,N,11623.9394,E,1.53,357.71,180812,,,A*6C
207,
$GPRMC,070740.000,A,3956.3551,N,11623.9393,E,0.38,115.69,180812,,,A*65
207,
$GPRMC,070741.000,A,3956.3549,N,11623.9392,E,0.45,167.75,180812,,,A*6E
207,
$GPRMC,070742.000,A,3956.3548,N,11623.9391,E,1.38,195.55,180812,,,A*6B
207,
$GPRMC,070743.000,A,3956.3543,N,11623.9390,E,2.14,192.11,180812,,,A*6A
206,
$GPRMC,070744.000,A,3956.3540,N,11623.9389,E,0.63,155.49,180812,,,A*62
206,
$GPRMC,070745.000,A,3956.3541,N,11623.9389,E,0.64,56.01,180812,,,A*5B
206,
$GPRMC,070746.000,A,3956.3539,N,11623.9389,E,0.09,86.05,180812,,,A*55
206,
$GPRMC,070747.000,A,3956.3539,N,11623.9390,E,0.17,38.64,180812,,,A*51
206,
$GPRMC,070748.000,A,3956.3539,N,11623.9389,E,0.64,194.70,180812,,,A*60
206,
$GPRMC,070749.000,A,3956.3539,N,11623.9387,E,0.43,283.65,180812,,,A*6B
206,
$GPRMC,070750.000,A,3956.3539,N,11623.9385,E,0.49,124.26,180812,,,A*62
206,
$GPRMC,070751.000,A,3956.3542,N,11623.9385,E,0.63,32.22,180812,,,A*55
206,
$GPRMC,070752.000,A,3956.3540,N,11623.9383,E,0.29,15.29,180812,,,A*52
206,
$GPRMC,070753.000,A,3956.3538,N,11623.9384,E,1.14,143.73,180812,,,A*69
205,
$GPRMC,070754.000,A,3956.3536,N,11623.9382,E,1.33,213.84,180812,,,A*6D
205,
$GPRMC,070755.000,A,3956.3532,N,11623.9385,E,0.31,87.30,180812,,,A*5C
205,
$GPRMC,070756.000,A,3956.3527,N,11623.9386,E,0.34,199.85,180812,,,A*6D
205,
$GPRMC,070757.000,A,3956.3525,N,11623.9385,E,0.50,224.13,180812,,,A*65
205,
$GPRMC,070758.000,A,3956.3526,N,11623.9379,E,0.85,247.07,180812,,,A*62
204,
$GPRMC,070759.000,A,3956.3525,N,11623.9375,E,0.72,236.52,180812,,,A*62
204,
$GPRMC,070800.000,A,3956.3528,N,11623.9372,E,0.78,281.99,180812,,,A*6A
204,
$GPRMC,070801.000,A,3956.3528,N,11623.9370,E,0.17,191.83,180812,,,A*69
204,
$GPRMC,070802.000,A,3956.3527,N,11623.9371,E,0.28,93.29,180812,,,A*5B
204,
$GPRMC,070803.000,A,3956.3528,N,11623.9372,E,0.75,41.74,180812,,,A*59
204,
$GPRMC,070804.000,A,3956.3527,N,11623.9373,E,0.56,165.92,180812,,,A*6E
204,
$GPRMC,070805.000,A,3956.3527,N,11623.9376,E,0.49,108.64,180812,,,A*66
204,
$GPRMC,070806.000,A,3956.3529,N,11623.9377,E,0.27,144.24,180812,,,A*6E
204,
$GPRMC,070807.000,A,3956.3530,N,11623.9379,E,0.52,53.59,180812,,,A*56
204,
$GPRMC,070808.000,A,3956.3529,N,11623.9382,E,0.59,115.41,180812,,,A*64
204,
$GPRMC,070809.000,A,3956.3528,N,11623.9383,E,0.35,230.81,180812,,,A*67
204,
$GPRMC,070810.000,A,3956.3528,N,11623.9382,E,0.74,217.26,180812,,,A*63
204,
$GPRMC,070811.000,A,3956.3527,N,11623.9381,E,0.34,281.10,180812,,,A*60
204,
$GPRMC,070812.000,A,3956.3527,N,11623.9381,E,0.30,159.44,180812,,,A*60
204,
$GPRMC,070813.000,A,3956.3527,N,11623.9380,E,0.38,137.50,180812,,,A*65
204,
$GPRMC,070814.000,A,3956.3527,N,11623.9381,E,0.33,85.98,180812,,,A*54
203,
$GPRMC,070815.000,A,3956.3528,N,11623.9382,E,0.34,337.22,180812,,,A*65
203,
$GPRMC,070816.000,A,3956.3530,N,11623.9381,E,0.20,7.34,180812,,,A*6E
203,
$GPRMC,070817.000,A,3956.3529,N,11623.9382,E,0.40,261.04,180812,,,A*63
203,
$GPRMC,070818.000,A,3956.3527,N,11623.9381,E,0.31,197.93,180812,,,A*63
203,
$GPRMC,070819.000,A,3956.3525,N,11623.9381,E,0.47,198.38,180812,,,A*6F
203,
$GPRMC,070820.000,A,3956.3525,N,11623.9381,E,0.17,86.59,180812,,,A*59
203,
$GPRMC,070821.000,A,3956.3525,N,11623.9381,E,0.43,77.01,180812,,,A*5A
203,
$GPRMC,070822.000,A,3956.3524,N,11623.9383,E,0.37,78.09,180812,,,A*5E
203,
$GPRMC,070823.000,A,3956.3525,N,11623.9385,E,0.10,306.06,180812,,,A*68
203,
$GPRMC,070824.000,A,3956.3525,N,11623.9384,E,0.29,195.72,180812,,,A*6F
203,
$GPRMC,070825.000,A,3956.3524,N,11623.9383,E,0.57,196.80,180812,,,A*6F
203,
$GPRMC,070826.000,A,3956.3522,N,11623.9382,E,0.62,206.94,180812,,,A*62
203,
$GPRMC,070827.000,A,3956.3521,N,11623.9382,E,0.25,39.24,180812,,,A*56
203,
$GPRMC,070828.000,A,3956.3521,N,11623.9380,E,0.35,198.16,180812,,,A*61
203,
$GPRMC,070829.000,A,3956.3520,N,11623.9377,E,0.76,262.66,180812,,,A*6F
202,
$GPRMC,070830.000,A,3956.3521,N,11623.9374,E,0.71,221.57,180812,,,A*67
202,
$GPRMC,070831.000,A,3956.3520,N,11623.9375,E,0.71,273.08,180812,,,A*6B
202,
$GPRMC,070832.000,A,3956.3521,N,11623.9376,E,0.46,282.85,180812,,,A*65
202,
$GPRMC,070833.000,A,3956.3520,N,11623.9376,E,0.40,247.37,180812,,,A*63
202,
$GPRMC,070834.000,A,3956.3519,N,11623.9376,E,0.50,200.84,180812,,,A*64
202,
