$PSRFTXT,Version:GSW3.5.0_3.5.00.00-SDK-3EP2.01 *46
196,
$GPRMC,065355.822,A,3956.3940,N,11625.5738,E,5.92,273.56,180812,,,A*60
186,
$GPRMC,065356.822,A,3956.3993,N,11625.5674,E,6.07,273.83,180812,,,A*63
191,
$GPRMC,065357.822,A,3956.4030,N,11625.5622,E,6.37,268.41,180812,,,A*61
192,
$GPRMC,065358.822,A,3956.4059,N,11625.5572,E,6.66,257.66,180812,,,A*6A
190,
$GPRMC,065359.822,A,3956.4069,N,11625.5530,E,6.90,256.84,180812,,,A*6A
193,
$GPRMC,065400.822,A,3956.4069,N,11625.5506,E,6.89,258.39,180812,,,A*64
198,
$GPRMC,065401.822,A,3956.4067,N,11625.5486,E,6.85,256.10,180812,,,A*6B
201,
$GPRMC,065402.822,A,3956.4074,N,11625.5450,E,7.39,272.36,180812,,,A*65
203,
$GPRMC,065403.822,A,3956.4063,N,11625.5424,E,7.20,265.24,180812,,,A*6C
206,
$GPRMC,065406.000,A,3956.4032,N,11625.5387,E,7.04,267.78,180812,,,A*66
200,
$GPRMC,065407.000,A,3956.4016,N,11625.5371,E,7.07,268.13,180812,,,A*69
194,
$GPRMC,065408.000,A,3956.4001,N,11625.5354,E,7.18,269.24,180812,,,A*6C
188,
$GPRMC,065409.000,A,3956.3987,N,11625.5333,E,7.14,272.38,180812,,,A*67
185,
$GPRMC,065410.000,A,3956.3978,N,11625.5310,E,7.07,271.14,180812,,,A*61
187,
$GPRMC,065411.000,A,3956.3972,N,11625.5287,E,7.30,271.33,180812,,,A*64
190,
$GPRMC,065412.000,A,3956.3966,N,11625.5265,E,7.33,270.12,180812,,,A*6F
189,
$GPRMC,065413.000,A,3956.3963,N,11625.5240,E,7.38,274.17,180812,,,A*66
194,
$GPRMC,065414.000,A,3956.3956,N,11625.5217,E,7.16,264.35,180812,,,A*68
199,
$GPRMC,065415.000,A,3956.3947,N,11625.5195,E,7.31,256.03,180812,,,A*61
206,
$GPRMC,065416.000,A,3956.3940,N,11625.5170,E,7.15,262.16,180812,,,A*6B
209,
$GPRMC,065417.000,A,3956.3931,N,11625.5145,E,7.24,257.08,180812,,,A*61
214,
$GPRMC,065418.000,A,3956.3930,N,11625.5111,E,7.64,266.12,180812,,,A*63
216,
$GPRMC,065419.000,A,3956.3929,N,11625.5078,E,7.43,270.97,180812,,,A*6B
212,
$GPRMC,065420.000,A,3956.3930,N,11625.5045,E,7.52,271.19,180812,,,A*60
212,
$GPRMC,065421.000,A,3956.3934,N,11625.5012,E,8.12,278.59,180812,,,A*61
210,
$GPRMC,065422.000,A,3956.3933,N,11625.4982,E,7.92,273.59,180812,,,A*68
209,
$GPRMC,065423.000,A,3956.3931,N,11625.4951,E,7.56,264.67,180812,,,A*66
210,
$GPRMC,065424.000,A,3956.3923,N,11625.4921,E,7.59,263.98,180812,,,A*6D
211,
$GPRMC,065425.000,A,3956.3917,N,11625.4890,E,7.86,268.64,180812,,,A*6A
213,
$GPRMC,065426.000,A,3956.3912,N,11625.4859,E,7.65,266.41,180812,,,A*6D
212,
$GPRMC,065427.000,A,3956.3906,N,11625.4828,E,7.74,267.53,180812,,,A*6D
216,
$GPRMC,065428.000,A,3956.3902,N,11625.4796,E,7.68,268.10,180812,,,A*69
214,
$GPRMC,065429.000,A,3956.3899,N,11625.4764,E,7.91,273.46,180812,,,A*69
219,
$GPRMC,065430.000,A,3956.3899,N,11625.4730,E,7.98,272.03,180812,,,A*69
223,
$GPRMC,065431.000,A,3956.3898,N,11625.4698,E,7.60,264.67,180812,,,A*68
225,
$GPRMC,065432.000,A,3956.3899,N,11625.4666,E,7.78,271.98,180812,,,A*66
224,
$GPRMC,065433.000,A,3956.3898,N,11625.4636,E,7.42,274.31,180812,,,A*6C
220,
$GPRMC,065434.000,A,3956.3899,N,11625.4609,E,6.78,267.46,180812,,,A*6C
220,
$GPRMC,065435.000,A,3956.3900,N,11625.4581,E,7.00,268.13,180812,,,A*6E
222,
$GPRMC,065436.000,A,3956.3903,N,11625.4552,E,6.81,270.20,180812,,,A*61
221,
$GPRMC,065437.000,A,3956.3908,N,11625.4522,E,7.07,273.15,180812,,,A*66
223,
$GPRMC,065438.000,A,3956.3913,N,11625.4491,E,7.40,272.33,180812,,,A*6C
226,
$GPRMC,065439.000,A,3956.3917,N,11625.4461,E,7.82,279.80,180812,,,A*6B
231,
$GPRMC,065440.000,A,3956.3919,N,11625.4430,E,7.95,278.75,180812,,,A*62
233,
$GPRMC,065441.000,A,3956.3920,N,11625.4400,E,7.88,273.87,180812,,,A*60
233,
$GPRMC,065442.000,A,3956.3924,N,11625.4368,E,8.12,278.60,180812,,,A*60
232,
$GPRMC,065443.000,A,3956.3928,N,11625.4338,E,7.85,272.85,180812,,,A*68
232,
$GPRMC,065444.000,A,3956.3931,N,11625.4307,E,8.04,271.03,180812,,,A*60
228,
$GPRMC,065445.000,A,3956.3932,N,11625.4276,E,8.12,271.88,180812,,,A*61
224,
$GPRMC,065446.000,A,3956.3931,N,11625.4246,E,8.20,272.79,180812,,,A*6E
216,
$GPRMC,065447.000,A,3956.3927,N,11625.4222,E,7.92,268.73,180812,,,A*6D
207,
$GPRMC,065448.000,A,3956.3928,N,11625.4197,E,7.66,271.52,180812,,,A*60
204,
$GPRMC,065449.000,A,3956.3928,N,11625.4175,E,7.42,269.05,180812,,,A*60
204,
$GPRMC,065450.000,A,3956.3928,N,11625.4153,E,7.73,255.90,180812,,,A*6D
208,
$GPRMC,065451.000,A,3956.3927,N,11625.4132,E,7.66,256.02,180812,,,A*68
204,
$GPRMC,065452.000,A,3956.3927,N,11625.4109,E,7.85,264.82,180812,,,A*67
210,
$GPRMC,065453.000,A,3956.3928,N,11625.4085,E,7.77,268.40,180812,,,A*63
214,
$GPRMC,065454.000,A,3956.3928,N,11625.4057,E,8.02,270.62,180812,,,A*6F
214,
$GPRMC,065455.000,A,3956.3930,N,11625.4028,E,7.96,268.31,180812,,,A*62
214,
$GPRMC,065456.000,A,3956.3936,N,11625.3999,E,8.07,271.95,180812,,,A*62
214,
$GPRMC,065457.000,A,3956.3940,N,11625.3972,E,7.79,264.09,180812,,,A*60
223,
$GPRMC,065458.000,A,3956.3941,N,11625.3946,E,7.98,269.48,180812,,,A*6E
228,
$GPRMC,065459.000,A,3956.3941,N,11625.3920,E,8.14,270.00,180812,,,A*60
227,
$GPRMC,065500.000,A,3956.3945,N,11625.3892,E,7.87,269.94,180812,,,A*61
224,
$GPRMC,065501.000,A,3956.3949,N,11625.3866,E,7.90,270.71,180812,,,A*62
224,
$GPRMC,065502.000,A,3956.3948,N,11625.3842,E,7.80,265.96,180812,,,A*6A
224,
$GPRMC,065503.000,A,3956.3940,N,11625.3820,E,7.40,263.96,180812,,,A*6D
228,
$GPRMC,065504.000,A,3956.3934,N,11625.3798,E,7.33,261.55,180812,,,A*6C
227,
$GPRMC,065505.000,A,3956.3930,N,11625.3774,E,7.55,268.72,180812,,,A*67
230,
$GPRMC,065506.000,A,3956.3926,N,11625.3751,E,7.33,270.94,180812,,,A*65
235,
$GPRMC,065507.000,A,3956.3924,N,11625.3727,E,7.53,270.63,180812,,,A*69
235,
$GPRMC,065508.000,A,3956.3922,N,11625.3703,E,7.30,271.98,180812,,,A*66
234,
$GPRMC,065509.000,A,3956.3919,N,11625.3679,E,7.37,267.53,180812,,,A*64
234,
$GPRMC,065510.000,A,3956.3915,N,11625.3656,E,7.17,265.03,180812,,,A*68
234,
$GPRMC,065511.000,A,3956.3913,N,11625.3633,E,7.14,268.08,180812,,,A*69
234,
$GPRMC,065512.000,A,3956.3911,N,11625.3608,E,7.27,269.48,180812,,,A*65
235,
$GPRMC,065513.000,A,3956.3909,N,11625.3584,E,6.98,267.86,180812,,,A*63
236,
$GPRMC,065514.000,A,3956.3907,N,11625.3561,E,7.08,269.53,180812,,,A*6F
232,
$GPRMC,065515.000,A,3956.3906,N,11625.3536,E,6.95,266.99,180812,,,A*61
228,
$GPRMC,065516.000,A,3956.3902,N,11625.3514,E,6.82,267.85,180812,,,A*6C
229,
$GPRMC,065517.000,A,3956.3901,N,11625.3491,E,6.54,270.89,180812,,,A*63
229,
$GPRMC,065518.000,A,3956.3900,N,11625.3470,E,6.24,270.78,180812,,,A*6B
231,
$GPRMC,065519.000,A,3956.3897,N,11625.3452,E,5.16,270.38,180812,,,A*63
232,
$GPRMC,065520.000,A,3956.3892,N,11625.3436,E,4.71,271.50,180812,,,A*61
237,
$GPRMC,065521.000,A,3956.3888,N,11625.3421,E,4.41,270.03,180812,,,A*69
241,
$GPRMC,065522.000,A,3956.3884,N,11625.3406,E,3.52,271.69,180812,,,A*6B
243,
$GPRMC,065523.000,A,3956.3882,N,11625.3395,E,2.91,269.98,180812,,,A*68
245,
$GPRMC,065524.000,A,3956.3879,N,11625.3387,E,2.30,264.22,180812,,,A*6F
246,
$GPRMC,065525.000,A,3956.3875,N,11625.3381,E,1.51,258.31,180812,,,A*6D
246,
$GPRMC,065526.000,A,3956.3872,N,11625.3380,E,1.11,232.53,180812,,,A*64
246,
$GPRMC,065527.000,A,3956.3868,N,11625.3380,E,0.97,230.33,180812,,,A*65
246,
$GPRMC,065528.000,A,3956.3865,N,11625.3382,E,0.40,210.25,180812,,,A*6A
246,
$GPRMC,065529.000,A,3956.3864,N,11625.3384,E,0.22,139.76,180812,,,A*66
245,
$GPRMC,065530.000,A,3956.3860,N,11625.3390,E,0.33,149.52,180812,,,A*6E
244,
$GPRMC,065531.000,A,3956.3860,N,11625.3392,E,0.67,231.33,180812,,,A*67
243,
$GPRMC,065532.000,A,3956.3860,N,11625.3389,E,1.85,249.85,180812,,,A*61
242,
$GPRMC,065533.000,A,3956.3861,N,11625.3382,E,2.69,261.72,180812,,,A*69
241,
$GPRMC,065534.000,A,3956.3862,N,11625.3373,E,3.51,254.64,180812,,,A*68
240,
$GPRMC,065535.000,A,3956.3864,N,11625.3360,E,3.61,258.98,180812,,,A*61
232,
$GPRMC,065536.000,A,3956.3871,N,11625.3343,E,5.30,279.01,180812,,,A*66
228,
$GPRMC,065537.000,A,3956.3877,N,11625.3323,E,6.04,281.35,180812,,,A*63
222,
$GPRMC,065538.000,A,3956.3884,N,11625.3300,E,6.89,281.22,180812,,,A*62
217,
$GPRMC,065539.000,A,3956.3888,N,11625.3276,E,6.96,278.26,180812,,,A*63
221,
$GPRMC,065540.000,A,3956.3891,N,11625.3252,E,7.17,272.12,180812,,,A*66
219,
$GPRMC,065541.000,A,3956.3898,N,11625.3223,E,7.19,267.35,180812,,,A*67
221,
$GPRMC,065542.000,A,3956.3904,N,11625.3193,E,7.91,271.48,180812,,,A*65
222,
$GPRMC,065543.000,A,3956.3913,N,11625.3162,E,7.69,273.33,180812,,,A*65
221,
$GPRMC,065544.000,A,3956.3922,N,11625.3129,E,7.86,274.10,180812,,,A*68
219,
$GPRMC,065545.000,A,3956.3928,N,11625.3100,E,7.56,272.73,180812,,,A*66
221,
$GPRMC,065546.000,A,3956.3934,N,11625.3072,E,7.88,276.53,180812,,,A*69
224,
$GPRMC,065547.000,A,3956.3940,N,11625.3044,E,7.69,277.38,180812,,,A*6D
223,
$GPRMC,065548.000,A,3956.3945,N,11625.3015,E,7.34,264.93,180812,,,A*68
224,
$GPRMC,065549.000,A,3956.3948,N,11625.2986,E,7.41,267.70,180812,,,A*6A
226,
$GPRMC,065550.000,A,3956.3957,N,11625.2954,E,7.62,273.71,180812,,,A*66
226,
$GPRMC,065551.000,A,3956.3959,N,11625.2924,E,7.98,272.62,180812,,,A*68
226,
$GPRMC,065552.000,A,3956.3954,N,11625.2895,E,7.73,268.31,180812,,,A*65
225,
$GPRMC,065553.000,A,3956.3950,N,11625.2867,E,7.74,260.29,180812,,,A*6B
223,
$GPRMC,065554.000,A,3956.3948,N,11625.2837,E,8.06,270.82,180812,,,A*6A
222,
$GPRMC,065555.000,A,3956.3946,N,11625.2805,E,8.07,269.04,180812,,,A*63
221,
$GPRMC,065556.000,A,3956.3944,N,11625.2773,E,7.98,269.68,180812,,,A*6F
219,
$GPRMC,065557.000,A,3956.3944,N,11625.2739,E,8.04,266.43,180812,,,A*6C
218,
$GPRMC,065558.000,A,3956.3938,N,11625.2708,E,8.02,263.50,180812,,,A*6B
221,
$GPRMC,065559.000,A,3956.3942,N,11625.2673,E,8.15,268.09,180812,,,A*6B
224,
$GPRMC,065600.000,A,3956.3950,N,11625.2636,E,8.45,271.98,180812,,,A*63
224,
$GPRMC,065601.000,A,3956.3954,N,11625.2599,E,8.33,267.04,180812,,,A*63
225,
$GPRMC,065602.000,A,3956.3957,N,11625.2563,E,8.53,270.90,180812,,,A*6B
227,
$GPRMC,065603.000,A,3956.3960,N,11625.2528,E,8.21,269.51,180812,,,A*61
230,
$GPRMC,065604.000,A,3956.3962,N,11625.2497,E,8.29,269.71,180812,,,A*6B
233,
$GPRMC,065605.000,A,3956.3968,N,11625.2468,E,9.21,279.70,180812,,,A*69
233,
$GPRMC,065606.000,A,3956.3976,N,11625.2440,E,8.27,274.42,180812,,,A*64
237,
$GPRMC,065607.000,A,3956.3981,N,11625.2412,E,8.12,271.24,180812,,,A*69
239,
$GPRMC,065608.000,A,3956.3985,N,11625.2386,E,7.51,268.86,180812,,,A*60
235,
$GPRMC,065609.000,A,3956.3985,N,11625.2362,E,7.54,266.53,180812,,,A*68
233,
$GPRMC,065610.000,A,3956.3973,N,11625.2340,E,7.85,257.51,180812,,,A*65
234,
$GPRMC,065611.000,A,3956.3959,N,11625.2317,E,7.83,262.39,180812,,,A*60
232,
$GPRMC,065612.000,A,3956.3951,N,11625.2293,E,7.40,267.88,180812,,,A*66
235,
$GPRMC,065613.000,A,3956.3947,N,11625.2268,E,7.72,268.45,180812,,,A*6B
240,
$GPRMC,065614.000,A,3956.3945,N,11625.2242,E,7.60,271.20,180812,,,A*6E
243,
$GPRMC,065615.000,A,3956.3941,N,11625.2217,E,7.42,268.02,180812,,,A*63
245,
$GPRMC,065616.000,A,3956.3935,N,11625.2193,E,7.43,267.88,180812,,,A*60
240,
$GPRMC,065617.000,A,3956.3928,N,11625.2167,E,7.68,268.32,180812,,,A*61
240,
$GPRMC,065618.000,A,3956.3924,N,11625.2141,E,7.53,272.59,180812,,,A*68
238,
$GPRMC,065619.000,A,3956.3921,N,11625.2115,E,7.12,269.89,180812,,,A*6F
235,
$GPRMC,065620.000,A,3956.3917,N,11625.2089,E,7.16,267.23,180812,,,A*6E
232,
$GPRMC,065621.000,A,3956.3914,N,11625.2065,E,7.13,267.85,180812,,,A*67
236,
$GPRMC,065622.000,A,3956.3910,N,11625.2040,E,6.58,268.13,180812,,,A*69
240,
$GPRMC,065623.000,A,3956.3908,N,11625.2016,E,6.63,271.24,180812,,,A*66
242,
$GPRMC,065624.000,A,3956.3908,N,11625.1994,E,6.08,272.85,180812,,,A*64
241,
$GPRMC,065625.000,A,3956.3907,N,11625.1972,E,6.03,271.61,180812,,,A*60
245,
$GPRMC,065626.000,A,3956.3905,N,11625.1951,E,5.56,272.98,180812,,,A*66
243,
$GPRMC,065627.000,A,3956.3904,N,11625.1933,E,4.83,271.63,180812,,,A*6C
242,
$GPRMC,065628.000,A,3956.3902,N,11625.1917,E,4.40,271.96,180812,,,A*66
244,
$GPRMC,065629.000,A,3956.3901,N,11625.1901,E,4.37,269.96,180812,,,A*6A
244,
$GPRMC,065630.000,A,3956.3900,N,11625.1884,E,4.20,275.48,180812,,,A*67
245,
$GPRMC,065631.000,A,3956.3899,N,11625.1870,E,2.96,276.63,180812,,,A*6D
246,
$GPRMC,065632.000,A,3956.3898,N,11625.1861,E,2.08,272.32,180812,,,A*68
245,
$GPRMC,065633.000,A,3956.3898,N,11625.1854,E,2.12,274.70,180812,,,A*64
245,
$GPRMC,065634.000,A,3956.3898,N,11625.1847,E,1.73,273.36,180812,,,A*60
245,
$GPRMC,065635.000,A,3956.3896,N,11625.1843,E,0.94,260.28,180812,,,A*6E
244,
$GPRMC,065636.000,A,3956.3895,N,11625.1841,E,0.25,130.29,180812,,,A*61
243,
$GPRMC,065637.000,A,3956.3893,N,11625.1842,E,0.02,77.95,180812,,,A*55
242,
$GPRMC,065638.000,A,3956.3892,N,11625.1843,E,0.12,126.87,180812,,,A*6D
241,
$GPRMC,065639.000,A,3956.3891,N,11625.1844,E,0.02,145.60,180812,,,A*65
240,
$GPRMC,065640.000,A,3956.3890,N,11625.1846,E,0.05,180.16,180812,,,A*67
239,
$GPRMC,065641.000,A,3956.3889,N,11625.1848,E,0.05,215.40,180812,,,A*6C
239,
$GPRMC,065642.000,A,3956.3888,N,11625.1848,E,0.06,301.66,180812,,,A*6D
238,
$GPRMC,065643.000,A,3956.3887,N,11625.1849,E,0.19,298.71,180812,,,A*6B
237,
$GPRMC,065644.000,A,3956.3886,N,11625.1849,E,0.16,299.26,180812,,,A*61
236,
$GPRMC,065645.000,A,3956.3885,N,11625.1849,E,0.02,198.36,180812,,,A*65
235,
$GPRMC,065646.000,A,3956.3884,N,11625.1850,E,0.06,134.28,180812,,,A*62
235,
$GPRMC,065647.000,A,3956.3882,N,11625.1851,E,0.05,176.19,180812,,,A*63
234,
$GPRMC,065648.000,A,3956.3881,N,11625.1851,E,0.12,125.29,180812,,,A*6C
234,
$GPRMC,065649.000,A,3956.3880,N,11625.1851,E,0.19,210.89,180812,,,A*68
233,
$GPRMC,065650.000,A,3956.3879,N,11625.1851,E,0.37,166.46,180812,,,A*6B
232,
$GPRMC,065651.000,A,3956.3878,N,11625.1849,E,1.17,256.81,180812,,,A*6A
232,
$GPRMC,065652.000,A,3956.3877,N,11625.1843,E,1.93,257.33,180812,,,A*68
237,
$GPRMC,065653.000,A,3956.3875,N,11625.1835,E,2.44,245.25,180812,,,A*67
244,
$GPRMC,065654.000,A,3956.3872,N,11625.1826,E,3.00,247.93,180812,,,A*6B
243,
$GPRMC,065655.000,A,3956.3867,N,11625.1816,E,3.67,241.16,180812,,,A*67
239,
$GPRMC,065656.000,A,3956.3862,N,11625.1803,E,4.27,249.76,180812,,,A*68
231,
$GPRMC,065657.000,A,3956.3857,N,11625.1789,E,4.44,254.86,180812,,,A*64
226,
$GPRMC,065658.000,A,3956.3855,N,11625.1771,E,5.25,261.90,180812,,,A*69
220,
$GPRMC,065659.000,A,3956.3854,N,11625.1751,E,5.31,268.26,180812,,,A*6A
216,
$GPRMC,065700.000,A,3956.3854,N,11625.1731,E,5.48,270.76,180812,,,A*63
215,
$GPRMC,065701.000,A,3956.3855,N,11625.1711,E,5.73,270.71,180812,,,A*6E
213,
$GPRMC,065702.000,A,3956.3854,N,11625.1690,E,5.64,268.42,180812,,,A*6B
212,
$GPRMC,065703.000,A,3956.3854,N,11625.1669,E,5.80,270.88,180812,,,A*69
214,
$GPRMC,065704.000,A,3956.3854,N,11625.1648,E,5.96,271.08,180812,,,A*63
216,
$GPRMC,065705.000,A,3956.3853,N,11625.1628,E,5.80,271.79,180812,,,A*62
226,
$GPRMC,065706.000,A,3956.3851,N,11625.1609,E,5.48,268.63,180812,,,A*67
229,
$GPRMC,065707.000,A,3956.3848,N,11625.1592,E,5.17,265.57,180812,,,A*6F
236,
$GPRMC,065708.000,A,3956.3846,N,11625.1575,E,5.12,268.93,180812,,,A*67
239,
$GPRMC,065709.000,A,3956.3843,N,11625.1559,E,5.26,265.03,180812,,,A*6E
241,
$GPRMC,065710.000,A,3956.3839,N,11625.1542,E,5.39,266.12,180812,,,A*6C
242,
$GPRMC,065711.000,A,3956.3835,N,11625.1526,E,4.56,258.02,180812,,,A*67
239,
$GPRMC,065712.000,A,3956.3832,N,11625.1512,E,4.36,264.95,180812,,,A*63
237,
$GPRMC,065713.000,A,3956.3831,N,11625.1498,E,3.55,270.35,180812,,,A*6F
238,
$GPRMC,065714.000,A,3956.3829,N,11625.1481,E,4.93,268.95,180812,,,A*67
235,
$GPRMC,065715.000,A,3956.3829,N,11625.1459,E,5.53,273.66,180812,,,A*68
233,
$GPRMC,065716.000,A,3956.3829,N,11625.1438,E,5.30,265.81,180812,,,A*67
230,
$GPRMC,065717.000,A,3956.3827,N,11625.1416,E,5.94,263.75,180812,,,A*67
225,
$GPRMC,065718.000,A,3956.3826,N,11625.1394,E,6.15,273.71,180812,,,A*6B
225,
$GPRMC,065719.000,A,3956.3826,N,11625.1371,E,6.03,261.84,180812,,,A*6F
225,
$GPRMC,065720.000,A,3956.3825,N,11625.1345,E,6.49,263.24,180812,,,A*67
223,
$GPRMC,065721.000,A,3956.3826,N,11625.1319,E,6.40,268.84,180812,,,A*64
219,
$GPRMC,065722.000,A,3956.3828,N,11625.1293,E,6.28,272.83,180812,,,A*68
219,
$GPRMC,065723.000,A,3956.3828,N,11625.1267,E,6.05,263.06,180812,,,A*60
218,
$GPRMC,065724.000,A,3956.3826,N,11625.1243,E,5.32,263.00,180812,,,A*6E
217,
$GPRMC,065725.000,A,3956.3825,N,11625.1222,E,4.32,261.04,180812,,,A*6C
218,
$GPRMC,065726.000,A,3956.3822,N,11625.1205,E,4.67,256.35,180812,,,A*6B
218,
$GPRMC,065727.000,A,3956.3816,N,11625.1190,E,3.95,239.74,180812,,,A*64
217,
$GPRMC,065728.000,A,3956.3812,N,11625.1171,E,5.09,251.52,180812,,,A*69
218,
$GPRMC,065729.000,A,3956.3810,N,11625.1151,E,4.67,258.74,180812,,,A*6C
217,
$GPRMC,065730.000,A,3956.3811,N,11625.1127,E,5.46,265.06,180812,,,A*6D
219,
$GPRMC,065731.000,A,3956.3812,N,11625.1102,E,4.99,262.99,180812,,,A*6A
222,
$GPRMC,065732.000,A,3956.3811,N,11625.1077,E,5.23,258.65,180812,,,A*63
224,
$GPRMC,065733.000,A,3956.3809,N,11625.1047,E,6.29,257.95,180812,,,A*61
226,
$GPRMC,065734.000,A,3956.3807,N,11625.1016,E,6.20,261.80,180812,,,A*64
228,
$GPRMC,065735.000,A,3956.3806,N,11625.0983,E,6.67,263.55,180812,,,A*69
228,
$GPRMC,065736.000,A,3956.3807,N,11625.0953,E,7.17,268.32,180812,,,A*6A
233,
$GPRMC,065737.000,A,3956.3810,N,11625.0921,E,6.45,273.02,180812,,,A*67
236,
$GPRMC,065738.000,A,3956.3811,N,11625.0889,E,7.23,268.98,180812,,,A*62
236,
$GPRMC,065739.000,A,3956.3812,N,11625.0857,E,7.13,267.29,180812,,,A*65
237,
$GPRMC,065740.000,A,3956.3812,N,11625.0825,E,7.01,265.02,180812,,,A*66
237,
$GPRMC,065741.000,A,3956.3812,N,11625.0795,E,6.92,263.42,180812,,,A*6A
239,
$GPRMC,065742.000,A,3956.3808,N,11625.0769,E,6.20,248.80,180812,,,A*6F
240,
$GPRMC,065743.000,A,3956.3802,N,11625.0747,E,6.19,244.36,180812,,,A*63
242,
$GPRMC,065744.000,A,3956.3795,N,11625.0729,E,6.13,230.74,180812,,,A*62
241,
$GPRMC,065745.000,A,3956.3784,N,11625.0715,E,5.85,223.74,180812,,,A*62
243,
$GPRMC,065746.000,A,3956.3775,N,11625.0698,E,5.93,238.52,180812,,,A*62
242,
$GPRMC,065747.000,A,3956.3771,N,11625.0676,E,6.29,257.61,180812,,,A*6C
241,
$GPRMC,065748.000,A,3956.3771,N,11625.0649,E,6.52,267.08,180812,,,A*6F
239,
$GPRMC,065749.000,A,3956.3771,N,11625.0623,E,6.77,268.15,180812,,,A*66
237,
$GPRMC,065750.000,A,3956.3772,N,11625.0596,E,7.16,268.33,180812,,,A*62
236,
$GPRMC,065751.000,A,3956.3773,N,11625.0568,E,7.41,266.99,180812,,,A*6F
234,
$GPRMC,065752.000,A,3956.3774,N,11625.0539,E,7.72,266.84,180812,,,A*63
232,
$GPRMC,065753.000,A,3956.3774,N,11625.0509,E,7.76,266.62,180812,,,A*6D
233,
$GPRMC,065754.000,A,3956.3774,N,11625.0479,E,7.92,267.44,180812,,,A*63
230,
$GPRMC,065755.000,A,3956.3775,N,11625.0449,E,8.06,267.91,180812,,,A*6A
229,
$GPRMC,065756.000,A,3956.3774,N,11625.0419,E,7.89,263.32,180812,,,A*68
224,
$GPRMC,065757.000,A,3956.3774,N,11625.0390,E,7.97,267.29,180812,,,A*6E
220,
$GPRMC,065758.000,A,3956.3773,N,11625.0360,E,7.90,266.97,180812,,,A*6A
225,
$GPRMC,065759.000,A,3956.3772,N,11625.0330,E,7.98,267.80,180812,,,A*60
229,
$GPRMC,065800.000,A,3956.3773,N,11625.0300,E,7.79,266.71,180812,,,A*61
232,
$GPRMC,065801.000,A,3956.3773,N,11625.0269,E,7.89,273.74,180812,,,A*60
234,
$GPRMC,065802.000,A,3956.3773,N,11625.0240,E,7.63,269.96,180812,,,A*6B
238,
$GPRMC,065803.000,A,3956.3771,N,11625.0213,E,7.48,264.65,180812,,,A*66
238,
$GPRMC,065804.000,A,3956.3770,N,11625.0186,E,7.77,267.08,180812,,,A*6B
235,
$GPRMC,065805.000,A,3956.3768,N,11625.0158,E,7.61,267.73,180812,,,A*6B
234,
$GPRMC,065806.000,A,3956.3767,N,11625.0129,E,7.67,271.17,180812,,,A*62
232,
$GPRMC,065807.000,A,3956.3767,N,11625.0100,E,7.64,269.52,180812,,,A*63
232,
$GPRMC,065808.000,A,3956.3766,N,11625.0070,E,7.70,266.21,180812,,,A*65
233,
$GPRMC,065809.000,A,3956.3763,N,11625.0040,E,7.70,268.44,180812,,,A*6F
233,
$GPRMC,065810.000,A,3956.3760,N,11625.0011,E,7.66,268.14,180812,,,A*62
234,
$GPRMC,065811.000,A,3956.3756,N,11624.9984,E,7.51,267.42,180812,,,A*63
234,
$GPRMC,065812.000,A,3956.3754,N,11624.9956,E,7.54,268.47,180812,,,A*62
236,
$GPRMC,065813.000,A,3956.3750,N,11624.9928,E,7.53,268.22,180812,,,A*6A
233,
$GPRMC,065814.000,A,3956.3750,N,11624.9899,E,7.43,270.02,180812,,,A*6C
232,
$GPRMC,065815.000,A,3956.3750,N,11624.9869,E,7.52,267.38,180812,,,A*6D
232,
$GPRMC,065816.000,A,3956.3750,N,11624.9841,E,7.68,267.43,180812,,,A*61
232,
$GPRMC,065817.000,A,3956.3751,N,11624.9812,E,7.70,266.77,180812,,,A*68
234,
$GPRMC,065818.000,A,3956.3751,N,11624.9783,E,7.60,268.91,180812,,,A*67
237,
$GPRMC,065819.000,A,3956.3752,N,11624.9753,E,7.71,268.80,180812,,,A*68
236,
$GPRMC,065820.000,A,3956.3753,N,11624.9724,E,7.65,269.76,180812,,,A*6E
235,
$GPRMC,065821.000,A,3956.3753,N,11624.9694,E,7.53,268.17,180812,,,A*66
237,
$GPRMC,065822.000,A,3956.3754,N,11624.9665,E,7.59,270.76,180812,,,A*68
235,
$GPRMC,065823.000,A,3956.3754,N,11624.9636,E,7.52,272.43,180812,,,A*60
235,
$GPRMC,065824.000,A,3956.3755,N,11624.9606,E,7.72,271.66,180812,,,A*63
235,
$GPRMC,065825.000,A,3956.3755,N,11624.9578,E,7.65,268.74,180812,,,A*65
234,
$GPRMC,065826.000,A,3956.3755,N,11624.9551,E,7.58,266.43,180812,,,A*69
234,
$GPRMC,065827.000,A,3956.3754,N,11624.9523,E,7.55,265.89,180812,,,A*64
235,
$GPRMC,065828.000,A,3956.3753,N,11624.9496,E,7.65,266.69,180812,,,A*6D
233,
$GPRMC,065829.000,A,3956.3754,N,11624.9467,E,7.57,271.22,180812,,,A*6D
231,
$GPRMC,065830.000,A,3956.3756,N,11624.9439,E,7.58,271.49,180812,,,A*6E
230,
$GPRMC,065831.000,A,3956.3757,N,11624.9408,E,7.81,269.50,180812,,,A*69
230,
$GPRMC,065832.000,A,3956.3757,N,11624.9378,E,7.88,267.72,180812,,,A*6D
227,
$GPRMC,065833.000,A,3956.3755,N,11624.9348,E,7.87,266.79,180812,,,A*68
229,
$GPRMC,065834.000,A,3956.3753,N,11624.9319,E,7.87,266.74,180812,,,A*60
233,
$GPRMC,065835.000,A,3956.3750,N,11624.9290,E,7.78,266.38,180812,,,A*6A
234,
$GPRMC,065836.000,A,3956.3749,N,11624.9262,E,7.75,266.74,180812,,,A*69
233,
$GPRMC,065837.000,A,3956.3750,N,11624.9234,E,7.70,266.28,180812,,,A*6F
233,
$GPRMC,065838.000,A,3956.3752,N,11624.9206,E,7.66,270.19,180812,,,A*61
228,
$GPRMC,065839.000,A,3956.3751,N,11624.9180,E,7.54,267.34,180812,,,A*66
224,
$GPRMC,065840.000,A,3956.3748,N,11624.9155,E,7.53,266.38,180812,,,A*62
222,
$GPRMC,065841.000,A,3956.3745,N,11624.9129,E,7.49,265.52,180812,,,A*61
222,
$GPRMC,065842.000,A,3956.3743,N,11624.9101,E,7.69,264.80,180812,,,A*62
227,
$GPRMC,065843.000,A,3956.3743,N,11624.9073,E,7.64,266.56,180812,,,A*63
231,
$GPRMC,065844.000,A,3956.3742,N,11624.9044,E,7.55,265.96,180812,,,A*6C
234,
$GPRMC,065845.000,A,3956.3742,N,11624.9015,E,7.76,266.14,180812,,,A*61
236,
$GPRMC,065846.000,A,3956.3742,N,11624.8986,E,7.67,267.27,180812,,,A*61
236,
$GPRMC,065847.000,A,3956.3742,N,11624.8958,E,7.69,265.79,180812,,,A*64
237,
$GPRMC,065848.000,A,3956.3738,N,11624.8930,E,7.72,262.75,180812,,,A*69
235,
$GPRMC,065849.000,A,3956.3736,N,11624.8902,E,8.04,267.87,180812,,,A*61
230,
$GPRMC,065850.000,A,3956.3736,N,11624.8873,E,8.04,270.31,180812,,,A*65
235,
$GPRMC,065851.000,A,3956.3736,N,11624.8843,E,8.17,271.23,180812,,,A*67
236,
$GPRMC,065852.000,A,3956.3737,N,11624.8814,E,8.11,270.35,180812,,,A*67
233,
$GPRMC,065853.000,A,3956.3736,N,11624.8784,E,8.30,267.46,180812,,,A*60
236,
$GPRMC,065854.000,A,3956.3736,N,11624.8753,E,8.34,269.01,180812,,,A*64
240,
$GPRMC,065855.000,A,3956.3738,N,11624.8722,E,8.16,271.76,180812,,,A*64
240,
$GPRMC,065856.000,A,3956.3741,N,11624.8692,E,8.15,272.91,180812,,,A*6A
245,
$GPRMC,065857.000,A,3956.3745,N,11624.8662,E,8.33,276.98,180812,,,A*69
247,
$GPRMC,065858.000,A,3956.3750,N,11624.8633,E,7.82,277.18,180812,,,A*6A
237,
$GPRMC,065859.000,A,3956.3751,N,11624.8604,E,7.86,264.74,180812,,,A*62
238,
$GPRMC,065900.000,A,3956.3748,N,11624.8575,E,8.33,265.67,180812,,,A*60
237,
$GPRMC,065901.000,A,3956.3746,N,11624.8544,E,8.38,265.93,180812,,,A*6D
240,
$GPRMC,065902.000,A,3956.3744,N,11624.8514,E,8.40,265.92,180812,,,A*67
240,
$GPRMC,065903.000,A,3956.3742,N,11624.8484,E,8.16,265.57,180812,,,A*62
239,
$GPRMC,065904.000,A,3956.3740,N,11624.8455,E,8.33,265.21,180812,,,A*6D
237,
$GPRMC,065905.000,A,3956.3738,N,11624.8424,E,8.35,265.64,180812,,,A*62
236,
$GPRMC,065906.000,A,3956.3737,N,11624.8395,E,8.11,266.84,180812,,,A*68
238,
$GPRMC,065907.000,A,3956.3735,N,11624.8365,E,8.36,269.85,180812,,,A*6F
240,
$GPRMC,065908.000,A,3956.3734,N,11624.8335,E,8.20,269.31,180812,,,A*6C
238,
$GPRMC,065909.000,A,3956.3734,N,11624.8305,E,8.28,267.15,180812,,,A*6E
237,
$GPRMC,065910.000,A,3956.3732,N,11624.8276,E,8.28,266.48,180812,,,A*6C
236,
$GPRMC,065911.000,A,3956.3730,N,11624.8247,E,8.29,268.30,180812,,,A*6D
233,
$GPRMC,065912.000,A,3956.3729,N,11624.8216,E,8.38,267.14,180812,,,A*6B
232,
$GPRMC,065913.000,A,3956.3729,N,11624.8185,E,8.41,269.83,180812,,,A*6D
226,
$GPRMC,065914.000,A,3956.3731,N,11624.8154,E,8.34,269.04,180812,,,A*62
223,
$GPRMC,065915.000,A,3956.3733,N,11624.8122,E,8.33,270.04,180812,,,A*6F
228,
$GPRMC,065916.000,A,3956.3730,N,11624.8092,E,8.29,267.64,180812,,,A*6E
232,
$GPRMC,065917.000,A,3956.3730,N,11624.8062,E,8.26,266.84,180812,,,A*60
232,
$GPRMC,065918.000,A,3956.3728,N,11624.8031,E,8.34,263.12,180812,,,A*69
233,
$GPRMC,065919.000,A,3956.3727,N,11624.7999,E,8.39,266.85,180812,,,A*65
231,
$GPRMC,065920.000,A,3956.3728,N,11624.7967,E,8.31,266.27,180812,,,A*61
231,
$GPRMC,065921.000,A,3956.3727,N,11624.7936,E,8.27,263.87,180812,,,A*63
231,
$GPRMC,065922.000,A,3956.3727,N,11624.7906,E,8.08,266.61,180812,,,A*63
235,
$GPRMC,065923.000,A,3956.3727,N,11624.7875,E,8.28,268.05,180812,,,A*69
237,
$GPRMC,065924.000,A,3956.3729,N,11624.7844,E,8.13,268.67,180812,,,A*6E
240,
$GPRMC,065925.000,A,3956.3729,N,11624.7814,E,8.11,268.20,180812,,,A*6B
240,
$GPRMC,065926.000,A,3956.3731,N,11624.7784,E,7.94,270.50,180812,,,A*6B
247,
$GPRMC,065927.000,A,3956.3732,N,11624.7754,E,7.93,270.42,180812,,,A*60
250,
$GPRMC,065928.000,A,3956.3733,N,11624.7724,E,8.01,269.74,180812,,,A*60
251,
$GPRMC,065929.000,A,3956.3736,N,11624.7694,E,8.23,274.16,180812,,,A*66
252,
$GPRMC,065930.000,A,3956.3737,N,11624.7664,E,8.21,272.68,180812,,,A*6D
250,
$GPRMC,065931.000,A,3956.3739,N,11624.7634,E,8.18,270.29,180812,,,A*6A
249,
$GPRMC,065932.000,A,3956.3739,N,11624.7604,E,8.25,271.81,180812,,,A*67
248,
$GPRMC,065933.000,A,3956.3738,N,11624.7574,E,8.41,271.18,180812,,,A*61
246,
$GPRMC,065934.000,A,3956.3738,N,11624.7543,E,8.49,269.78,180812,,,A*65
245,
$GPRMC,065935.000,A,3956.3738,N,11624.7511,E,8.64,269.54,180812,,,A*62
243,
$GPRMC,065936.000,A,3956.3740,N,11624.7479,E,8.51,271.67,180812,,,A*6E
244,
$GPRMC,065937.000,A,3956.3741,N,11624.7448,E,8.37,271.10,180812,,,A*6C
245,
$GPRMC,065938.000,A,3956.3740,N,11624.7418,E,8.24,266.04,180812,,,A*66
247,
$GPRMC,065939.000,A,3956.3738,N,11624.7387,E,8.32,266.06,180812,,,A*6C
243,
$GPRMC,065940.000,A,3956.3736,N,11624.7357,E,8.33,269.07,180812,,,A*6E
240,
$GPRMC,065941.000,A,3956.3737,N,11624.7327,E,8.22,271.13,180812,,,A*65
237,
$GPRMC,065942.000,A,3956.3736,N,11624.7298,E,7.92,267.64,180812,,,A*61
232,
$GPRMC,065943.000,A,3956.3733,N,11624.7271,E,8.00,265.73,180812,,,A*62
230,
$GPRMC,065944.000,A,3956.3733,N,11624.7242,E,7.88,265.84,180812,,,A*62
228,
$GPRMC,065945.000,A,3956.3732,N,11624.7214,E,7.95,262.43,180812,,,A*61
229,
$GPRMC,065946.000,A,3956.3728,N,11624.7186,E,8.11,263.64,180812,,,A*66
230,
$GPRMC,065947.000,A,3956.3727,N,11624.7157,E,8.04,269.01,180812,,,A*69
235,
$GPRMC,065948.000,A,3956.3729,N,11624.7128,E,8.24,272.82,180812,,,A*63
237,
$GPRMC,065949.000,A,3956.3730,N,11624.7097,E,8.17,270.52,180812,,,A*60
241,
$GPRMC,065950.000,A,3956.3731,N,11624.7068,E,8.13,270.27,180812,,,A*6F
244,
$GPRMC,065951.000,A,3956.3731,N,11624.7038,E,8.09,270.62,180812,,,A*61
247,
$GPRMC,065952.000,A,3956.3731,N,11624.7008,E,8.14,270.53,180812,,,A*6F
247,
$GPRMC,065953.000,A,3956.3731,N,11624.6978,E,7.93,264.80,180812,,,A*6A
250,
$GPRMC,065954.000,A,3956.3729,N,11624.6949,E,8.04,266.00,180812,,,A*6D
251,
$GPRMC,065955.000,A,3956.3730,N,11624.6919,E,7.84,268.41,180812,,,A*6D
250,
$GPRMC,065956.000,A,3956.3729,N,11624.6891,E,7.53,266.77,180812,,,A*66
249,
$GPRMC,065957.000,A,3956.3729,N,11624.6862,E,7.55,267.70,180812,,,A*6B
249,
$GPRMC,065958.000,A,3956.3732,N,11624.6834,E,7.68,272.01,180812,,,A*61
249,
$GPRMC,065959.000,A,3956.3734,N,11624.6806,E,7.84,274.64,180812,,,A*60
247,
$GPRMC,070000.000,A,3956.3738,N,11624.6777,E,7.89,278.44,180812,,,A*67
247,
$GPRMC,070001.000,A,3956.3744,N,11624.6749,E,7.53,286.72,180812,,,A*63
244,
$GPRMC,070002.000,A,3956.3751,N,11624.6723,E,7.26,283.06,180812,,,A*6C
244,
$GPRMC,070003.000,A,3956.3756,N,11624.6697,E,7.22,274.00,180812,,,A*6E
244,
$GPRMC,070004.000,A,3956.3759,N,11624.6671,E,7.17,271.29,180812,,,A*66
240,
$GPRMC,070005.000,A,3956.3761,N,11624.6646,E,6.83,275.62,180812,,,A*6F
240,
$GPRMC,070006.000,A,3956.3764,N,11624.6622,E,6.34,273.23,180812,,,A*64
242,
$GPRMC,070007.000,A,3956.3766,N,11624.6599,E,6.06,268.96,180812,,,A*61
246,
$GPRMC,070008.000,A,3956.3766,N,11624.6578,E,5.57,267.84,180812,,,A*6A
248,
$GPRMC,070009.000,A,3956.3767,N,11624.6559,E,5.09,266.90,180812,,,A*66
250,
$GPRMC,070010.000,A,3956.3767,N,11624.6542,E,4.41,264.98,180812,,,A*63
251,
$GPRMC,070011.000,A,3956.3767,N,11624.6527,E,4.00,260.84,180812,,,A*6D
252,
$GPRMC,070012.000,A,3956.3766,N,11624.6514,E,3.48,262.06,180812,,,A*6C
252,
$GPRMC,070013.000,A,3956.3765,N,11624.6503,E,3.15,260.66,180812,,,A*64
251,
$GPRMC,070014.000,A,3956.3766,N,11624.6492,E,3.05,266.26,180812,,,A*6A
251,
$GPRMC,070015.000,A,3956.3767,N,11624.6481,E,3.08,270.00,180812,,,A*66
250,
$GPRMC,070016.000,A,3956.3767,N,11624.6470,E,2.86,266.64,180812,,,A*69
250,
$GPRMC,070017.000,A,3956.3767,N,11624.6460,E,2.74,261.56,180812,,,A*62
249,
$GPRMC,070018.000,A,3956.3767,N,11624.6451,E,2.20,265.30,180812,,,A*6A
248,
$GPRMC,070019.000,A,3956.3768,N,11624.6444,E,2.17,267.45,180812,,,A*64
248,
$GPRMC,070020.000,A,3956.3769,N,11624.6435,E,2.56,269.20,180812,,,A*61
247,
$GPRMC,070021.000,A,3956.3767,N,11624.6427,E,2.63,247.74,180812,,,A*66
245,
$GPRMC,070022.000,A,3956.3763,N,11624.6418,E,4.03,248.69,180812,,,A*6E
244,
$GPRMC,070023.000,A,3956.3760,N,11624.6402,E,4.85,257.51,180812,,,A*6C
239,
$GPRMC,070024.000,A,3956.3755,N,11624.6386,E,5.47,253.73,180812,,,A*6D
233,
$GPRMC,070025.000,A,3956.3750,N,11624.6367,E,5.98,255.09,180812,,,A*6F
231,
$GPRMC,070026.000,A,3956.3748,N,11624.6345,E,6.31,263.10,180812,,,A*68
227,
$GPRMC,070027.000,A,3956.3746,N,11624.6322,E,6.53,263.69,180812,,,A*6C
227,
$GPRMC,070028.000,A,3956.3746,N,11624.6297,E,6.82,264.98,180812,,,A*69
226,
$GPRMC,070029.000,A,3956.3743,N,11624.6273,E,7.03,259.70,180812,,,A*67
226,
$GPRMC,070030.000,A,3956.3739,N,11624.6248,E,7.34,259.93,180812,,,A*63
227,
$GPRMC,070031.000,A,3956.3735,N,11624.6223,E,7.19,260.67,180812,,,A*6D
227,
$GPRMC,070032.000,A,3956.3734,N,11624.6196,E,7.54,265.89,180812,,,A*6E
229,
$GPRMC,070033.000,A,3956.3733,N,11624.6169,E,7.41,265.36,180812,,,A*68
231,
$GPRMC,070034.000,A,3956.3732,N,11624.6141,E,7.72,262.74,180812,,,A*65
234,
$GPRMC,070035.000,A,3956.3731,N,11624.6113,E,7.60,262.84,180812,,,A*6C
236,
$GPRMC,070036.000,A,3956.3730,N,11624.6086,E,7.54,264.96,180812,,,A*61
238,
$GPRMC,070037.000,A,3956.3730,N,11624.6058,E,7.46,269.37,180812,,,A*66
238,
$GPRMC,070038.000,A,3956.3732,N,11624.6030,E,7.46,269.68,180812,,,A*6F
238,
$GPRMC,070039.000,A,3956.3733,N,11624.6003,E,7.63,271.70,180812,,,A*68
238,
$GPRMC,070040.000,A,3956.3734,N,11624.5975,E,7.63,269.62,180812,,,A*60
236,
$GPRMC,070041.000,A,3956.3734,N,11624.5947,E,7.59,267.78,180812,,,A*6C
232,
$GPRMC,070042.000,A,3956.3734,N,11624.5918,E,7.81,268.54,180812,,,A*61
233,
$GPRMC,070043.000,A,3956.3733,N,11624.5890,E,7.66,266.87,180812,,,A*6F
231,
$GPRMC,070044.000,A,3956.3733,N,11624.5862,E,7.68,268.64,180812,,,A*68
231,
$GPRMC,070045.000,A,3956.3734,N,11624.5834,E,7.87,269.54,180812,,,A*6E
233,
$GPRMC,070046.000,A,3956.3734,N,11624.5805,E,7.89,269.29,180812,,,A*6B
231,
$GPRMC,070047.000,A,3956.3735,N,11624.5776,E,7.72,267.20,180812,,,A*63
232,
$GPRMC,070048.000,A,3956.3737,N,11624.5747,E,8.02,270.18,180812,,,A*69
230,
$GPRMC,070049.000,A,3956.3740,N,11624.5718,E,7.98,269.91,180812,,,A*67
231,
$GPRMC,070050.000,A,3956.3743,N,11624.5689,E,7.98,270.43,180812,,,A*62
229,
$GPRMC,070051.000,A,3956.3746,N,11624.5659,E,8.07,273.38,180812,,,A*6D
228,
$GPRMC,070052.000,A,3956.3749,N,11624.5630,E,7.94,266.42,180812,,,A*62
224,
$GPRMC,070053.000,A,3956.3749,N,11624.5602,E,7.98,263.35,180812,,,A*6B
222,
$GPRMC,070054.000,A,3956.3750,N,11624.5573,E,7.83,266.31,180812,,,A*6A
224,
$GPRMC,070055.000,A,3956.3750,N,11624.5544,E,7.82,266.41,180812,,,A*69
227,
$GPRMC,070056.000,A,3956.3750,N,11624.5516,E,7.92,269.67,180812,,,A*67
230,
$GPRMC,070057.000,A,3956.3752,N,11624.5488,E,7.92,269.83,180812,,,A*68
232,
$GPRMC,070058.000,A,3956.3755,N,11624.5458,E,7.71,267.88,180812,,,A*65
231,
$GPRMC,070059.000,A,3956.3756,N,11624.5430,E,7.86,265.81,180812,,,A*6A
230,
$GPRMC,070100.000,A,3956.3757,N,11624.5401,E,8.13,265.28,180812,,,A*64
229,
$GPRMC,070101.000,A,3956.3756,N,11624.5371,E,8.23,263.74,180812,,,A*68
224,
$GPRMC,070102.000,A,3956.3756,N,11624.5340,E,8.35,265.23,180812,,,A*6A
224,
$GPRMC,070103.000,A,3956.3755,N,11624.5310,E,8.34,262.80,180812,,,A*62
226,
$GPRMC,070104.000,A,3956.3754,N,11624.5279,E,8.44,266.84,180812,,,A*6D
223,
$GPRMC,070105.000,A,3956.3755,N,11624.5247,E,8.43,266.68,180812,,,A*65
227,
$GPRMC,070106.000,A,3956.3754,N,11624.5216,E,8.41,265.99,180812,,,A*6C
228,
$GPRMC,070107.000,A,3956.3753,N,11624.5185,E,8.21,264.78,180812,,,A*6B
228,
$GPRMC,070108.000,A,3956.3751,N,11624.5155,E,8.28,268.58,180812,,,A*6C
227,
$GPRMC,070109.000,A,3956.3750,N,11624.5124,E,8.31,266.93,180812,,,A*6B
225,
$GPRMC,070110.000,A,3956.3749,N,11624.5093,E,8.30,263.56,180812,,,A*6B
230,
$GPRMC,070111.000,A,3956.3751,N,11624.5060,E,8.83,277.58,180812,,,A*6C
233,
$GPRMC,070112.000,A,3956.3754,N,11624.5028,E,8.03,272.14,180812,,,A*63
235,
$GPRMC,070113.000,A,3956.3755,N,11624.4997,E,7.97,270.35,180812,,,A*6C
237,
$GPRMC,070114.000,A,3956.3755,N,11624.4967,E,7.07,267.12,180812,,,A*6E
226,
$GPRMC,070115.000,A,3956.3750,N,11624.4942,E,7.26,253.33,180812,,,A*6A
226,
$GPRMC,070116.000,A,3956.3744,N,11624.4915,E,8.05,262.20,180812,,,A*60
221,
$GPRMC,070117.000,A,3956.3741,N,11624.4886,E,7.91,264.72,180812,,,A*6C
216,
$GPRMC,070118.000,A,3956.3734,N,11624.4860,E,7.61,251.22,180812,,,A*65
205,
$GPRMC,070119.000,A,3956.3729,N,11624.4833,E,7.37,255.82,180812,,,A*63
201,
$GPRMC,070120.000,A,3956.3728,N,11624.4805,E,7.35,260.15,180812,,,A*67
198,
$GPRMC,070121.000,A,3956.3729,N,11624.4774,E,8.00,265.42,180812,,,A*60
198,
$GPRMC,070122.000,A,3956.3729,N,11624.4745,E,7.22,258.64,180812,,,A*64
197,
$GPRMC,070123.000,A,3956.3726,N,11624.4717,E,7.40,254.52,180812,,,A*60
197,
$GPRMC,070124.000,A,3956.3723,N,11624.4690,E,7.63,251.26,180812,,,A*6B
200,
$GPRMC,070125.000,A,3956.3721,N,11624.4661,E,7.40,267.76,180812,,,A*67
201,
$GPRMC,070126.000,A,3956.3722,N,11624.4632,E,7.44,273.18,180812,,,A*68
195,
$GPRMC,070127.000,A,3956.3723,N,11624.4602,E,7.68,272.09,180812,,,A*64
193,
$GPRMC,070128.000,A,3956.3723,N,11624.4573,E,7.63,272.42,180812,,,A*6A
190,
$GPRMC,070129.000,A,3956.3722,N,11624.4544,E,7.56,270.16,180812,,,A*6B
187,
$GPRMC,070130.000,A,3956.3719,N,11624.4517,E,7.57,269.74,180812,,,A*60
185,
$GPRMC,070131.000,A,3956.3721,N,11624.4488,E,8.02,280.37,180812,,,A*62
191,
$GPRMC,070132.000,A,3956.3724,N,11624.4456,E,8.13,279.32,180812,,,A*64
199,
$GPRMC,070133.000,A,3956.3729,N,11624.4425,E,7.92,270.50,180812,,,A*67
211,
$GPRMC,070134.000,A,3956.3734,N,11624.4395,E,7.39,268.45,180812,,,A*6C
218,
$GPRMC,070135.000,A,3956.3739,N,11624.4366,E,7.24,269.50,180812,,,A*65
225,
$GPRMC,070136.000,A,3956.3743,N,11624.4337,E,7.14,266.76,180812,,,A*67
232,
$GPRMC,070137.000,A,3956.3746,N,11624.4308,E,7.76,264.58,180812,,,A*65
235,
$GPRMC,070138.000,A,3956.3748,N,11624.4278,E,7.56,266.12,180812,,,A*6C
239,
$GPRMC,070139.000,A,3956.3752,N,11624.4249,E,7.70,268.91,180812,,,A*65
241,
$GPRMC,070140.000,A,3956.3754,N,11624.4219,E,7.34,263.54,180812,,,A*6A
243,
$GPRMC,070141.000,A,3956.3756,N,11624.4189,E,7.65,262.12,180812,,,A*64
244,
$GPRMC,070142.000,A,3956.3759,N,11624.4159,E,7.82,267.17,180812,,,A*6C
244,
$GPRMC,070143.000,A,3956.3762,N,11624.4129,E,7.83,267.41,180812,,,A*60
244,
$GPRMC,070144.000,A,3956.3766,N,11624.4100,E,7.49,267.58,180812,,,A*66
244,
$GPRMC,070145.000,A,3956.3770,N,11624.4073,E,7.59,273.89,180812,,,A*6D
244,
$GPRMC,070146.000,A,3956.3776,N,11624.4047,E,7.36,274.47,180812,,,A*63
243,
$GPRMC,070147.000,A,3956.3776,N,11624.4022,E,7.19,268.88,180812,,,A*62
243,
$GPRMC,070148.000,A,3956.3777,N,11624.3995,E,7.19,274.70,180812,,,A*64
242,
$GPRMC,070149.000,A,3956.3785,N,11624.3970,E,6.54,282.79,180812,,,A*6B
241,
$GPRMC,070150.000,A,3956.3793,N,11624.3944,E,7.46,271.28,180812,,,A*69
241,
$GPRMC,070151.000,A,3956.3800,N,11624.3914,E,7.55,269.02,180812,,,A*6B
241,
$GPRMC,070152.000,A,3956.3800,N,11624.3888,E,7.24,268.04,180812,,,A*6D
239,
$GPRMC,070153.000,A,3956.3796,N,11624.3862,E,7.42,261.68,180812,,,A*6B
235,
$GPRMC,070154.000,A,3956.3791,N,11624.3838,E,6.39,246.99,180812,,,A*62
235,
$GPRMC,070155.000,A,3956.3785,N,11624.3815,E,6.53,247.15,180812,,,A*60
236,
$GPRMC,070156.000,A,3956.3775,N,11624.3791,E,6.44,249.61,180812,,,A*64
237,
$GPRMC,070157.000,A,3956.3771,N,11624.3761,E,6.47,259.53,180812,,,A*6D
237,
$GPRMC,070158.000,A,3956.3766,N,11624.3736,E,5.97,256.65,180812,,,A*62
235,
$GPRMC,070159.000,A,3956.3759,N,11624.3713,E,5.35,253.80,180812,,,A*6E
233,
$GPRMC,070200.000,A,3956.3751,N,11624.3691,E,6.09,260.73,180812,,,A*62
232,
$GPRMC,070201.000,A,3956.3745,N,11624.3666,E,6.22,257.15,180812,,,A*63
231,
$GPRMC,070202.000,A,3956.3739,N,11624.3639,E,6.26,258.89,180812,,,A*6F
231,
$GPRMC,070203.000,A,3956.3735,N,11624.3613,E,7.29,260.83,180812,,,A*65
229,
$GPRMC,070204.000,A,3956.3731,N,11624.3584,E,6.79,272.39,180812,,,A*6D
229,
$GPRMC,070205.000,A,3956.3732,N,11624.3553,E,6.96,271.13,180812,,,A*6F
229,
$GPRMC,070206.000,A,3956.3734,N,11624.3525,E,6.41,275.72,180812,,,A*62
229,
$GPRMC,070207.000,A,3956.3734,N,11624.3500,E,6.11,268.16,180812,,,A*6F
229,
$GPRMC,070208.000,A,3956.3730,N,11624.3477,E,5.19,269.57,180812,,,A*6A
230,
$GPRMC,070209.000,A,3956.3727,N,11624.3450,E,6.09,270.83,180812,,,A*6B
230,
$GPRMC,070210.000,A,3956.3723,N,11624.3422,E,6.46,278.89,180812,,,A*6B
229,
$GPRMC,070211.000,A,3956.3725,N,11624.3395,E,6.48,267.52,180812,,,A*61
228,
$GPRMC,070212.000,A,3956.3723,N,11624.3371,E,5.96,259.85,180812,,,A*69
225,
$GPRMC,070213.000,A,3956.3722,N,11624.3346,E,6.30,267.11,180812,,,A*62
224,
$GPRMC,070214.000,A,3956.3718,N,11624.3324,E,5.75,257.11,180812,,,A*69
225,
$GPRMC,070215.000,A,3956.3714,N,11624.3300,E,5.66,259.63,180812,,,A*6B
222,
$GPRMC,070216.000,A,3956.3709,N,11624.3272,E,6.44,269.83,180812,,,A*6E
219,
$GPRMC,070217.000,A,3956.3701,N,11624.3244,E,6.50,270.24,180812,,,A*62
220,
$GPRMC,070218.000,A,3956.3696,N,11624.3217,E,6.67,270.60,180812,,,A*60
221,
$GPRMC,070219.000,A,3956.3691,N,11624.3189,E,6.83,267.46,180812,,,A*6A
220,
$GPRMC,070220.000,A,3956.3682,N,11624.3161,E,6.54,268.08,180812,,,A*6B
221,
$GPRMC,070221.000,A,3956.3673,N,11624.3131,E,6.77,268.49,180812,,,A*65
224,
$GPRMC,070222.000,A,3956.3667,N,11624.3104,E,6.83,270.43,180812,,,A*6D
226,
$GPRMC,070223.000,A,3956.3663,N,11624.3075,E,7.14,272.29,180812,,,A*6E
223,
$GPRMC,070224.000,A,3956.3661,N,11624.3045,E,6.38,276.54,180812,,,A*69
224,
$GPRMC,070225.000,A,3956.3664,N,11624.3018,E,6.08,280.34,180812,,,A*69
226,
$GPRMC,070226.000,A,3956.3666,N,11624.2990,E,6.41,268.33,180812,,,A*6C
227,
$GPRMC,070227.000,A,3956.3671,N,11624.2962,E,6.54,271.69,180812,,,A*65
227,
$GPRMC,070228.000,A,3956.3677,N,11624.2941,E,5.38,270.93,180812,,,A*60
229,
$GPRMC,070229.000,A,3956.3681,N,11624.2921,E,5.52,277.42,180812,,,A*69
232,
$GPRMC,070230.000,A,3956.3681,N,11624.2901,E,5.92,272.25,180812,,,A*6B
233,
$GPRMC,070231.000,A,3956.3686,N,11624.2876,E,5.82,276.33,180812,,,A*6E
234,
$GPRMC,070232.000,A,3956.3689,N,11624.2855,E,6.46,264.09,180812,,,A*62
235,
$GPRMC,070233.000,A,3956.3691,N,11624.2831,E,6.95,262.52,180812,,,A*6E
235,
$GPRMC,070234.000,A,3956.3691,N,11624.2807,E,6.74,258.73,180812,,,A*69
235,
$GPRMC,070235.000,A,3956.3699,N,11624.2776,E,6.94,272.51,180812,,,A*6F
236,
$GPRMC,070236.000,A,3956.3706,N,11624.2745,E,7.24,274.49,180812,,,A*6E
235,
$GPRMC,070237.000,A,3956.3712,N,11624.2715,E,6.98,266.68,180812,,,A*69
235,
$GPRMC,070238.000,A,3956.3715,N,11624.2688,E,6.77,258.31,180812,,,A*64
234,
$GPRMC,070239.000,A,3956.3714,N,11624.2666,E,6.04,256.29,180812,,,A*67
233,
$GPRMC,070240.000,A,3956.3714,N,11624.2641,E,6.24,269.83,180812,,,A*62
232,
$GPRMC,070241.000,A,3956.3715,N,11624.2615,E,6.60,276.06,180812,,,A*60
232,
$GPRMC,070242.000,A,3956.3718,N,11624.2587,E,7.17,273.79,180812,,,A*6A
231,
$GPRMC,070243.000,A,3956.3719,N,11624.2561,E,6.67,272.01,180812,,,A*6A
231,
$GPRMC,070244.000,A,3956.3716,N,11624.2535,E,6.89,267.51,180812,,,A*62
231,
$GPRMC,070245.000,A,3956.3715,N,11624.2508,E,6.52,267.90,180812,,,A*65
232,
$GPRMC,070246.000,A,3956.3714,N,11624.2481,E,6.73,269.71,180812,,,A*65
230,
$GPRMC,070247.000,A,3956.3709,N,11624.2453,E,7.12,268.36,180812,,,A*63
229,
$GPRMC,070248.000,A,3956.3705,N,11624.2425,E,6.99,273.70,180812,,,A*6B
228,
$GPRMC,070249.000,A,3956.3701,N,11624.2397,E,6.99,270.01,180812,,,A*65
226,
$GPRMC,070250.000,A,3956.3694,N,11624.2366,E,7.17,267.21,180812,,,A*6D
227,
$GPRMC,070251.000,A,3956.3689,N,11624.2337,E,7.07,270.24,180812,,,A*66
228,
$GPRMC,070252.000,A,3956.3685,N,11624.2307,E,7.15,265.41,180812,,,A*6E
228,
$GPRMC,070253.000,A,3956.3682,N,11624.2281,E,7.16,273.24,180812,,,A*60
228,
$GPRMC,070254.000,A,3956.3680,N,11624.2254,E,6.52,268.95,180812,,,A*6C
229,
$GPRMC,070255.000,A,3956.3682,N,11624.2228,E,6.85,267.91,180812,,,A*65
228,
$GPRMC,070256.000,A,3956.3684,N,11624.2201,E,6.85,269.33,180812,,,A*6D
228,
$GPRMC,070257.000,A,3956.3685,N,11624.2175,E,6.76,269.71,180812,,,A*67
226,
$GPRMC,070258.000,A,3956.3686,N,11624.2151,E,5.92,275.74,180812,,,A*6C
225,
$GPRMC,070259.000,A,3956.3684,N,11624.2128,E,6.07,272.10,180812,,,A*6B
225,
$GPRMC,070300.000,A,3956.3683,N,11624.2105,E,6.77,271.83,180812,,,A*60
226,
$GPRMC,070301.000,A,3956.3688,N,11624.2079,E,6.79,276.26,180812,,,A*66
226,
$GPRMC,070302.000,A,3956.3696,N,11624.2053,E,6.69,282.15,180812,,,A*68
226,
$GPRMC,070303.000,A,3956.3695,N,11624.2031,E,5.93,278.47,180812,,,A*6A
226,
$GPRMC,070304.000,A,3956.3698,N,11624.2007,E,5.92,273.42,180812,,,A*6A
227,
$GPRMC,070305.000,A,3956.3699,N,11624.1986,E,5.70,260.78,180812,,,A*6E
227,
$GPRMC,070306.000,A,3956.3697,N,11624.1964,E,5.64,260.33,180812,,,A*65
226,
$GPRMC,070307.000,A,3956.3694,N,11624.1941,E,5.97,265.56,180812,,,A*6A
225,
$GPRMC,070308.000,A,3956.3691,N,11624.1919,E,5.72,266.81,180812,,,A*6F
225,
$GPRMC,070309.000,A,3956.3691,N,11624.1897,E,5.77,261.49,180812,,,A*6F
225,
$GPRMC,070310.000,A,3956.3688,N,11624.1873,E,6.21,267.76,180812,,,A*6F
225,
$GPRMC,070311.000,A,3956.3685,N,11624.1847,E,6.71,268.29,180812,,,A*64
225,
$GPRMC,070312.000,A,3956.3685,N,11624.1818,E,6.43,271.17,180812,,,A*69
225,
$GPRMC,070313.000,A,3956.3683,N,11624.1794,E,6.42,267.25,180812,,,A*62
225,
$GPRMC,070314.000,A,3956.3680,N,11624.1772,E,5.77,270.90,180812,,,A*63
225,
$GPRMC,070315.000,A,3956.3680,N,11624.1750,E,5.55,263.74,180812,,,A*6A
225,
$GPRMC,070316.000,A,3956.3681,N,11624.1727,E,5.78,268.88,180812,,,A*6F
224,
$GPRMC,070317.000,A,3956.3682,N,11624.1704,E,5.44,268.50,180812,,,A*66
225,
$GPRMC,070318.000,A,3956.3681,N,11624.1685,E,4.95,264.78,180812,,,A*69
223,
$GPRMC,070319.000,A,3956.3681,N,11624.1665,E,4.88,266.10,180812,,,A*66
223,
$GPRMC,070320.000,A,3956.3682,N,11624.1648,E,4.14,270.07,180812,,,A*64
223,
$GPRMC,070321.000,A,3956.3684,N,11624.1629,E,4.48,273.86,180812,,,A*67
223,
$GPRMC,070322.000,A,3956.3685,N,11624.1613,E,3.71,269.96,180812,,,A*6B
223,
$GPRMC,070323.000,A,3956.3685,N,11624.1598,E,3.96,278.58,180812,,,A*61
223,
$GPRMC,070324.000,A,3956.3687,N,11624.1584,E,3.27,276.55,180812,,,A*60
224,
$GPRMC,070325.000,A,3956.3687,N,11624.1572,E,2.62,270.77,180812,,,A*6E
224,
$GPRMC,070326.000,A,3956.3688,N,11624.1564,E,1.43,257.08,180812,,,A*68
225,
$GPRMC,070327.000,A,3956.3687,N,11624.1560,E,0.65,219.14,180812,,,A*60
225,
$GPRMC,070328.000,A,3956.3686,N,11624.1557,E,0.01,176.47,180812,,,A*64
225,
$GPRMC,070329.000,A,3956.3686,N,11624.1553,E,0.35,199.56,180812,,,A*67
225,
$GPRMC,070330.000,A,3956.3686,N,11624.1550,E,0.22,345.85,180812,,,A*67
225,
$GPRMC,070331.000,A,3956.3687,N,11624.1547,E,0.17,325.92,180812,,,A*67
225,
$GPRMC,070332.000,A,3956.3686,N,11624.1544,E,0.23,214.26,180812,,,A*6D
224,
$GPRMC,070333.000,A,3956.3686,N,11624.1539,E,0.88,265.26,180812,,,A*61
224,
$GPRMC,070334.000,A,3956.3686,N,11624.1535,E,0.69,256.21,180812,,,A*62
224,
$GPRMC,070335.000,A,3956.3687,N,11624.1531,E,0.48,203.52,180812,,,A*61
224,
$GPRMC,070336.000,A,3956.3688,N,11624.1529,E,0.28,96.55,180812,,,A*5B
223,
$GPRMC,070337.000,A,3956.3690,N,11624.1529,E,0.22,122.57,180812,,,A*65
223,
$GPRMC,070338.000,A,3956.3692,N,11624.1528,E,0.04,302.35,180812,,,A*69
223,
$GPRMC,070339.000,A,3956.3693,N,11624.1526,E,0.26,279.28,180812,,,A*66
222,
$GPRMC,070340.000,A,3956.3694,N,11624.1523,E,0.22,260.70,180812,,,A*6B
222,
$GPRMC,070341.000,A,3956.3697,N,11624.1521,E,0.36,347.98,180812,,,A*6C
222,
$GPRMC,070342.000,A,3956.3698,N,11624.1520,E,0.08,51.10,180812,,,A*58
222,
$GPRMC,070343.000,A,3956.3699,N,11624.1520,E,0.41,202.90,180812,,,A*69
221,
$GPRMC,070344.000,A,3956.3699,N,11624.1518,E,0.18,73.62,180812,,,A*50
221,
$GPRMC,070345.000,A,3956.3699,N,11624.1516,E,0.10,54.46,180812,,,A*54
221,
$GPRMC,070346.000,A,3956.3700,N,11624.1515,E,0.33,196.09,180812,,,A*60
221,
$GPRMC,070347.000,A,3956.3701,N,11624.1511,E,0.54,245.51,180812,,,A*65
220,
$GPRMC,070348.000,A,3956.3701,N,11624.1509,E,0.63,227.40,180812,,,A*63
220,
$GPRMC,070349.000,A,3956.3701,N,11624.1507,E,0.20,141.47,180812,,,A*6F
220,
$GPRMC,070350.000,A,3956.3701,N,11624.1506,E,0.39,203.22,180812,,,A*68
220,
$GPRMC,070351.000,A,3956.3702,N,11624.1503,E,0.25,262.75,180812,,,A*67
220,
$GPRMC,070352.000,A,3956.3703,N,11624.1502,E,0.08,81.03,180812,,,A*55
220,
$GPRMC,070353.000,A,3956.3702,N,11624.1501,E,0.40,245.10,180812,,,A*62
220,
$GPRMC,070354.000,A,3956.3700,N,11624.1500,E,0.19,207.83,180812,,,A*66
220,
$GPRMC,070355.000,A,3956.3700,N,11624.1497,E,0.53,206.78,180812,,,A*63
219,
$GPRMC,070356.000,A,3956.3700,N,11624.1496,E,0.47,69.52,180812,,,A*57
219,
$GPRMC,070357.000,A,3956.3697,N,11624.1496,E,0.09,357.12,180812,,,A*69
219,
$GPRMC,070358.000,A,3956.3695,N,11624.1495,E,0.44,303.73,180812,,,A*68
219,
$GPRMC,070359.000,A,3956.3694,N,11624.1495,E,0.23,202.38,180812,,,A*66
219,
$GPRMC,070400.000,A,3956.3692,N,11624.1494,E,0.57,287.24,180812,,,A*69
218,
$GPRMC,070401.000,A,3956.3692,N,11624.1493,E,0.24,226.13,180812,,,A*64
218,
$GPRMC,070402.000,A,3956.3692,N,11624.1493,E,0.11,297.53,180812,,,A*6F
218,
$GPRMC,070403.000,A,3956.3693,N,11624.1493,E,0.30,223.80,180812,,,A*6D
220,
$GPRMC,070404.000,A,3956.3695,N,11624.1495,E,0.46,234.08,180812,,,A*6D
221,
$GPRMC,070405.000,A,3956.3695,N,11624.1497,E,0.82,210.90,180812,,,A*61
221,
$GPRMC,070406.000,A,3956.3696,N,11624.1499,E,0.02,249.06,180812,,,A*64
220,
$GPRMC,070407.000,A,3956.3696,N,11624.1500,E,0.12,302.38,180812,,,A*66
220,
$GPRMC,070408.000,A,3956.3697,N,11624.1502,E,0.25,208.49,180812,,,A*63
219,
$GPRMC,070409.000,A,3956.3697,N,11624.1503,E,0.42,204.75,180812,,,A*61
218,
$GPRMC,070410.000,A,3956.3698,N,11624.1505,E,0.28,149.67,180812,,,A*65
218,
$GPRMC,070411.000,A,3956.3697,N,11624.1505,E,0.31,169.68,180812,,,A*6E
219,
$GPRMC,070412.000,A,3956.3698,N,11624.1507,E,0.31,178.65,180812,,,A*6D
220,
$GPRMC,070413.000,A,3956.3701,N,11624.1509,E,0.13,156.11,180812,,,A*6C
220,
$GPRMC,070414.000,A,3956.3703,N,11624.1511,E,0.14,148.08,180812,,,A*60
220,
$GPRMC,070415.000,A,3956.3705,N,11624.1513,E,0.25,234.59,180812,,,A*6B
219,
$GPRMC,070416.000,A,3956.3705,N,11624.1513,E,0.23,232.24,180812,,,A*62
219,
$GPRMC,070417.000,A,3956.3705,N,11624.1513,E,0.30,218.34,180812,,,A*68
218,
$GPRMC,070418.000,A,3956.3705,N,11624.1514,E,0.23,156.25,180812,,,A*6B
218,
$GPRMC,070419.000,A,3956.3706,N,11624.1516,E,0.16,252.05,180812,,,A*68
217,
$GPRMC,070420.000,A,3956.3706,N,11624.1517,E,0.03,166.69,180812,,,A*69
217,
$GPRMC,070421.000,A,3956.3707,N,11624.1518,E,0.09,215.37,180812,,,A*60
217,
$GPRMC,070422.000,A,3956.3708,N,11624.1519,E,0.10,213.90,180812,,,A*6E
217,
$GPRMC,070423.000,A,3956.3709,N,11624.1520,E,0.09,100.52,180812,,,A*63
217,
