$GPRMC,063838.100,A,3955.7420,N,11625.1842,E,1.66,10.30,180812,,,A*5D
274,
$GPRMC,063839.100,A,3955.7397,N,11625.1824,E,1.14,35.89,180812,,,A*57
274,
$GPRMC,063840.100,A,3955.7376,N,11625.1821,E,0.25,153.63,180812,,,A*65
274,
$GPRMC,063841.100,A,3955.7389,N,11625.1820,E,0.23,124.02,180812,,,A*64
274,
$GPRMC,063842.100,A,3955.7391,N,11625.1815,E,0.83,3.83,180812,,,A*6F
273,
$GPRMC,063843.000,A,3955.7390,N,11625.1814,E,1.21,9.05,180812,,,A*62
273,
$GPRMC,063844.000,A,3955.7394,N,11625.1812,E,1.61,347.65,180812,,,A*6C
272,
$GPRMC,063845.000,A,3955.7405,N,11625.1811,E,1.79,352.29,180812,,,A*64
272,
$GPRMC,063846.000,A,3955.7416,N,11625.1812,E,2.96,345.92,180812,,,A*62
271,
$GPRMC,063847.000,A,3955.7429,N,11625.1812,E,3.84,353.64,180812,,,A*63
270,
$GPRMC,063848.000,A,3955.7444,N,11625.1813,E,4.28,356.13,180812,,,A*62
269,
$GPRMC,063849.000,A,3955.7457,N,11625.1813,E,4.60,1.26,180812,,,A*6A
267,
$GPRMC,063850.000,A,3955.7472,N,11625.1814,E,5.07,1.45,180812,,,A*67
267,
$GPRMC,063851.000,A,3955.7488,N,11625.1814,E,5.40,357.39,180812,,,A*6B
267,
$GPRMC,063852.000,A,3955.7504,N,11625.1814,E,5.72,358.95,180812,,,A*65
266,
$GPRMC,063853.000,A,3955.7518,N,11625.1813,E,5.83,359.17,180812,,,A*6B
265,
$GPRMC,063854.000,A,3955.7534,N,11625.1812,E,5.84,357.69,180812,,,A*63
263,
$GPRMC,063855.000,A,3955.7550,N,11625.1811,E,5.83,356.13,180812,,,A*68
262,
$GPRMC,063856.000,A,3955.7563,N,11625.1807,E,5.80,354.31,180812,,,A*6D
262,
$GPRMC,063857.000,A,3955.7577,N,11625.1803,E,5.99,348.98,180812,,,A*6B
258,
$GPRMC,063858.000,A,3955.7597,N,11625.1800,E,6.43,351.26,180812,,,A*60
258,
$GPRMC,063859.000,A,3955.7619,N,11625.1799,E,6.53,353.26,180812,,,A*68
258,
$GPRMC,063900.000,A,3955.7641,N,11625.1799,E,6.67,358.21,180812,,,A*63
259,
$GPRMC,063901.000,A,3955.7663,N,11625.1800,E,6.73,357.24,180812,,,A*62
259,
$GPRMC,063902.000,A,3955.7685,N,11625.1799,E,6.83,352.73,180812,,,A*6E
256,
$GPRMC,063903.000,A,3955.7707,N,11625.1797,E,7.05,351.31,180812,,,A*60
258,
$GPRMC,063904.000,A,3955.7728,N,11625.1795,E,6.89,356.93,180812,,,A*62
259,
$GPRMC,063905.000,A,3955.7748,N,11625.1794,E,7.09,356.01,180812,,,A*66
260,
$GPRMC,063906.000,A,3955.7769,N,11625.1793,E,7.04,356.82,180812,,,A*67
258,
$GPRMC,063907.000,A,3955.7790,N,11625.1792,E,7.10,356.10,180812,,,A*6F
259,
$GPRMC,063908.000,A,3955.7809,N,11625.1791,E,7.08,356.27,180812,,,A*61
258,
$GPRMC,063909.000,A,3955.7830,N,11625.1790,E,7.25,358.71,180812,,,A*69
258,
$GPRMC,063910.000,A,3955.7850,N,11625.1791,E,7.30,1.24,180812,,,A*6D
259,
$GPRMC,063911.000,A,3955.7869,N,11625.1791,E,7.23,2.59,180812,,,A*6D
259,
$GPRMC,063912.000,A,3955.7887,N,11625.1792,E,7.25,4.47,180812,,,A*62
260,
$GPRMC,063913.000,A,3955.7905,N,11625.1793,E,7.13,3.98,180812,,,A*69
259,
$GPRMC,063914.000,A,3955.7923,N,11625.1794,E,7.09,0.31,180812,,,A*66
259,
$GPRMC,063915.000,A,3955.7941,N,11625.1792,E,6.88,356.75,180812,,,A*6D
258,
$GPRMC,063916.000,A,3955.7957,N,11625.1788,E,6.83,349.81,180812,,,A*6C
254,
$GPRMC,063917.000,A,3955.7978,N,11625.1785,E,7.02,351.01,180812,,,A*64
254,
$GPRMC,063918.000,A,3955.7996,N,11625.1782,E,6.83,354.05,180812,,,A*65
249,
$GPRMC,063919.000,A,3955.8013,N,11625.1778,E,6.88,352.70,180812,,,A*65
243,
$GPRMC,063920.000,A,3955.8032,N,11625.1776,E,6.89,352.67,180812,,,A*65
242,
$GPRMC,063921.000,A,3955.8053,N,11625.1774,E,6.95,355.96,180812,,,A*65
244,
$GPRMC,063922.000,A,3955.8078,N,11625.1775,E,7.25,358.19,180812,,,A*6E
248,
$GPRMC,063923.000,A,3955.8104,N,11625.1776,E,7.41,357.02,180812,,,A*61
251,
$GPRMC,063924.000,A,3955.8129,N,11625.1776,E,7.63,355.36,180812,,,A*6C
254,
$GPRMC,063925.000,A,3955.8154,N,11625.1775,E,7.77,355.41,180812,,,A*61
255,
$GPRMC,063926.000,A,3955.8183,N,11625.1770,E,7.82,355.44,180812,,,A*62
255,
$GPRMC,063927.000,A,3955.8210,N,11625.1767,E,7.89,355.39,180812,,,A*6D
254,
$GPRMC,063928.000,A,3955.8235,N,11625.1763,E,7.93,357.98,180812,,,A*63
253,
$GPRMC,063929.000,A,3955.8260,N,11625.1762,E,7.82,359.76,180812,,,A*6D
254,
$GPRMC,063930.000,A,3955.8284,N,11625.1760,E,7.63,0.80,180812,,,A*64
256,
$GPRMC,063931.000,A,3955.8308,N,11625.1761,E,7.55,1.25,180812,,,A*6A
256,
$GPRMC,063932.000,A,3955.8330,N,11625.1760,E,7.41,359.22,180812,,,A*6F
256,
$GPRMC,063933.000,A,3955.8351,N,11625.1758,E,7.18,358.08,180812,,,A*67
256,
$GPRMC,063934.000,A,3955.8372,N,11625.1754,E,7.02,354.89,180812,,,A*63
257,
$GPRMC,063935.000,A,3955.8392,N,11625.1750,E,6.83,354.30,180812,,,A*62
256,
$GPRMC,063936.000,A,3955.8411,N,11625.1748,E,6.58,359.32,180812,,,A*6D
256,
$GPRMC,063937.000,A,3955.8430,N,11625.1747,E,6.25,1.36,180812,,,A*60
256,
$GPRMC,063938.000,A,3955.8447,N,11625.1746,E,6.01,359.35,180812,,,A*65
253,
$GPRMC,063939.000,A,3955.8464,N,11625.1743,E,6.06,352.33,180812,,,A*6A
254,
$GPRMC,063940.000,A,3955.8482,N,11625.1740,E,6.11,353.29,180812,,,A*63
254,
$GPRMC,063941.000,A,3955.8501,N,11625.1740,E,6.23,1.09,180812,,,A*6F
251,
$GPRMC,063942.000,A,3955.8520,N,11625.1743,E,6.40,7.88,180812,,,A*66
251,
$GPRMC,063943.000,A,3955.8539,N,11625.1748,E,6.41,9.69,180812,,,A*64
250,
$GPRMC,063944.000,A,3955.8557,N,11625.1751,E,6.36,4.43,180812,,,A*66
252,
$GPRMC,063945.000,A,3955.8575,N,11625.1749,E,6.46,359.93,180812,,,A*6F
252,
$GPRMC,063946.000,A,3955.8593,N,11625.1747,E,6.59,355.83,180812,,,A*69
252,
$GPRMC,063947.000,A,3955.8611,N,11625.1743,E,6.57,354.16,180812,,,A*66
250,
$GPRMC,063948.000,A,3955.8629,N,11625.1739,E,6.67,357.25,180812,,,A*6F
249,
$GPRMC,063949.000,A,3955.8648,N,11625.1736,E,6.61,355.50,180812,,,A*60
250,
$GPRMC,063950.000,A,3955.8666,N,11625.1732,E,6.73,353.19,180812,,,A*68
250,
$GPRMC,063951.000,A,3955.8684,N,11625.1727,E,6.66,352.23,180812,,,A*6D
250,
$GPRMC,063952.000,A,3955.8702,N,11625.1722,E,6.66,354.38,180812,,,A*68
250,
$GPRMC,063953.000,A,3955.8721,N,11625.1719,E,6.56,359.18,180812,,,A*6C
250,
$GPRMC,063954.000,A,3955.8739,N,11625.1719,E,6.51,3.41,180812,,,A*65
250,
$GPRMC,063955.000,A,3955.8758,N,11625.1720,E,6.41,1.95,180812,,,A*63
251,
$GPRMC,063956.000,A,3955.8775,N,11625.1719,E,6.37,0.02,180812,,,A*6B
250,
$GPRMC,063957.000,A,3955.8794,N,11625.1720,E,6.49,5.27,180812,,,A*64
250,
$GPRMC,063958.000,A,3955.8811,N,11625.1722,E,6.05,9.65,180812,,,A*69
249,
$GPRMC,063959.000,A,3955.8827,N,11625.1723,E,6.06,7.22,180812,,,A*62
249,
$GPRMC,064000.000,A,3955.8842,N,11625.1723,E,5.27,9.34,180812,,,A*6A
248,
$GPRMC,064001.000,A,3955.8852,N,11625.1721,E,4.11,20.13,180812,,,A*52
248,
$GPRMC,064002.000,A,3955.8861,N,11625.1724,E,4.12,30.65,180812,,,A*57
247,
$GPRMC,064003.000,A,3955.8868,N,11625.1726,E,3.77,37.52,180812,,,A*5A
247,
$GPRMC,064004.000,A,3955.8875,N,11625.1727,E,3.64,30.68,180812,,,A*5C
247,
$GPRMC,064005.000,A,3955.8882,N,11625.1727,E,3.63,21.86,180812,,,A*52
247,
$GPRMC,064006.000,A,3955.8890,N,11625.1725,E,3.87,8.76,180812,,,A*6E
246,
$GPRMC,064007.000,A,3955.8900,N,11625.1720,E,4.50,350.09,180812,,,A*69
246,
$GPRMC,064008.000,A,3955.8913,N,11625.1717,E,4.70,353.10,180812,,,A*69
246,
$GPRMC,064009.000,A,3955.8929,N,11625.1718,E,5.01,356.54,180812,,,A*6C
246,
$GPRMC,064010.000,A,3955.8946,N,11625.1724,E,5.38,10.57,180812,,,A*5A
246,
$GPRMC,064011.000,A,3955.8962,N,11625.1736,E,5.27,27.99,180812,,,A*56
245,
$GPRMC,064012.000,A,3955.8977,N,11625.1751,E,5.23,32.75,180812,,,A*52
245,
$GPRMC,064013.000,A,3955.8990,N,11625.1765,E,4.52,31.09,180812,,,A*52
245,
$GPRMC,064014.000,A,3955.9003,N,11625.1775,E,4.71,18.53,180812,,,A*53
245,
$GPRMC,064015.000,A,3955.9017,N,11625.1783,E,4.31,14.02,180812,,,A*52
244,
$GPRMC,064016.000,A,3955.9029,N,11625.1789,E,4.30,16.65,180812,,,A*54
244,
$GPRMC,064017.000,A,3955.9042,N,11625.1796,E,4.63,11.45,180812,,,A*55
244,
$GPRMC,064018.000,A,3955.9055,N,11625.1802,E,4.59,18.51,180812,,,A*5B
244,
$GPRMC,064019.000,A,3955.9067,N,11625.1805,E,4.99,6.11,180812,,,A*6B
243,
$GPRMC,064020.000,A,3955.9081,N,11625.1805,E,4.77,357.16,180812,,,A*69
243,
$GPRMC,064021.000,A,3955.9094,N,11625.1803,E,4.71,357.54,180812,,,A*6A
243,
$GPRMC,064022.000,A,3955.9106,N,11625.1801,E,4.52,355.77,180812,,,A*63
243,
$GPRMC,064023.000,A,3955.9119,N,11625.1800,E,4.56,0.23,180812,,,A*6B
242,
$GPRMC,064024.000,A,3955.9132,N,11625.1802,E,4.76,2.87,180812,,,A*69
242,
$GPRMC,064025.000,A,3955.9148,N,11625.1809,E,4.80,1.26,180812,,,A*6F
242,
$GPRMC,064026.000,A,3955.9163,N,11625.1815,E,4.03,0.92,180812,,,A*6D
241,
$GPRMC,064027.000,A,3955.9177,N,11625.1819,E,4.69,0.36,180812,,,A*67
240,
$GPRMC,064028.000,A,3955.9193,N,11625.1823,E,5.27,0.89,180812,,,A*64
238,
$GPRMC,064029.000,A,3955.9210,N,11625.1827,E,6.12,3.09,180812,,,A*67
233,
$GPRMC,064030.000,A,3955.9229,N,11625.1831,E,6.38,358.41,180812,,,A*6B
234,
$GPRMC,064031.000,A,3955.9250,N,11625.1833,E,7.25,358.45,180812,,,A*6F
226,
$GPRMC,064032.000,A,3955.9272,N,11625.1835,E,7.53,358.92,180812,,,A*61
218,
$GPRMC,064033.000,A,3955.9294,N,11625.1837,E,7.56,357.10,180812,,,A*6A
212,
$GPRMC,064034.000,A,3955.9317,N,11625.1838,E,7.79,359.21,180812,,,A*69
209,
$GPRMC,064035.000,A,3955.9340,N,11625.1840,E,7.75,358.59,180812,,,A*67
213,
$GPRMC,064036.000,A,3955.9363,N,11625.1840,E,7.80,353.32,180812,,,A*69
206,
$GPRMC,064037.000,A,3955.9386,N,11625.1839,E,7.91,352.34,180812,,,A*6A
209,
$GPRMC,064038.000,A,3955.9410,N,11625.1838,E,8.20,355.35,180812,,,A*6F
214,
$GPRMC,064039.000,A,3955.9434,N,11625.1837,E,8.21,357.74,180812,,,A*61
218,
$GPRMC,064040.000,A,3955.9458,N,11625.1839,E,8.23,359.61,180812,,,A*63
225,
$GPRMC,064041.000,A,3955.9482,N,11625.1841,E,8.14,357.53,180812,,,A*61
228,
$GPRMC,064042.000,A,3955.9505,N,11625.1838,E,7.88,355.65,180812,,,A*6F
233,
$GPRMC,064043.000,A,3955.9526,N,11625.1834,E,7.86,353.58,180812,,,A*65
237,
$GPRMC,064044.000,A,3955.9548,N,11625.1829,E,7.68,352.92,180812,,,A*61
241,
$GPRMC,064045.000,A,3955.9569,N,11625.1824,E,7.63,352.07,180812,,,A*69
243,
$GPRMC,064046.000,A,3955.9590,N,11625.1819,E,7.50,352.80,180812,,,A*6D
245,
$GPRMC,064047.000,A,3955.9611,N,11625.1815,E,7.60,352.69,180812,,,A*6E
246,
$GPRMC,064048.000,A,3955.9630,N,11625.1806,E,7.02,351.21,180812,,,A*6B
245,
$GPRMC,064049.000,A,3955.9649,N,11625.1801,E,7.14,354.15,180812,,,A*66
246,
$GPRMC,064050.000,A,3955.9669,N,11625.1797,E,6.99,353.46,180812,,,A*69
247,
$GPRMC,064051.000,A,3955.9690,N,11625.1797,E,6.96,358.11,180812,,,A*68
248,
$GPRMC,064052.000,A,3955.9710,N,11625.1799,E,6.69,359.06,180812,,,A*6B
248,
$GPRMC,064053.000,A,3955.9730,N,11625.1800,E,6.65,355.84,180812,,,A*6D
247,
$GPRMC,064054.000,A,3955.9749,N,11625.1796,E,6.50,352.52,180812,,,A*6E
248,
$GPRMC,064055.000,A,3955.9767,N,11625.1792,E,6.52,353.86,180812,,,A*6D
246,
$GPRMC,064056.000,A,3955.9784,N,11625.1786,E,6.49,353.69,180812,,,A*6D
245,
$GPRMC,064057.000,A,3955.9801,N,11625.1780,E,6.51,349.99,180812,,,A*65
240,
$GPRMC,064058.000,A,3955.9818,N,11625.1774,E,6.40,350.91,180812,,,A*69
235,
$GPRMC,064059.000,A,3955.9835,N,11625.1767,E,6.28,349.15,180812,,,A*6F
237,
$GPRMC,064100.000,A,3955.9852,N,11625.1761,E,6.26,350.46,180812,,,A*65
239,
$GPRMC,064101.000,A,3955.9869,N,11625.1754,E,6.39,347.02,180812,,,A*62
240,
$GPRMC,064102.000,A,3955.9887,N,11625.1749,E,6.46,351.27,180812,,,A*65
238,
$GPRMC,064103.000,A,3955.9905,N,11625.1746,E,6.38,357.90,180812,,,A*63
240,
$GPRMC,064104.000,A,3955.9922,N,11625.1745,E,6.33,4.10,180812,,,A*64
240,
$GPRMC,064105.000,A,3955.9940,N,11625.1746,E,6.44,6.79,180812,,,A*6F
241,
$GPRMC,064106.000,A,3955.9957,N,11625.1746,E,6.18,3.87,180812,,,A*67
242,
$GPRMC,064107.000,A,3955.9974,N,11625.1745,E,6.25,0.47,180812,,,A*65
242,
$GPRMC,064108.000,A,3955.9991,N,11625.1742,E,6.15,356.12,180812,,,A*65
243,
$GPRMC,064109.000,A,3956.0008,N,11625.1740,E,6.06,358.55,180812,,,A*6A
244,
$GPRMC,064110.000,A,3956.0024,N,11625.1739,E,5.69,359.04,180812,,,A*6D
243,
$GPRMC,064111.000,A,3956.0039,N,11625.1738,E,5.47,359.03,180812,,,A*6A
243,
$GPRMC,064112.000,A,3956.0055,N,11625.1737,E,5.56,356.47,180812,,,A*63
243,
$GPRMC,064113.000,A,3956.0071,N,11625.1734,E,5.75,348.40,180812,,,A*6E
243,
$GPRMC,064114.000,A,3956.0090,N,11625.1735,E,6.02,351.43,180812,,,A*6F
242,
$GPRMC,064115.000,A,3956.0111,N,11625.1739,E,6.04,349.39,180812,,,A*68
242,
$GPRMC,064116.000,A,3956.0131,N,11625.1742,E,6.13,352.80,180812,,,A*6B
242,
$GPRMC,064117.000,A,3956.0151,N,11625.1743,E,6.29,350.55,180812,,,A*6E
242,
$GPRMC,064118.000,A,3956.0170,N,11625.1743,E,6.36,358.89,180812,,,A*65
241,
$GPRMC,064119.000,A,3956.0189,N,11625.1743,E,6.46,359.86,180812,,,A*6B
240,
$GPRMC,064120.000,A,3956.0206,N,11625.1741,E,6.52,354.56,180812,,,A*62
240,
$GPRMC,064121.000,A,3956.0225,N,11625.1737,E,6.58,350.72,180812,,,A*6B
238,
$GPRMC,064122.000,A,3956.0243,N,11625.1734,E,6.47,353.16,180812,,,A*64
239,
$GPRMC,064123.000,A,3956.0261,N,11625.1729,E,6.22,351.68,180812,,,A*61
238,
$GPRMC,064124.000,A,3956.0278,N,11625.1726,E,6.27,357.67,180812,,,A*6D
239,
$GPRMC,064125.000,A,3956.0295,N,11625.1724,E,6.14,0.15,180812,,,A*69
237,
$GPRMC,064126.000,A,3956.0312,N,11625.1721,E,6.10,357.66,180812,,,A*60
236,
$GPRMC,064127.000,A,3956.0328,N,11625.1717,E,6.16,357.21,180812,,,A*68
237,
$GPRMC,064128.000,A,3956.0345,N,11625.1714,E,6.33,358.04,180812,,,A*60
236,
$GPRMC,064129.000,A,3956.0362,N,11625.1710,E,6.21,355.48,180812,,,A*66
236,
$GPRMC,064130.000,A,3956.0380,N,11625.1707,E,6.51,357.31,180812,,,A*6F
237,
$GPRMC,064131.000,A,3956.0397,N,11625.1703,E,6.51,355.38,180812,,,A*67
237,
$GPRMC,064132.000,A,3956.0415,N,11625.1700,E,6.55,357.97,180812,,,A*69
236,
$GPRMC,064133.000,A,3956.0433,N,11625.1697,E,6.62,358.75,180812,,,A*64
235,
$GPRMC,064134.000,A,3956.0452,N,11625.1696,E,6.60,2.01,180812,,,A*68
236,
$GPRMC,064135.000,A,3956.0470,N,11625.1696,E,6.65,1.23,180812,,,A*6F
236,
$GPRMC,064136.000,A,3956.0489,N,11625.1696,E,6.80,4.38,180812,,,A*6E
236,
$GPRMC,064137.000,A,3956.0508,N,11625.1697,E,6.69,0.56,180812,,,A*6D
235,
$GPRMC,064138.000,A,3956.0527,N,11625.1696,E,6.83,1.90,180812,,,A*61
235,
$GPRMC,064139.000,A,3956.0546,N,11625.1696,E,6.81,356.16,180812,,,A*6A
235,
$GPRMC,064140.000,A,3956.0565,N,11625.1693,E,6.92,354.10,180812,,,A*66
236,
$GPRMC,064141.000,A,3956.0583,N,11625.1691,E,5.28,356.55,180812,,,A*6C
236,
$GPRMC,064142.000,A,3956.0601,N,11625.1690,E,6.59,355.50,180812,,,A*64
235,
$GPRMC,064143.000,A,3956.0621,N,11625.1689,E,6.98,355.29,180812,,,A*6C
235,
$GPRMC,064144.000,A,3956.0641,N,11625.1689,E,6.83,357.77,180812,,,A*6E
234,
$GPRMC,064145.000,A,3956.0661,N,11625.1689,E,6.96,357.56,180812,,,A*6A
233,
$GPRMC,064146.000,A,3956.0682,N,11625.1690,E,7.11,359.53,180812,,,A*69
228,
$GPRMC,064147.000,A,3956.0703,N,11625.1691,E,7.06,357.48,180812,,,A*63
229,
$GPRMC,064148.000,A,3956.0724,N,11625.1692,E,6.96,355.80,180812,,,A*64
230,
$GPRMC,064149.000,A,3956.0744,N,11625.1693,E,6.87,356.88,180812,,,A*69
231,
$GPRMC,064150.000,A,3956.0764,N,11625.1692,E,6.92,355.77,180812,,,A*65
231,
$GPRMC,064151.000,A,3956.0784,N,11625.1691,E,6.85,353.39,180812,,,A*63
232,
$GPRMC,064152.000,A,3956.0805,N,11625.1690,E,6.76,352.58,180812,,,A*6D
232,
$GPRMC,064153.000,A,3956.0826,N,11625.1694,E,6.72,357.82,180812,,,A*6F
232,
$GPRMC,064154.000,A,3956.0847,N,11625.1703,E,6.42,5.32,180812,,,A*6C
232,
$GPRMC,064155.000,A,3956.0867,N,11625.1714,E,5.54,12.08,180812,,,A*52
231,
$GPRMC,064156.000,A,3956.0885,N,11625.1728,E,5.67,24.28,180812,,,A*55
232,
$GPRMC,064157.000,A,3956.0902,N,11625.1746,E,5.92,34.12,180812,,,A*50
232,
$GPRMC,064158.000,A,3956.0918,N,11625.1767,E,6.00,40.85,180812,,,A*52
232,
$GPRMC,064159.000,A,3956.0932,N,11625.1789,E,6.53,49.75,180812,,,A*5B
232,
$GPRMC,064200.000,A,3956.0945,N,11625.1814,E,6.64,58.81,180812,,,A*50
232,
$GPRMC,064201.000,A,3956.0955,N,11625.1842,E,6.93,73.58,180812,,,A*56
231,
$GPRMC,064202.000,A,3956.0962,N,11625.1872,E,7.06,79.43,180812,,,A*5F
230,
$GPRMC,064203.000,A,3956.0968,N,11625.1903,E,7.25,83.93,180812,,,A*5A
229,
$GPRMC,064204.000,A,3956.0973,N,11625.1934,E,7.38,84.79,180812,,,A*5C
230,
