$GPRMC,093850.443,A,3956.3581,N,11623.9300,E,0.94,104.69,180812,,,A*64
233,
$GPRMC,093851.439,A,3956.3568,N,11623.9225,E,0.16,107.22,180812,,,A*6F
233,
$GPRMC,093852.439,A,3956.3529,N,11623.9295,E,0.15,143.88,180812,,,A*61
233,
$GPRMC,093853.439,A,3956.3521,N,11623.9312,E,0.15,138.34,180812,,,A*6D
234,
$GPRMC,093854.443,A,3956.3571,N,11623.9348,E,0.19,83.81,180812,,,A*5E
234,
$GPRMC,093855.439,A,3956.3564,N,11623.9336,E,0.08,47.87,180812,,,A*51
234,
$GPRMC,093856.439,A,3956.3556,N,11623.9333,E,0.48,290.81,180812,,,A*6C
234,
$GPRMC,093857.439,A,3956.3564,N,11623.9348,E,0.52,194.65,180812,,,A*66
234,
$GPRMC,093858.439,A,3956.3557,N,11623.9351,E,0.54,217.38,180812,,,A*67
234,
$GPRMC,093859.439,A,3956.3556,N,11623.9342,E,0.57,168.75,180812,,,A*64
234,
$GPRMC,093900.439,A,3956.3551,N,11623.9331,E,0.17,106.37,180812,,,A*60
234,
$GPRMC,093901.439,A,3956.3553,N,11623.9350,E,0.38,273.24,180812,,,A*6A
234,
$GPRMC,093902.438,A,3956.3556,N,11623.9361,E,0.50,297.05,180812,,,A*68
234,
$GPRMC,093903.439,A,3956.3561,N,11623.9362,E,1.25,289.65,180812,,,A*65
234,
$GPRMC,093904.439,A,3956.3560,N,11623.9370,E,0.60,332.70,180812,,,A*65
234,
$GPRMC,093905.439,A,3956.3562,N,11623.9375,E,0.16,21.38,180812,,,A*5F
234,
$GPRMC,093906.439,A,3956.3563,N,11623.9377,E,0.66,88.57,180812,,,A*52
234,
$GPRMC,093907.439,A,3956.3561,N,11623.9375,E,0.89,97.67,180812,,,A*5F
235,
$GPRMC,093908.439,A,3956.3558,N,11623.9373,E,1.55,97.29,180812,,,A*56
235,
$GPRMC,093909.439,A,3956.3555,N,11623.9372,E,0.84,110.06,180812,,,A*65
235,
$GPRMC,093910.000,A,3956.3554,N,11623.9371,E,0.61,122.85,180812,,,A*60
235,
$GPRMC,093911.000,A,3956.3553,N,11623.9369,E,0.70,92.65,180812,,,A*5B
235,
$GPRMC,093912.000,A,3956.3552,N,11623.9367,E,1.05,89.21,180812,,,A*5E
235,
$GPRMC,093913.000,A,3956.3550,N,11623.9364,E,0.07,269.36,180812,,,A*67
235,
$GPRMC,093914.000,A,3956.3550,N,11623.9362,E,0.26,269.99,180812,,,A*60
235,
$GPRMC,093915.000,A,3956.3550,N,11623.9359,E,0.14,191.18,180812,,,A*65
235,
$GPRMC,093916.000,A,3956.3550,N,11623.9357,E,0.34,318.67,180812,,,A*61
235,
$GPRMC,093917.000,A,3956.3549,N,11623.9351,E,0.11,96.24,180812,,,A*5B
235,
$GPRMC,093918.000,A,3956.3546,N,11623.9344,E,0.24,227.51,180812,,,A*63
236,
$GPRMC,093919.000,A,3956.3545,N,11623.9340,E,0.63,251.53,180812,,,A*65
236,
$GPRMC,093920.000,A,3956.3543,N,11623.9335,E,0.30,278.40,180812,,,A*64
236,
$GPRMC,093921.000,A,3956.3544,N,11623.9337,E,0.21,197.04,180812,,,A*62
236,
$GPRMC,093922.000,A,3956.3544,N,11623.9338,E,0.64,98.92,180812,,,A*5E
236,
$GPRMC,093923.000,A,3956.3544,N,11623.9340,E,0.06,38.45,180812,,,A*54
236,
$GPRMC,093924.000,A,3956.3545,N,11623.9341,E,0.52,48.58,180812,,,A*59
236,
$GPRMC,093925.000,A,3956.3545,N,11623.9342,E,0.26,36.34,180812,,,A*5B
236,
$GPRMC,093926.000,A,3956.3546,N,11623.9341,E,0.34,30.95,180812,,,A*56
236,
$GPRMC,093927.000,A,3956.3545,N,11623.9340,E,0.53,95.95,180812,,,A*5B
236,
$GPRMC,093928.000,A,3956.3543,N,11623.9340,E,0.62,144.10,180812,,,A*60
236,
$GPRMC,093929.000,A,3956.3541,N,11623.9338,E,0.70,218.14,180812,,,A*61
236,
$GPRMC,093930.000,A,3956.3539,N,11623.9334,E,0.87,229.58,180812,,,A*68
237,
$GPRMC,093931.000,A,3956.3538,N,11623.9331,E,0.79,278.55,180812,,,A*65
237,
$GPRMC,093932.000,A,3956.3539,N,11623.9329,E,0.43,298.23,180812,,,A*68
237,
$GPRMC,093933.000,A,3956.3539,N,11623.9327,E,0.31,343.19,180812,,,A*6C
237,
$GPRMC,093934.000,A,3956.3538,N,11623.9324,E,0.37,28.73,180812,,,A*5D
237,
$GPRMC,093935.000,A,3956.3537,N,11623.9322,E,0.40,127.32,180812,,,A*6E
237,
$GPRMC,093936.000,A,3956.3537,N,11623.9323,E,0.17,223.29,180812,,,A*63
237,
$GPRMC,093937.000,A,3956.3537,N,11623.9323,E,0.64,271.81,180812,,,A*63
237,
$GPRMC,093938.000,A,3956.3537,N,11623.9322,E,0.76,281.51,180812,,,A*6C
237,
$GPRMC,093939.000,A,3956.3538,N,11623.9318,E,0.92,272.00,180812,,,A*69
237,
$GPRMC,093940.000,A,3956.3539,N,11623.9319,E,0.52,298.84,180812,,,A*63
238,
$GPRMC,093941.000,A,3956.3539,N,11623.9315,E,1.40,271.34,180812,,,A*60
238,
$GPRMC,093942.000,A,3956.3539,N,11623.9313,E,0.49,262.36,180812,,,A*6D
237,
$GPRMC,093943.000,A,3956.3540,N,11623.9317,E,0.43,53.44,180812,,,A*59
238,
$GPRMC,093944.000,A,3956.3540,N,11623.9314,E,0.52,101.67,180812,,,A*6A
238,
$GPRMC,093945.000,A,3956.3539,N,11623.9311,E,0.43,144.24,180812,,,A*66
238,
$GPRMC,093946.000,A,3956.3538,N,11623.9312,E,0.41,140.64,180812,,,A*65
238,
$GPRMC,093947.000,A,3956.3536,N,11623.9313,E,0.58,143.15,180812,,,A*66
238,
$GPRMC,093948.000,A,3956.3536,N,11623.9315,E,0.68,136.21,180812,,,A*69
238,
$GPRMC,093949.000,A,3956.3534,N,11623.9314,E,0.40,190.26,180812,,,A*6A
238,
$GPRMC,093950.000,A,3956.3533,N,11623.9313,E,0.66,130.80,180812,,,A*60
238,
$GPRMC,093951.000,A,3956.3532,N,11623.9314,E,0.33,171.07,180812,,,A*6D
238,
$GPRMC,093952.000,A,3956.3530,N,11623.9308,E,0.36,161.43,180812,,,A*65
238,
$GPRMC,093953.000,A,3956.3529,N,11623.9306,E,1.27,113.37,180812,,,A*65
238,
$GPRMC,093954.000,A,3956.3526,N,11623.9303,E,1.28,116.09,180812,,,A*6F
238,
$GPRMC,093955.000,A,3956.3525,N,11623.9305,E,0.63,176.26,180812,,,A*6E
238,
$GPRMC,093956.000,A,3956.3522,N,11623.9294,E,0.71,216.70,180812,,,A*66
238,
$GPRMC,093957.000,A,3956.3521,N,11623.9295,E,0.74,218.13,180812,,,A*6B
238,
$GPRMC,093958.000,A,3956.3519,N,11623.9288,E,0.83,214.57,180812,,,A*67
238,
$GPRMC,093959.000,A,3956.3517,N,11623.9288,E,1.15,221.05,180812,,,A*67
238,
$GPRMC,094000.000,A,3956.3516,N,11623.9289,E,0.75,201.04,180812,,,A*61
238,
$GPRMC,094001.000,A,3956.3517,N,11623.9295,E,0.41,217.70,180812,,,A*6F
238,
$GPRMC,094002.000,A,3956.3518,N,11623.9298,E,0.57,258.56,180812,,,A*66
238,
$GPRMC,094003.000,A,3956.3521,N,11623.9309,E,0.87,270.49,180812,,,A*6D
238,
$GPRMC,094004.000,A,3956.3523,N,11623.9309,E,0.76,291.09,180812,,,A*6D
238,
$GPRMC,094005.000,A,3956.3524,N,11623.9306,E,0.25,293.42,180812,,,A*6F
239,
