$PSRFTXT,Version:GSW3.5.0_3.5.00.00-SDK-3EP2.01 *46
200,
$GPRMC,070841.396,V,,,,,,,180812,,,N*49
201,
$GPRMC,070842.395,V,,,,,,,180812,,,N*49
201,
$GPRMC,070843.394,A,3956.3509,N,11623.9301,E,2.83,171.61,180812,,,A*69
200,
$GPRMC,070844.394,A,3956.3374,N,11623.9260,E,2.64,149.21,180812,,,A*62
200,
$GPRMC,070845.394,A,3956.3469,N,11623.9325,E,1.81,151.36,180812,,,A*6F
200,
$GPRMC,070846.000,A,3956.3482,N,11623.9385,E,2.17,155.29,180812,,,A*6B
200,
$GPRMC,070847.000,A,3956.3507,N,11623.9399,E,1.29,139.35,180812,,,A*62
200,
$GPRMC,070848.000,A,3956.3518,N,11623.9406,E,1.66,110.05,180812,,,A*61
200,
$GPRMC,070849.000,A,3956.3515,N,11623.9394,E,0.96,83.91,180812,,,A*59
200,
$GPRMC,070850.000,A,3956.3519,N,11623.9391,E,0.96,70.24,180812,,,A*5A
200,
$GPRMC,070851.000,A,3956.3527,N,11623.9390,E,0.71,55.76,180812,,,A*5E
200,
$GPRMC,070852.000,A,3956.3538,N,11623.9393,E,0.57,43.44,180812,,,A*52
200,
$GPRMC,070853.000,A,3956.3543,N,11623.9394,E,0.39,135.24,180812,,,A*66
200,
$GPRMC,070854.000,A,3956.3547,N,11623.9393,E,0.30,129.15,180812,,,A*64
200,
$GPRMC,070855.000,A,3956.3545,N,11623.9390,E,0.17,125.70,180812,,,A*6E
200,
$GPRMC,070856.000,A,3956.3546,N,11623.9388,E,0.11,140.76,180812,,,A*64
200,
$GPRMC,070857.000,A,3956.3548,N,11623.9388,E,0.26,172.24,180812,,,A*69
200,
$GPRMC,070858.000,A,3956.3548,N,11623.9387,E,0.21,149.74,180812,,,A*63
200,
$GPRMC,070859.000,A,3956.3549,N,11623.9387,E,0.20,161.71,180812,,,A*6D
200,
$GPRMC,070900.000,A,3956.3548,N,11623.9386,E,0.16,61.55,180812,,,A*52
200,
$GPRMC,070901.000,A,3956.3548,N,11623.9386,E,0.25,36.64,180812,,,A*53
200,
$GPRMC,070902.000,A,3956.3548,N,11623.9387,E,0.08,11.82,180812,,,A*53
201,
$GPRMC,070903.000,A,3956.3547,N,11623.9387,E,0.61,134.02,180812,,,A*6C
200,
$GPRMC,070904.000,A,3956.3546,N,11623.9389,E,0.74,45.93,180812,,,A*5F
201,
$GPRMC,070905.000,A,3956.3542,N,11623.9390,E,1.36,207.48,180812,,,A*67
201,
$GPRMC,070906.000,A,3956.3533,N,11623.9389,E,2.87,177.32,180812,,,A*6A
201,
$GPRMC,070907.000,A,3956.3527,N,11623.9393,E,2.94,152.55,180812,,,A*61
200,
$GPRMC,070908.000,A,3956.3520,N,11623.9400,E,3.25,153.92,180812,,,A*65
200,
$GPRMC,070909.000,A,3956.3514,N,11623.9408,E,3.44,135.25,180812,,,A*60
200,
$GPRMC,070910.000,A,3956.3509,N,11623.9418,E,3.53,132.22,180812,,,A*63
200,
$GPRMC,070911.000,A,3956.3504,N,11623.9426,E,3.76,141.25,180812,,,A*66
201,
$GPRMC,070912.000,A,3956.3500,N,11623.9435,E,4.00,135.96,180812,,,A*6E
201,
$GPRMC,070913.000,A,3956.3499,N,11623.9442,E,2.15,117.77,180812,,,A*63
200,
$GPRMC,070914.000,A,3956.3502,N,11623.9445,E,1.55,62.42,180812,,,A*52
200,
$GPRMC,070915.000,A,3956.3507,N,11623.9448,E,1.90,18.20,180812,,,A*5B
200,
$GPRMC,070916.000,A,3956.3515,N,11623.9448,E,2.62,358.20,180812,,,A*62
200,
$GPRMC,070917.000,A,3956.3524,N,11623.9445,E,3.01,349.07,180812,,,A*6D
200,
$GPRMC,070918.000,A,3956.3530,N,11623.9443,E,1.77,18.68,180812,,,A*5C
199,
$GPRMC,070919.000,A,3956.3535,N,11623.9441,E,0.65,351.84,180812,,,A*64
200,
$GPRMC,070920.000,A,3956.3535,N,11623.9436,E,1.94,309.20,180812,,,A*62
200,
$GPRMC,070921.000,A,3956.3538,N,11623.9428,E,2.31,311.35,180812,,,A*60
200,
$GPRMC,070922.000,A,3956.3543,N,11623.9422,E,0.88,303.63,180812,,,A*65
200,
$GPRMC,070923.000,A,3956.3546,N,11623.9421,E,1.27,6.95,180812,,,A*69
200,
$GPRMC,070924.000,A,3956.3546,N,11623.9421,E,0.85,41.67,180812,,,A*59
200,
$GPRMC,070925.000,A,3956.3548,N,11623.9423,E,1.69,48.43,180812,,,A*58
200,
$GPRMC,070926.000,A,3956.3546,N,11623.9425,E,1.48,105.18,180812,,,A*66
200,
$GPRMC,070927.000,A,3956.3546,N,11623.9425,E,0.64,181.60,180812,,,A*6B
200,
$GPRMC,070928.000,A,3956.3549,N,11623.9421,E,0.59,207.77,180812,,,A*6A
199,
$GPRMC,070929.000,A,3956.3547,N,11623.9418,E,1.25,173.94,180812,,,A*68
199,
$GPRMC,070930.000,A,3956.3548,N,11623.9416,E,0.60,144.29,180812,,,A*63
200,
$GPRMC,070931.000,A,3956.3544,N,11623.9415,E,1.77,177.78,180812,,,A*6E
199,
$GPRMC,070932.000,A,3956.3540,N,11623.9415,E,2.37,180.33,180812,,,A*69
199,
$GPRMC,070933.000,A,3956.3537,N,11623.9415,E,2.08,179.63,180812,,,A*67
199,
$GPRMC,070934.000,A,3956.3532,N,11623.9416,E,1.81,173.88,180812,,,A*6B
199,
$GPRMC,070935.000,A,3956.3527,N,11623.9418,E,1.50,175.86,180812,,,A*64
199,
$GPRMC,070936.000,A,3956.3523,N,11623.9419,E,1.73,182.75,180812,,,A*67
199,
$GPRMC,070937.000,A,3956.3519,N,11623.9418,E,1.46,200.63,180812,,,A*66
199,
$GPRMC,070938.000,A,3956.3512,N,11623.9418,E,1.64,184.36,180812,,,A*6D
198,
$GPRMC,070939.000,A,3956.3508,N,11623.9420,E,0.92,166.74,180812,,,A*6E
198,
$GPRMC,070940.000,A,3956.3509,N,11623.9421,E,0.58,143.61,180812,,,A*65
198,
$GPRMC,070941.000,A,3956.3511,N,11623.9419,E,0.82,186.37,180812,,,A*6B
198,
$GPRMC,070942.000,A,3956.3510,N,11623.9414,E,1.93,206.07,180812,,,A*6D
198,
$GPRMC,070943.000,A,3956.3512,N,11623.9408,E,0.91,257.85,180812,,,A*6E
198,
$GPRMC,070944.000,A,3956.3516,N,11623.9407,E,0.54,13.37,180812,,,A*50
199,
$GPRMC,070945.000,A,3956.3519,N,11623.9407,E,1.02,7.51,180812,,,A*69
198,
$GPRMC,070946.000,A,3956.3527,N,11623.9409,E,1.89,32.96,180812,,,A*57
198,
$GPRMC,070947.000,A,3956.3532,N,11623.9411,E,2.49,39.44,180812,,,A*50
198,
$GPRMC,070948.000,A,3956.3539,N,11623.9421,E,2.77,40.57,180812,,,A*56
198,
$GPRMC,070949.000,A,3956.3550,N,11623.9428,E,2.71,38.02,180812,,,A*58
197,
$GPRMC,070950.000,A,3956.3560,N,11623.9435,E,3.75,48.02,180812,,,A*5D
197,
$GPRMC,070951.000,A,3956.3569,N,11623.9442,E,4.39,51.87,180812,,,A*5F
197,
$GPRMC,070952.000,A,3956.3577,N,11623.9446,E,4.46,47.54,180812,,,A*56
197,
$GPRMC,070953.000,A,3956.3572,N,11623.9445,E,3.63,49.12,180812,,,A*5D
196,
$GPRMC,070954.000,A,3956.3567,N,11623.9441,E,2.45,53.03,180812,,,A*54
196,
$GPRMC,070955.000,A,3956.3559,N,11623.9435,E,0.93,72.62,180812,,,A*56
197,
$GPRMC,070956.000,A,3956.3556,N,11623.9420,E,1.13,258.81,180812,,,A*60
196,
$GPRMC,070957.000,A,3956.3549,N,11623.9397,E,3.25,255.20,180812,,,A*65
196,
$GPRMC,070958.000,A,3956.3534,N,11623.9395,E,2.37,211.53,180812,,,A*64
196,
$GPRMC,070959.000,A,3956.3526,N,11623.9398,E,2.13,189.11,180812,,,A*69
196,
$GPRMC,071000.000,A,3956.3541,N,11623.9405,E,0.93,338.96,180812,,,A*62
196,
$GPRMC,071001.000,A,3956.3558,N,11623.9401,E,2.44,350.00,180812,,,A*66
196,
$GPRMC,071002.000,A,3956.3558,N,11623.9403,E,1.40,354.79,180812,,,A*6A
196,
$GPRMC,071003.000,A,3956.3561,N,11623.9405,E,2.92,6.92,180812,,,A*6A
196,
$GPRMC,071004.000,A,3956.3578,N,11623.9408,E,3.75,3.17,180812,,,A*68
196,
$GPRMC,071005.000,A,3956.3585,N,11623.9402,E,3.25,356.20,180812,,,A*63
196,
$GPRMC,071006.000,A,3956.3586,N,11623.9399,E,2.30,351.05,180812,,,A*63
196,
$GPRMC,071007.000,A,3956.3586,N,11623.9396,E,1.30,5.23,180812,,,A*68
196,
$GPRMC,071008.000,A,3956.3581,N,11623.9397,E,1.27,12.74,180812,,,A*53
196,
$GPRMC,071009.000,A,3956.3578,N,11623.9397,E,0.47,50.83,180812,,,A*5D
196,
$GPRMC,071010.000,A,3956.3571,N,11623.9398,E,0.12,269.84,180812,,,A*6C
196,
$GPRMC,071011.000,A,3956.3569,N,11623.9395,E,0.22,286.82,180812,,,A*6D
196,
$GPRMC,071012.000,A,3956.3577,N,11623.9395,E,0.41,280.10,180812,,,A*69
196,
$GPRMC,071013.000,A,3956.3576,N,11623.9389,E,1.39,259.41,180812,,,A*6A
196,
$GPRMC,071014.000,A,3956.3572,N,11623.9380,E,1.59,281.30,180812,,,A*65
197,
$GPRMC,071015.000,A,3956.3566,N,11623.9381,E,0.85,28.31,180812,,,A*50
197,
$GPRMC,071016.000,A,3956.3559,N,11623.9382,E,0.74,356.71,180812,,,A*6C
197,
$GPRMC,071017.000,A,3956.3554,N,11623.9383,E,1.51,208.22,180812,,,A*6B
197,
$GPRMC,071018.000,A,3956.3550,N,11623.9383,E,1.17,160.69,180812,,,A*60
197,
$GPRMC,071019.000,A,3956.3546,N,11623.9385,E,1.25,161.41,180812,,,A*6A
197,
$GPRMC,071020.000,A,3956.3545,N,11623.9387,E,1.41,169.14,180812,,,A*6B
198,
$GPRMC,071021.000,A,3956.3545,N,11623.9386,E,0.90,204.92,180812,,,A*60
197,
$GPRMC,071022.000,A,3956.3548,N,11623.9386,E,0.52,345.19,180812,,,A*67
197,
$GPRMC,071023.000,A,3956.3554,N,11623.9383,E,0.97,358.20,180812,,,A*61
197,
$GPRMC,071024.000,A,3956.3559,N,11623.9380,E,0.72,352.19,180812,,,A*63
197,
$GPRMC,071025.000,A,3956.3561,N,11623.9379,E,0.62,213.71,180812,,,A*64
198,
$GPRMC,071026.000,A,3956.3561,N,11623.9378,E,0.06,26.19,180812,,,A*5E
198,
