$GPRMC,083926.000,A,3956.3611,N,11623.9512,E,1.66,97.47,180812,,,A*52
226,
$GPRMC,083927.000,A,3956.3648,N,11623.9556,E,1.07,70.47,180812,,,A*51
225,
$GPRMC,083928.000,A,3956.3663,N,11623.9557,E,0.63,54.68,180812,,,A*5E
225,
$GPRMC,083929.000,A,3956.3664,N,11623.9553,E,0.72,33.50,180812,,,A*56
225,
$GPRMC,083930.000,A,3956.3667,N,11623.9553,E,0.25,119.80,180812,,,A*6B
226,
$GPRMC,083931.000,A,3956.3669,N,11623.9547,E,0.30,331.01,180812,,,A*64
227,
$GPRMC,083932.000,A,3956.3660,N,11623.9550,E,1.25,121.33,180812,,,A*6F
227,
$GPRMC,083933.000,A,3956.3659,N,11623.9553,E,0.72,91.78,180812,,,A*51
227,
$GPRMC,083934.000,A,3956.3668,N,11623.9542,E,0.33,46.62,180812,,,A*50
225,
$GPRMC,083935.000,A,3956.3668,N,11623.9538,E,0.88,272.99,180812,,,A*6D
225,
$GPRMC,083936.000,A,3956.3668,N,11623.9536,E,1.77,287.00,180812,,,A*6B
226,
$GPRMC,083937.000,A,3956.3663,N,11623.9531,E,0.99,239.78,180812,,,A*6D
226,
$GPRMC,083938.000,A,3956.3663,N,11623.9528,E,0.62,181.80,180812,,,A*69
225,
$GPRMC,083939.000,A,3956.3658,N,11623.9527,E,1.10,162.19,180812,,,A*66
225,
$GPRMC,083940.000,A,3956.3652,N,11623.9529,E,0.89,196.56,180812,,,A*6D
224,
$GPRMC,083941.000,A,3956.3644,N,11623.9530,E,1.38,176.77,180812,,,A*65
224,
$GPRMC,083942.000,A,3956.3639,N,11623.9533,E,1.31,153.32,180812,,,A*60
224,
$GPRMC,083943.000,A,3956.3637,N,11623.9535,E,1.03,157.92,180812,,,A*66
224,
$GPRMC,083944.000,A,3956.3636,N,11623.9538,E,1.12,145.46,180812,,,A*67
224,
$GPRMC,083945.000,A,3956.3635,N,11623.9539,E,0.60,155.98,180812,,,A*62
224,
$GPRMC,083946.000,A,3956.3636,N,11623.9538,E,0.37,139.98,180812,,,A*6B
224,
$GPRMC,083947.000,A,3956.3638,N,11623.9535,E,1.38,286.88,180812,,,A*61
218,
$GPRMC,083948.000,A,3956.3639,N,11623.9530,E,1.47,275.97,180812,,,A*60
213,
$GPRMC,083949.000,A,3956.3638,N,11623.9526,E,0.81,312.03,180812,,,A*61
211,
$GPRMC,083950.000,A,3956.3639,N,11623.9523,E,0.31,355.22,180812,,,A*66
210,
$GPRMC,083951.000,A,3956.3639,N,11623.9521,E,0.70,24.62,180812,,,A*51
209,
$GPRMC,083952.000,A,3956.3634,N,11623.9522,E,1.44,152.95,180812,,,A*62
209,
$GPRMC,083953.000,A,3956.3632,N,11623.9519,E,0.54,218.86,180812,,,A*62
210,
$GPRMC,083954.000,A,3956.3634,N,11623.9510,E,1.93,297.45,180812,,,A*68
210,
$GPRMC,083955.000,A,3956.3638,N,11623.9502,E,1.75,310.62,180812,,,A*65
210,
$GPRMC,083956.000,A,3956.3640,N,11623.9493,E,1.68,293.64,180812,,,A*60
211,
$GPRMC,083957.000,A,3956.3641,N,11623.9487,E,0.72,267.91,180812,,,A*6E
210,
$GPRMC,083958.000,A,3956.3639,N,11623.9486,E,0.60,196.67,180812,,,A*68
210,
$GPRMC,083959.000,A,3956.3637,N,11623.9487,E,0.15,40.17,180812,,,A*59
211,
$GPRMC,084000.000,A,3956.3636,N,11623.9489,E,0.59,124.80,180812,,,A*61
211,
$GPRMC,084001.000,A,3956.3631,N,11623.9493,E,1.24,131.94,180812,,,A*66
211,
$GPRMC,084002.000,A,3956.3627,N,11623.9495,E,0.42,178.25,180812,,,A*62
211,
$GPRMC,084003.000,A,3956.3627,N,11623.9493,E,0.54,245.55,180812,,,A*68
211,
$GPRMC,084004.000,A,3956.3627,N,11623.9493,E,0.33,276.36,180812,,,A*6B
211,
$GPRMC,084005.000,A,3956.3630,N,11623.9492,E,1.21,313.16,180812,,,A*6F
211,
$GPRMC,084006.000,A,3956.3636,N,11623.9489,E,0.52,311.38,180812,,,A*6B
211,
$GPRMC,084007.000,A,3956.3642,N,11623.9488,E,0.38,291.53,180812,,,A*60
211,
$GPRMC,084008.000,A,3956.3647,N,11623.9484,E,0.58,290.50,180812,,,A*62
211,
$GPRMC,084009.000,A,3956.3649,N,11623.9482,E,0.39,255.67,180812,,,A*61
211,
$GPRMC,084010.000,A,3956.3648,N,11623.9484,E,0.18,180.32,180812,,,A*66
211,
$GPRMC,084011.000,A,3956.3645,N,11623.9487,E,0.22,86.23,180812,,,A*57
211,
$GPRMC,084012.000,A,3956.3643,N,11623.9488,E,0.27,105.03,180812,,,A*60
211,
$GPRMC,084013.000,A,3956.3641,N,11623.9490,E,0.32,185.26,180812,,,A*61
211,
$GPRMC,084014.000,A,3956.3638,N,11623.9491,E,0.57,199.88,180812,,,A*63
211,
$GPRMC,084015.000,A,3956.3632,N,11623.9492,E,1.06,191.32,180812,,,A*67
211,
$GPRMC,084016.000,A,3956.3628,N,11623.9494,E,0.21,135.06,180812,,,A*64
211,
$GPRMC,084017.000,A,3956.3627,N,11623.9497,E,0.29,100.64,180812,,,A*63
211,
$GPRMC,084018.000,A,3956.3625,N,11623.9500,E,0.45,46.16,180812,,,A*5D
211,
$GPRMC,084019.000,A,3956.3624,N,11623.9502,E,0.39,18.76,180812,,,A*59
211,
$GPRMC,084020.000,A,3956.3624,N,11623.9504,E,0.54,19.90,180812,,,A*57
211,
$GPRMC,084021.000,A,3956.3624,N,11623.9504,E,0.03,194.03,180812,,,A*6A
211,
$GPRMC,084022.000,A,3956.3624,N,11623.9503,E,0.72,130.03,180812,,,A*66
212,
$GPRMC,084023.000,A,3956.3619,N,11623.9506,E,3.24,168.60,180812,,,A*64
212,
$GPRMC,084024.000,A,3956.3610,N,11623.9506,E,3.12,155.86,180812,,,A*69
212,
$GPRMC,084025.000,A,3956.3605,N,11623.9514,E,3.55,125.70,180812,,,A*62
213,
$GPRMC,084026.000,A,3956.3595,N,11623.9519,E,3.45,146.67,180812,,,A*64
215,
$GPRMC,084027.000,A,3956.3583,N,11623.9527,E,3.03,136.69,180812,,,A*64
214,
$GPRMC,084028.000,A,3956.3571,N,11623.9530,E,1.56,151.00,180812,,,A*6C
214,
$GPRMC,084029.000,A,3956.3567,N,11623.9532,E,0.59,184.46,180812,,,A*6C
213,
$GPRMC,084030.000,A,3956.3562,N,11623.9533,E,0.53,149.77,180812,,,A*69
213,
$GPRMC,084031.000,A,3956.3561,N,11623.9535,E,0.52,45.06,180812,,,A*57
213,
$GPRMC,084032.000,A,3956.3558,N,11623.9536,E,0.31,86.37,180812,,,A*55
213,
$GPRMC,084033.000,A,3956.3558,N,11623.9533,E,0.56,237.69,180812,,,A*63
214,
$GPRMC,084034.000,A,3956.3560,N,11623.9531,E,0.39,148.53,180812,,,A*66
214,
$GPRMC,084035.000,A,3956.3564,N,11623.9529,E,0.75,349.72,180812,,,A*62
214,
$GPRMC,084036.000,A,3956.3563,N,11623.9525,E,0.38,243.84,180812,,,A*61
214,
$GPRMC,084037.000,A,3956.3563,N,11623.9522,E,0.57,165.82,180812,,,A*6F
216,
$GPRMC,084038.000,A,3956.3566,N,11623.9523,E,0.61,54.64,180812,,,A*5A
216,
$GPRMC,084039.000,A,3956.3570,N,11623.9523,E,0.77,259.86,180812,,,A*68
216,
$GPRMC,084040.000,A,3956.3571,N,11623.9517,E,1.37,274.05,180812,,,A*61
215,
$GPRMC,084041.000,A,3956.3573,N,11623.9511,E,1.72,288.51,180812,,,A*67
215,
$GPRMC,084042.000,A,3956.3578,N,11623.9504,E,1.53,295.56,180812,,,A*63
215,
$GPRMC,084043.000,A,3956.3579,N,11623.9502,E,0.61,242.24,180812,,,A*6A
216,
$GPRMC,084044.000,A,3956.3581,N,11623.9498,E,1.01,193.47,180812,,,A*65
215,
$GPRMC,084045.000,A,3956.3581,N,11623.9495,E,0.74,141.22,180812,,,A*66
216,
$GPRMC,084046.000,A,3956.3583,N,11623.9495,E,0.75,357.42,180812,,,A*65
216,
$GPRMC,084047.000,A,3956.3582,N,11623.9489,E,0.34,269.97,180812,,,A*69
216,
$GPRMC,084048.000,A,3956.3579,N,11623.9489,E,0.94,156.85,180812,,,A*64
216,
$GPRMC,084049.000,A,3956.3581,N,11623.9487,E,1.06,149.63,180812,,,A*60
216,
$GPRMC,084050.000,A,3956.3585,N,11623.9487,E,1.48,164.80,180812,,,A*64
217,
$GPRMC,084051.000,A,3956.3587,N,11623.9488,E,1.22,140.61,180812,,,A*6D
217,
$GPRMC,084052.000,A,3956.3587,N,11623.9488,E,0.76,226.70,180812,,,A*6D
217,
$GPRMC,084053.000,A,3956.3589,N,11623.9486,E,0.46,321.27,180812,,,A*6B
217,
$GPRMC,084054.000,A,3956.3593,N,11623.9487,E,0.35,142.24,180812,,,A*66
219,
$GPRMC,084055.000,A,3956.3592,N,11623.9488,E,0.55,160.23,180812,,,A*68
220,
$GPRMC,084056.000,A,3956.3592,N,11623.9489,E,0.76,15.38,180812,,,A*52
220,
$GPRMC,084057.000,A,3956.3595,N,11623.9489,E,0.83,348.84,180812,,,A*62
218,
$GPRMC,084058.000,A,3956.3596,N,11623.9493,E,0.49,330.91,180812,,,A*68
218,
$GPRMC,084059.000,A,3956.3596,N,11623.9497,E,1.02,302.08,180812,,,A*62
217,
$GPRMC,084100.000,A,3956.3597,N,11623.9498,E,1.37,316.60,180812,,,A*6C
218,
$GPRMC,084101.000,A,3956.3598,N,11623.9498,E,0.58,324.10,180812,,,A*6C
220,
$GPRMC,084102.000,A,3956.3599,N,11623.9502,E,0.37,42.72,180812,,,A*52
220,
$GPRMC,084103.000,A,3956.3598,N,11623.9502,E,0.29,336.00,180812,,,A*68
221,
$GPRMC,084104.000,A,3956.3599,N,11623.9502,E,0.74,299.47,180812,,,A*61
221,
$GPRMC,084105.000,A,3956.3599,N,11623.9504,E,0.99,43.07,180812,,,A*54
220,
$GPRMC,084106.000,A,3956.3600,N,11623.9503,E,1.28,13.42,180812,,,A*5C
220,
$GPRMC,084107.000,A,3956.3599,N,11623.9508,E,0.89,27.72,180812,,,A*5B
219,
$GPRMC,084108.000,A,3956.3595,N,11623.9514,E,0.38,341.95,180812,,,A*65
218,
$GPRMC,084109.000,A,3956.3598,N,11623.9514,E,0.83,324.58,180812,,,A*6B
218,
$GPRMC,084110.000,A,3956.3599,N,11623.9514,E,0.57,199.66,180812,,,A*62
218,
$GPRMC,084111.000,A,3956.3598,N,11623.9512,E,0.76,88.53,180812,,,A*50
218,
$GPRMC,084112.000,A,3956.3597,N,11623.9514,E,1.79,132.07,180812,,,A*65
217,
$GPRMC,084113.000,A,3956.3593,N,11623.9520,E,1.01,131.67,180812,,,A*6D
217,
$GPRMC,084114.000,A,3956.3592,N,11623.9525,E,0.96,122.39,180812,,,A*68
219,
$GPRMC,084115.000,A,3956.3590,N,11623.9531,E,1.15,39.78,180812,,,A*5A
220,
$GPRMC,084116.000,A,3956.3591,N,11623.9537,E,0.84,89.83,180812,,,A*58
221,
$GPRMC,084117.000,A,3956.3588,N,11623.9540,E,0.27,149.99,180812,,,A*6E
221,
$GPRMC,084118.000,A,3956.3589,N,11623.9539,E,0.23,208.85,180812,,,A*61
221,
$GPRMC,084119.000,A,3956.3587,N,11623.9542,E,0.66,168.73,180812,,,A*6F
220,
$GPRMC,084120.000,A,3956.3586,N,11623.9539,E,0.44,187.80,180812,,,A*65
221,
$GPRMC,084121.000,A,3956.3585,N,11623.9538,E,0.84,165.91,180812,,,A*66
221,
$GPRMC,084122.000,A,3956.3583,N,11623.9537,E,0.09,114.20,180812,,,A*65
220,
$GPRMC,084123.000,A,3956.3583,N,11623.9534,E,0.49,272.20,180812,,,A*60
221,
$GPRMC,084124.000,A,3956.3585,N,11623.9532,E,0.84,331.28,180812,,,A*68
221,
$GPRMC,084125.000,A,3956.3589,N,11623.9531,E,1.19,354.53,180812,,,A*6C
220,
$GPRMC,084126.000,A,3956.3593,N,11623.9530,E,1.30,36.87,180812,,,A*50
220,
$GPRMC,084127.000,A,3956.3595,N,11623.9532,E,0.84,89.99,180812,,,A*50
220,
$GPRMC,084128.000,A,3956.3596,N,11623.9533,E,0.78,105.41,180812,,,A*6E
221,
$GPRMC,084129.000,A,3956.3599,N,11623.9530,E,0.68,172.10,180812,,,A*66
218,
$GPRMC,084130.000,A,3956.3598,N,11623.9532,E,1.56,121.17,180812,,,A*60
219,
$GPRMC,084131.000,A,3956.3598,N,11623.9532,E,1.30,155.54,180812,,,A*65
219,
$GPRMC,084132.000,A,3956.3597,N,11623.9531,E,0.88,165.13,180812,,,A*68
219,
$GPRMC,084133.000,A,3956.3600,N,11623.9528,E,0.23,193.21,180812,,,A*65
219,
$GPRMC,084134.000,A,3956.3600,N,11623.9524,E,0.60,224.49,180812,,,A*68
219,
$GPRMC,084135.000,A,3956.3601,N,11623.9520,E,0.22,89.84,180812,,,A*5E
219,
$GPRMC,084136.000,A,3956.3603,N,11623.9520,E,0.92,53.67,180812,,,A*5E
219,
$GPRMC,084137.000,A,3956.3605,N,11623.9521,E,0.73,23.37,180812,,,A*55
219,
$GPRMC,084138.000,A,3956.3606,N,11623.9519,E,0.68,176.32,180812,,,A*6C
220,
$GPRMC,084139.000,A,3956.3607,N,11623.9514,E,0.36,219.49,180812,,,A*6C
221,
$GPRMC,084140.000,A,3956.3609,N,11623.9514,E,0.19,36.96,180812,,,A*5C
221,
$GPRMC,084141.000,A,3956.3607,N,11623.9514,E,0.35,41.68,180812,,,A*5C
220,
$GPRMC,084142.000,A,3956.3609,N,11623.9512,E,0.59,340.36,180812,,,A*64
220,
$GPRMC,084143.000,A,3956.3611,N,11623.9511,E,0.27,180.30,180812,,,A*6E
220,
$GPRMC,084144.000,A,3956.3608,N,11623.9512,E,0.38,178.20,180812,,,A*6A
220,
$GPRMC,084145.000,A,3956.3609,N,11623.9509,E,0.73,245.05,180812,,,A*65
220,
$GPRMC,084146.000,A,3956.3610,N,11623.9508,E,0.45,187.99,180812,,,A*62
221,
$GPRMC,084147.000,A,3956.3612,N,11623.9509,E,0.39,347.65,180812,,,A*66
220,
$GPRMC,084148.000,A,3956.3611,N,11623.9511,E,0.23,110.19,180812,,,A*63
219,
$GPRMC,084149.000,A,3956.3608,N,11623.9515,E,0.23,138.20,180812,,,A*6E
218,
$GPRMC,084150.000,A,3956.3606,N,11623.9512,E,0.34,253.30,180812,,,A*66
218,
$GPRMC,084151.000,A,3956.3606,N,11623.9509,E,1.34,256.72,180812,,,A*6F
217,
$GPRMC,084152.000,A,3956.3603,N,11623.9509,E,0.87,308.03,180812,,,A*6C
218,
$GPRMC,084153.000,A,3956.3603,N,11623.9505,E,1.13,304.87,180812,,,A*6D
218,
$GPRMC,084154.000,A,3956.3605,N,11623.9503,E,0.22,320.28,180812,,,A*6A
219,
$GPRMC,084155.000,A,3956.3606,N,11623.9501,E,0.97,297.00,180812,,,A*63
219,
$GPRMC,084156.000,A,3956.3603,N,11623.9501,E,0.61,262.57,180812,,,A*64
219,
$GPRMC,084157.000,A,3956.3602,N,11623.9503,E,1.07,44.78,180812,,,A*5C
220,
$GPRMC,084158.000,A,3956.3602,N,11623.9507,E,1.08,71.27,180812,,,A*54
221,
$GPRMC,084159.000,A,3956.3604,N,11623.9509,E,0.74,47.24,180812,,,A*51
220,
$GPRMC,084200.000,A,3956.3603,N,11623.9509,E,0.14,183.60,180812,,,A*66
221,
$GPRMC,084201.000,A,3956.3601,N,11623.9507,E,0.34,214.08,180812,,,A*6A
220,
$GPRMC,084202.000,A,3956.3598,N,11623.9506,E,0.64,201.89,180812,,,A*63
221,
$GPRMC,084203.000,A,3956.3596,N,11623.9507,E,0.41,164.42,180812,,,A*6D
222,
$GPRMC,084204.000,A,3956.3593,N,11623.9510,E,0.91,156.85,180812,,,A*6E
220,
$GPRMC,084205.000,A,3956.3592,N,11623.9508,E,0.73,219.55,180812,,,A*6E
219,
$GPRMC,084206.000,A,3956.3595,N,11623.9506,E,0.38,178.85,180812,,,A*62
220,
$GPRMC,084207.000,A,3956.3598,N,11623.9505,E,0.25,101.06,180812,,,A*64
219,
$GPRMC,084208.000,A,3956.3597,N,11623.9508,E,0.55,147.40,180812,,,A*6E
220,
$GPRMC,084209.000,A,3956.3595,N,11623.9508,E,0.52,154.15,180812,,,A*68
220,
$GPRMC,084210.000,A,3956.3591,N,11623.9513,E,0.68,142.77,180812,,,A*64
220,
$GPRMC,084211.000,A,3956.3588,N,11623.9514,E,0.16,174.56,180812,,,A*65
219,
$GPRMC,084212.000,A,3956.3584,N,11623.9515,E,0.38,208.66,180812,,,A*6C
220,
$GPRMC,084213.000,A,3956.3583,N,11623.9516,E,0.33,33.06,180812,,,A*5E
219,
$GPRMC,084214.000,A,3956.3580,N,11623.9520,E,0.46,69.72,180812,,,A*51
220,
$GPRMC,084215.000,A,3956.3576,N,11623.9525,E,0.85,132.13,180812,,,A*6B
220,
$GPRMC,084216.000,A,3956.3572,N,11623.9528,E,1.48,152.55,180812,,,A*65
220,
$GPRMC,084217.000,A,3956.3571,N,11623.9528,E,1.97,155.74,180812,,,A*61
218,
$GPRMC,084218.000,A,3956.3570,N,11623.9529,E,1.58,143.42,180812,,,A*6F
217,
$GPRMC,084219.000,A,3956.3574,N,11623.9529,E,0.92,91.00,180812,,,A*55
217,
$GPRMC,084220.000,A,3956.3579,N,11623.9524,E,0.77,243.05,180812,,,A*6C
217,
$GPRMC,084221.000,A,3956.3582,N,11623.9519,E,0.80,157.06,180812,,,A*6A
216,
$GPRMC,084222.000,A,3956.3584,N,11623.9519,E,0.93,122.87,180812,,,A*66
216,
$GPRMC,084223.000,A,3956.3588,N,11623.9518,E,0.83,127.80,180812,,,A*69
217,
$GPRMC,084224.000,A,3956.3590,N,11623.9519,E,0.95,117.86,180812,,,A*64
217,
$GPRMC,084225.000,A,3956.3593,N,11623.9520,E,1.02,75.68,180812,,,A*56
217,
$GPRMC,084226.000,A,3956.3596,N,11623.9519,E,0.37,17.44,180812,,,A*57
217,
$GPRMC,084227.000,A,3956.3598,N,11623.9514,E,0.64,312.43,180812,,,A*62
216,
$GPRMC,084228.000,A,3956.3598,N,11623.9515,E,0.56,74.41,180812,,,A*5C
217,
$GPRMC,084229.000,A,3956.3597,N,11623.9514,E,1.10,99.72,180812,,,A*53
216,
$GPRMC,084230.000,A,3956.3598,N,11623.9514,E,0.53,56.35,180812,,,A*52
217,
$GPRMC,084231.000,A,3956.3602,N,11623.9514,E,1.09,32.73,180812,,,A*5D
217,
$GPRMC,084232.000,A,3956.3608,N,11623.9513,E,0.79,355.57,180812,,,A*61
216,
$GPRMC,084233.000,A,3956.3614,N,11623.9515,E,0.88,41.13,180812,,,A*53
216,
$GPRMC,084234.000,A,3956.3618,N,11623.9514,E,0.38,71.57,180812,,,A*51
216,
$GPRMC,084235.000,A,3956.3617,N,11623.9513,E,0.52,142.38,180812,,,A*6C
217,
$GPRMC,084236.000,A,3956.3616,N,11623.9512,E,0.42,140.26,180812,,,A*63
216,
$GPRMC,084237.000,A,3956.3616,N,11623.9512,E,0.87,77.33,180812,,,A*5A
216,
$GPRMC,084238.000,A,3956.3615,N,11623.9512,E,0.19,220.56,180812,,,A*62
216,
$GPRMC,084239.000,A,3956.3617,N,11623.9510,E,0.13,238.79,180812,,,A*6D
216,
$GPRMC,084240.000,A,3956.3617,N,11623.9507,E,0.57,239.21,180812,,,A*69
216,
$GPRMC,084241.000,A,3956.3619,N,11623.9504,E,0.11,18.22,180812,,,A*55
217,
$GPRMC,084242.000,A,3956.3621,N,11623.9502,E,0.61,38.74,180812,,,A*5D
217,
$GPRMC,084243.000,A,3956.3623,N,11623.9502,E,0.29,27.45,180812,,,A*5E
217,
$GPRMC,084244.000,A,3956.3624,N,11623.9501,E,0.21,211.80,180812,,,A*6B
217,
$GPRMC,084245.000,A,3956.3624,N,11623.9499,E,0.25,266.22,180812,,,A*66
217,
$GPRMC,084246.000,A,3956.3625,N,11623.9498,E,0.45,210.96,180812,,,A*6D
217,
$GPRMC,084247.000,A,3956.3627,N,11623.9497,E,0.44,19.78,180812,,,A*5B
218,
$GPRMC,084248.000,A,3956.3627,N,11623.9495,E,1.20,305.51,180812,,,A*60
218,
$GPRMC,084249.000,A,3956.3627,N,11623.9493,E,0.62,343.39,180812,,,A*6C
218,
$GPRMC,084250.000,A,3956.3627,N,11623.9493,E,0.60,288.05,180812,,,A*6F
219,
$GPRMC,084251.000,A,3956.3628,N,11623.9490,E,1.12,291.32,180812,,,A*6A
218,
$GPRMC,084252.000,A,3956.3633,N,11623.9488,E,1.57,350.27,180812,,,A*63
218,
$GPRMC,084253.000,A,3956.3630,N,11623.9494,E,1.30,101.27,180812,,,A*6B
218,
$GPRMC,084254.000,A,3956.3629,N,11623.9500,E,0.98,12.62,180812,,,A*59
219,
$GPRMC,084255.000,A,3956.3630,N,11623.9501,E,1.08,356.09,180812,,,A*67
220,
$GPRMC,084256.000,A,3956.3630,N,11623.9501,E,0.27,278.53,180812,,,A*6A
219,
$GPRMC,084257.000,A,3956.3629,N,11623.9501,E,0.21,62.29,180812,,,A*51
220,
$GPRMC,084258.000,A,3956.3623,N,11623.9500,E,0.77,132.14,180812,,,A*6C
220,
$GPRMC,084259.000,A,3956.3619,N,11623.9503,E,1.37,124.35,180812,,,A*66
220,
$GPRMC,084300.000,A,3956.3620,N,11623.9504,E,0.73,38.69,180812,,,A*52
219,
$GPRMC,084301.000,A,3956.3622,N,11623.9504,E,0.44,322.04,180812,,,A*66
219,
$GPRMC,084302.000,A,3956.3624,N,11623.9500,E,0.95,305.68,180812,,,A*64
219,
$GPRMC,084303.000,A,3956.3630,N,11623.9497,E,1.85,350.50,180812,,,A*64
218,
$GPRMC,084304.000,A,3956.3630,N,11623.9494,E,0.80,352.18,180812,,,A*6A
218,
$GPRMC,084305.000,A,3956.3625,N,11623.9493,E,0.59,238.79,180812,,,A*66
218,
$GPRMC,084306.000,A,3956.3624,N,11623.9488,E,0.77,265.06,180812,,,A*62
218,
$GPRMC,084307.000,A,3956.3622,N,11623.9488,E,0.38,152.74,180812,,,A*6C
219,
$GPRMC,084308.000,A,3956.3622,N,11623.9487,E,1.09,132.75,180812,,,A*68
218,
$GPRMC,084309.000,A,3956.3619,N,11623.9486,E,0.59,108.28,180812,,,A*65
219,
$GPRMC,084310.000,A,3956.3617,N,11623.9485,E,0.89,288.55,180812,,,A*6C
219,
$GPRMC,084311.000,A,3956.3618,N,11623.9485,E,0.44,359.23,180812,,,A*6F
219,
$GPRMC,084312.000,A,3956.3616,N,11623.9487,E,0.43,194.46,180812,,,A*67
219,
$GPRMC,084313.000,A,3956.3611,N,11623.9486,E,0.54,250.65,180812,,,A*6C
218,
$GPRMC,084314.000,A,3956.3611,N,11623.9488,E,0.41,254.23,180812,,,A*67
218,
$GPRMC,084315.000,A,3956.3608,N,11623.9493,E,0.31,40.00,180812,,,A*55
218,
$GPRMC,084316.000,A,3956.3609,N,11623.9497,E,1.11,50.24,180812,,,A*57
218,
$GPRMC,084317.000,A,3956.3613,N,11623.9503,E,1.10,73.05,180812,,,A*52
217,
$GPRMC,084318.000,A,3956.3613,N,11623.9506,E,1.41,114.44,180812,,,A*69
218,
$GPRMC,084319.000,A,3956.3616,N,11623.9507,E,1.34,75.02,180812,,,A*5A
218,
$GPRMC,084320.000,A,3956.3616,N,11623.9512,E,0.42,33.53,180812,,,A*52
217,
$GPRMC,084321.000,A,3956.3616,N,11623.9511,E,0.50,151.52,180812,,,A*67
220,
$GPRMC,084322.000,A,3956.3618,N,11623.9510,E,0.53,356.18,180812,,,A*63
222,
$GPRMC,084323.000,A,3956.3617,N,11623.9511,E,0.91,203.89,180812,,,A*6B
220,
$GPRMC,084324.000,A,3956.3619,N,11623.9510,E,0.10,252.05,180812,,,A*6A
226,
$GPRMC,084325.000,A,3956.3624,N,11623.9511,E,0.36,334.67,180812,,,A*65
229,
$GPRMC,084326.000,A,3956.3633,N,11623.9513,E,0.51,1.17,180812,,,A*61
229,
$GPRMC,084327.000,A,3956.3643,N,11623.9508,E,1.24,201.72,180812,,,A*6F
230,
$GPRMC,084328.000,A,3956.3645,N,11623.9508,E,2.28,163.87,180812,,,A*64
230,
$GPRMC,084329.000,A,3956.3645,N,11623.9512,E,0.95,130.18,180812,,,A*6A
230,
$GPRMC,084330.000,A,3956.3647,N,11623.9511,E,0.41,3.23,180812,,,A*63
231,
$GPRMC,084331.000,A,3956.3650,N,11623.9510,E,0.16,340.86,180812,,,A*6C
231,
$GPRMC,084332.000,A,3956.3646,N,11623.9510,E,0.24,206.12,180812,,,A*67
231,
$GPRMC,084333.000,A,3956.3645,N,11623.9509,E,0.56,191.98,180812,,,A*67
231,
$GPRMC,084334.000,A,3956.3648,N,11623.9506,E,1.38,321.71,180812,,,A*65
231,
$GPRMC,084335.000,A,3956.3650,N,11623.9507,E,0.59,9.00,180812,,,A*65
230,
$GPRMC,084336.000,A,3956.3652,N,11623.9508,E,1.03,357.38,180812,,,A*66
230,
$GPRMC,084337.000,A,3956.3654,N,11623.9511,E,0.82,4.23,180812,,,A*6E
230,
$GPRMC,084338.000,A,3956.3654,N,11623.9517,E,0.54,90.46,180812,,,A*52
230,
$GPRMC,084339.000,A,3956.3654,N,11623.9521,E,0.28,124.04,180812,,,A*65
230,
$GPRMC,084340.000,A,3956.3656,N,11623.9523,E,0.23,82.90,180812,,,A*50
230,
$GPRMC,084341.000,A,3956.3656,N,11623.9525,E,0.50,45.34,180812,,,A*56
229,
$GPRMC,084342.000,A,3956.3657,N,11623.9527,E,0.24,353.60,180812,,,A*60
229,
$GPRMC,084343.000,A,3956.3655,N,11623.9529,E,0.68,154.82,180812,,,A*6C
228,
$GPRMC,084344.000,A,3956.3653,N,11623.9532,E,0.45,83.09,180812,,,A*50
228,
$GPRMC,084345.000,A,3956.3654,N,11623.9533,E,0.31,344.99,180812,,,A*65
228,
$GPRMC,084346.000,A,3956.3658,N,11623.9530,E,0.44,6.31,180812,,,A*6C
228,
$GPRMC,084347.000,A,3956.3662,N,11623.9526,E,0.55,336.12,180812,,,A*62
227,
$GPRMC,084348.000,A,3956.3661,N,11623.9526,E,0.14,346.75,180812,,,A*6D
227,
$GPRMC,084349.000,A,3956.3663,N,11623.9525,E,0.26,128.19,180812,,,A*6C
226,
$GPRMC,084350.000,A,3956.3662,N,11623.9527,E,0.94,143.84,180812,,,A*67
225,
$GPRMC,084351.000,A,3956.3662,N,11623.9525,E,0.16,74.51,180812,,,A*53
225,
$GPRMC,084352.000,A,3956.3659,N,11623.9526,E,0.15,117.48,180812,,,A*64
225,
$GPRMC,084353.000,A,3956.3657,N,11623.9528,E,0.03,300.13,180812,,,A*68
224,
$GPRMC,084354.000,A,3956.3655,N,11623.9530,E,0.15,138.29,180812,,,A*63
224,
$GPRMC,084355.000,A,3956.3653,N,11623.9531,E,0.16,107.67,180812,,,A*60
224,
$GPRMC,084356.000,A,3956.3652,N,11623.9532,E,0.11,176.46,180812,,,A*63
224,
$GPRMC,084357.000,A,3956.3650,N,11623.9533,E,0.15,115.60,180812,,,A*64
224,
$GPRMC,084358.000,A,3956.3649,N,11623.9534,E,0.25,110.13,180812,,,A*66
224,
$GPRMC,084359.000,A,3956.3648,N,11623.9535,E,0.16,118.64,180812,,,A*6F
224,
$GPRMC,084400.000,A,3956.3647,N,11623.9535,E,0.09,171.89,180812,,,A*69
224,
$GPRMC,084401.000,A,3956.3646,N,11623.9535,E,0.17,235.37,180812,,,A*60
224,
$GPRMC,084402.000,A,3956.3645,N,11623.9535,E,0.24,241.42,180812,,,A*61
224,
$GPRMC,084403.000,A,3956.3643,N,11623.9538,E,0.21,142.68,180812,,,A*66
224,
$GPRMC,084404.000,A,3956.3642,N,11623.9538,E,0.47,143.97,180812,,,A*61
224,
$GPRMC,084405.000,A,3956.3641,N,11623.9539,E,0.20,110.57,180812,,,A*69
224,
$GPRMC,084406.000,A,3956.3641,N,11623.9539,E,0.17,116.79,180812,,,A*64
224,
$GPRMC,084407.000,A,3956.3640,N,11623.9537,E,0.06,144.40,180812,,,A*67
224,
$GPRMC,084408.000,A,3956.3640,N,11623.9536,E,0.37,178.22,180812,,,A*60
224,
$GPRMC,084409.000,A,3956.3641,N,11623.9535,E,0.39,162.43,180812,,,A*61
224,
$GPRMC,084410.000,A,3956.3641,N,11623.9533,E,0.31,138.09,180812,,,A*66
224,
$GPRMC,084411.000,A,3956.3641,N,11623.9532,E,0.23,114.00,180812,,,A*62
224,
$GPRMC,084412.000,A,3956.3643,N,11623.9532,E,0.45,21.65,180812,,,A*57
224,
$GPRMC,084413.000,A,3956.3643,N,11623.9531,E,0.12,129.32,180812,,,A*6C
223,
$GPRMC,084414.000,A,3956.3643,N,11623.9531,E,0.78,175.42,180812,,,A*69
223,
$GPRMC,084415.000,A,3956.3642,N,11623.9532,E,1.22,129.98,180812,,,A*6A
223,
$GPRMC,084416.000,A,3956.3641,N,11623.9536,E,1.62,117.47,180812,,,A*65
223,
$GPRMC,084417.000,A,3956.3641,N,11623.9542,E,1.74,102.63,180812,,,A*62
223,
$GPRMC,084418.000,A,3956.3642,N,11623.9548,E,1.76,93.25,180812,,,A*5D
223,
$GPRMC,084419.000,A,3956.3644,N,11623.9552,E,1.22,65.34,180812,,,A*59
223,
$GPRMC,084420.000,A,3956.3647,N,11623.9553,E,0.68,24.58,180812,,,A*51
223,
$GPRMC,084421.000,A,3956.3649,N,11623.9552,E,1.24,4.39,180812,,,A*63
223,
$GPRMC,084422.000,A,3956.3652,N,11623.9551,E,0.84,345.33,180812,,,A*6E
223,
$GPRMC,084423.000,A,3956.3654,N,11623.9550,E,0.30,27.19,180812,,,A*58
223,
$GPRMC,084424.000,A,3956.3655,N,11623.9549,E,0.54,353.57,180812,,,A*6E
223,
$GPRMC,084425.000,A,3956.3657,N,11623.9549,E,0.88,5.72,180812,,,A*6B
224,
$GPRMC,084426.000,A,3956.3659,N,11623.9549,E,0.53,25.81,180812,,,A*5E
224,
$GPRMC,084427.000,A,3956.3661,N,11623.9552,E,1.04,65.67,180812,,,A*51
225,
$GPRMC,084428.000,A,3956.3662,N,11623.9558,E,1.90,97.54,180812,,,A*57
225,
$GPRMC,084429.000,A,3956.3663,N,11623.9566,E,1.88,94.93,180812,,,A*5B
226,
$GPRMC,084430.000,A,3956.3664,N,11623.9574,E,2.06,94.54,180812,,,A*59
227,
$GPRMC,084431.000,A,3956.3664,N,11623.9582,E,2.11,102.97,180812,,,A*66
227,
$GPRMC,084432.000,A,3956.3662,N,11623.9590,E,1.74,105.43,180812,,,A*6E
227,
$GPRMC,084433.000,A,3956.3661,N,11623.9595,E,1.18,95.05,180812,,,A*59
227,
