$PSRFTXT,Version:GSW3.5.0_3.5.00.00-SDK-3EP2.01 *46
301,
$GPRMC,045456.272,A,3956.2608,N,11623.9786,E,4.36,114.16,180812,,,A*6D
306,
$GPRMC,045457.272,V,3956.2712,N,11623.9744,E,,,180812,,,N*72
308,
$GPRMC,045459.000,A,3956.2602,N,11623.9831,E,2.42,91.56,180812,,,A*51
307,
$GPRMC,045500.000,A,3956.2582,N,11623.9844,E,2.86,124.53,180812,,,A*67
307,
$GPRMC,045501.000,A,3956.2551,N,11623.9868,E,2.21,67.76,180812,,,A*5A
305,
$GPRMC,045502.000,A,3956.2571,N,11623.9878,E,2.52,49.56,180812,,,A*50
305,
$GPRMC,045503.000,A,3956.2611,N,11623.9868,E,3.06,29.01,180812,,,A*51
304,
$GPRMC,045504.000,A,3956.2620,N,11623.9870,E,2.12,71.61,180812,,,A*52
305,
$GPRMC,045505.000,A,3956.2622,N,11623.9876,E,2.02,71.55,180812,,,A*51
303,
$GPRMC,045506.000,A,3956.2622,N,11623.9886,E,1.98,79.32,180812,,,A*54
302,
$GPRMC,045507.000,A,3956.2630,N,11623.9890,E,2.72,56.03,180812,,,A*59
302,
$GPRMC,045508.000,A,3956.2627,N,11623.9894,E,2.29,131.43,180812,,,A*6E
300,
$GPRMC,045509.000,A,3956.2628,N,11623.9899,E,1.90,103.48,180812,,,A*66
299,
$GPRMC,045510.000,A,3956.2630,N,11623.9903,E,1.75,89.95,180812,,,A*5D
298,
$GPRMC,045511.000,A,3956.2632,N,11623.9907,E,1.86,87.28,180812,,,A*5E
297,
$GPRMC,045512.000,A,3956.2632,N,11623.9912,E,1.82,84.39,180812,,,A*5E
296,
$GPRMC,045513.000,A,3956.2635,N,11623.9916,E,1.70,72.57,180812,,,A*50
296,
$GPRMC,045514.000,A,3956.2627,N,11623.9920,E,2.08,117.61,180812,,,A*6A
295,
$GPRMC,045515.000,A,3956.2624,N,11623.9927,E,2.64,129.17,180812,,,A*69
294,
$GPRMC,045516.000,A,3956.2624,N,11623.9935,E,2.78,119.40,180812,,,A*65
292,
$GPRMC,045517.000,A,3956.2628,N,11623.9945,E,2.69,105.57,180812,,,A*64
292,
$GPRMC,045518.000,A,3956.2636,N,11623.9952,E,2.49,72.33,180812,,,A*53
291,
$GPRMC,045519.000,A,3956.2632,N,11623.9962,E,2.84,93.53,180812,,,A*5D
289,
$GPRMC,045520.000,A,3956.2630,N,11623.9972,E,2.82,106.85,180812,,,A*64
287,
$GPRMC,045521.000,A,3956.2630,N,11623.9980,E,2.57,117.44,180812,,,A*6D
286,
$GPRMC,045522.000,A,3956.2633,N,11623.9987,E,2.21,107.03,180812,,,A*69
286,
$GPRMC,045523.000,A,3956.2635,N,11623.9992,E,1.94,85.95,180812,,,A*53
286,
$GPRMC,045524.000,A,3956.2634,N,11623.9998,E,2.24,60.46,180812,,,A*52
286,
$GPRMC,045525.000,A,3956.2636,N,11624.0004,E,2.19,55.26,180812,,,A*5D
285,
$GPRMC,045526.000,A,3956.2634,N,11624.0011,E,2.08,58.66,180812,,,A*51
285,
$GPRMC,045527.000,A,3956.2627,N,11624.0019,E,1.80,92.97,180812,,,A*51
284,
$GPRMC,045528.000,A,3956.2633,N,11624.0024,E,2.34,72.47,180812,,,A*5A
282,
$GPRMC,045529.000,A,3956.2635,N,11624.0031,E,2.09,71.38,180812,,,A*5C
282,
$GPRMC,045530.000,A,3956.2632,N,11624.0037,E,2.22,88.01,180812,,,A*50
282,
$GPRMC,045531.000,A,3956.2625,N,11624.0045,E,2.22,107.21,180812,,,A*66
281,
$GPRMC,045532.000,A,3956.2620,N,11624.0052,E,1.98,89.61,180812,,,A*57
281,
$GPRMC,045533.000,A,3956.2626,N,11624.0055,E,1.54,65.42,180812,,,A*54
280,
$GPRMC,045534.000,A,3956.2618,N,11624.0056,E,1.71,118.31,180812,,,A*65
279,
$GPRMC,045535.000,A,3956.2612,N,11624.0059,E,1.84,116.97,180812,,,A*69
279,
$GPRMC,045536.000,A,3956.2617,N,11624.0063,E,2.11,67.49,180812,,,A*5D
278,
$GPRMC,045537.000,A,3956.2629,N,11624.0066,E,2.73,39.99,180812,,,A*56
277,
$GPRMC,045538.000,A,3956.2640,N,11624.0071,E,2.44,46.16,180812,,,A*5B
276,
$GPRMC,045539.000,A,3956.2635,N,11624.0078,E,1.95,81.71,180812,,,A*54
276,
$GPRMC,045540.000,A,3956.2637,N,11624.0084,E,2.52,53.48,180812,,,A*56
276,
$GPRMC,045541.000,A,3956.2635,N,11624.0091,E,2.10,55.14,180812,,,A*58
275,
$GPRMC,045542.000,A,3956.2637,N,11624.0097,E,2.11,58.68,180812,,,A*58
275,
$GPRMC,045543.000,A,3956.2639,N,11624.0103,E,2.26,55.61,180812,,,A*5B
274,
$GPRMC,045544.000,A,3956.2642,N,11624.0110,E,2.17,56.25,180812,,,A*53
273,
$GPRMC,045545.000,A,3956.2639,N,11624.0117,E,2.01,61.84,180812,,,A*51
273,
$GPRMC,045546.000,A,3956.2629,N,11624.0125,E,1.94,66.85,180812,,,A*5B
273,
$GPRMC,045547.000,A,3956.2609,N,11624.0135,E,1.88,102.99,180812,,,A*6A
274,
$GPRMC,045548.000,A,3956.2597,N,11624.0144,E,2.32,114.46,180812,,,A*60
276,
$GPRMC,045549.000,A,3956.2592,N,11624.0152,E,2.00,96.35,180812,,,A*5D
280,
$GPRMC,045550.000,A,3956.2581,N,11624.0161,E,2.00,80.17,180812,,,A*50
282,
$GPRMC,045551.000,A,3956.2571,N,11624.0170,E,2.04,102.83,180812,,,A*6C
279,
$GPRMC,045552.000,A,3956.2569,N,11624.0177,E,2.07,79.71,180812,,,A*52
276,
$GPRMC,045553.000,A,3956.2567,N,11624.0186,E,2.15,102.82,180812,,,A*61
274,
$GPRMC,045554.000,A,3956.2564,N,11624.0194,E,2.02,100.05,180812,,,A*6D
274,
$GPRMC,045555.000,A,3956.2559,N,11624.0209,E,2.07,82.04,180812,,,A*5A
273,
$GPRMC,045556.000,A,3956.2550,N,11624.0222,E,2.32,83.54,180812,,,A*5B
273,
$GPRMC,045557.000,A,3956.2550,N,11624.0231,E,1.99,92.02,180812,,,A*59
273,
$GPRMC,045558.000,A,3956.2547,N,11624.0237,E,1.85,96.60,180812,,,A*5B
272,
$GPRMC,045559.000,A,3956.2552,N,11624.0244,E,2.24,72.34,180812,,,A*59
271,
$GPRMC,045600.000,A,3956.2564,N,11624.0246,E,2.00,80.62,180812,,,A*59
270,
$GPRMC,045601.000,A,3956.2580,N,11624.0250,E,2.40,59.37,180812,,,A*55
270,
$GPRMC,045602.000,A,3956.2583,N,11624.0258,E,2.01,73.68,180812,,,A*5A
269,
$GPRMC,045603.000,A,3956.2588,N,11624.0264,E,1.90,76.05,180812,,,A*5A
269,
$GPRMC,045604.000,A,3956.2594,N,11624.0271,E,1.97,81.06,180812,,,A*58
269,
$GPRMC,045605.000,A,3956.2599,N,11624.0277,E,1.80,80.59,180812,,,A*5F
268,
$GPRMC,045606.000,A,3956.2605,N,11624.0283,E,1.90,78.68,180812,,,A*55
268,
$GPRMC,045607.000,A,3956.2607,N,11624.0291,E,1.87,79.41,180812,,,A*59
268,
$GPRMC,045608.000,A,3956.2610,N,11624.0298,E,1.75,86.69,180812,,,A*5E
267,
$GPRMC,045609.000,A,3956.2613,N,11624.0304,E,1.89,88.86,180812,,,A*54
267,
$GPRMC,045610.000,A,3956.2614,N,11624.0311,E,1.81,83.94,180812,,,A*5F
267,
$GPRMC,045611.000,A,3956.2617,N,11624.0318,E,1.88,78.77,180812,,,A*54
267,
$GPRMC,045612.000,A,3956.2625,N,11624.0323,E,2.03,69.54,180812,,,A*5F
267,
$GPRMC,045613.000,A,3956.2634,N,11624.0329,E,2.39,57.64,180812,,,A*53
267,
$GPRMC,045614.000,A,3956.2640,N,11624.0336,E,2.22,62.38,180812,,,A*5C
266,
$GPRMC,045615.000,A,3956.2642,N,11624.0343,E,2.10,63.70,180812,,,A*51
265,
$GPRMC,045616.000,A,3956.2643,N,11624.0352,E,2.14,73.65,180812,,,A*52
265,
$GPRMC,045617.000,A,3956.2639,N,11624.0363,E,1.81,98.80,180812,,,A*5D
264,
$GPRMC,045618.000,A,3956.2630,N,11624.0374,E,3.17,124.27,180812,,,A*6B
265,
$GPRMC,045619.000,A,3956.2618,N,11624.0388,E,2.61,127.92,180812,,,A*6E
265,
$GPRMC,045620.000,A,3956.2615,N,11624.0399,E,2.44,113.48,180812,,,A*6E
264,
$GPRMC,045621.000,A,3956.2610,N,11624.0411,E,2.10,108.21,180812,,,A*69
262,
$GPRMC,045622.000,A,3956.2607,N,11624.0420,E,2.14,122.44,180812,,,A*61
262,
$GPRMC,045623.000,A,3956.2605,N,11624.0428,E,2.22,120.45,180812,,,A*6C
262,
$GPRMC,045624.000,A,3956.2605,N,11624.0436,E,2.18,111.17,180812,,,A*68
262,
$GPRMC,045625.000,A,3956.2606,N,11624.0443,E,2.04,101.49,180812,,,A*6F
261,
$GPRMC,045626.000,A,3956.2608,N,11624.0449,E,1.74,92.18,180812,,,A*53
261,
$GPRMC,045627.000,A,3956.2610,N,11624.0455,E,1.44,92.34,180812,,,A*5B
261,
$GPRMC,045628.000,A,3956.2611,N,11624.0458,E,1.03,93.96,180812,,,A*52
261,
$GPRMC,045629.000,A,3956.2613,N,11624.0460,E,0.88,79.64,180812,,,A*51
261,
$GPRMC,045630.000,A,3956.2611,N,11624.0465,E,0.73,20.06,180812,,,A*52
261,
$GPRMC,045631.000,A,3956.2606,N,11624.0469,E,1.03,139.37,180812,,,A*64
260,
$GPRMC,045632.000,A,3956.2603,N,11624.0472,E,0.73,127.71,180812,,,A*63
260,
$GPRMC,045633.000,A,3956.2602,N,11624.0476,E,0.98,120.49,180812,,,A*6E
260,
$GPRMC,045634.000,A,3956.2604,N,11624.0479,E,1.36,51.03,180812,,,A*5C
260,
$GPRMC,045635.000,A,3956.2608,N,11624.0482,E,1.19,61.17,180812,,,A*5E
260,
$GPRMC,045636.000,A,3956.2610,N,11624.0486,E,1.52,50.55,180812,,,A*5B
259,
$GPRMC,045637.000,A,3956.2613,N,11624.0489,E,1.45,44.87,180812,,,A*5A
259,
$GPRMC,045638.000,A,3956.2617,N,11624.0492,E,1.39,78.09,180812,,,A*59
258,
$GPRMC,045639.000,A,3956.2619,N,11624.0498,E,1.65,91.56,180812,,,A*58
258,
$GPRMC,045640.000,A,3956.2631,N,11624.0500,E,1.88,57.55,180812,,,A*56
257,
$GPRMC,045641.000,A,3956.2639,N,11624.0504,E,1.76,70.01,180812,,,A*5E
257,
$GPRMC,045642.000,A,3956.2645,N,11624.0508,E,1.55,82.08,180812,,,A*5F
257,
$GPRMC,045643.000,A,3956.2643,N,11624.0513,E,1.72,108.38,180812,,,A*67
257,
$GPRMC,045644.000,A,3956.2640,N,11624.0520,E,1.87,121.32,180812,,,A*68
257,
$GPRMC,045645.000,A,3956.2636,N,11624.0526,E,1.83,115.81,180812,,,A*65
257,
$GPRMC,045646.000,A,3956.2633,N,11624.0532,E,1.29,99.56,180812,,,A*59
256,
$GPRMC,045647.000,A,3956.2636,N,11624.0535,E,1.77,108.63,180812,,,A*6E
256,
$GPRMC,045648.000,A,3956.2640,N,11624.0538,E,1.38,81.68,180812,,,A*5D
257,
$GPRMC,045649.000,A,3956.2642,N,11624.0543,E,1.32,54.41,180812,,,A*5B
256,
$GPRMC,045650.000,A,3956.2644,N,11624.0547,E,1.25,67.10,180812,,,A*53
257,
$GPRMC,045651.000,A,3956.2644,N,11624.0553,E,1.70,83.12,180812,,,A*5F
256,
$GPRMC,045652.000,A,3956.2645,N,11624.0558,E,1.61,73.23,180812,,,A*5B
256,
$GPRMC,045653.000,A,3956.2650,N,11624.0562,E,1.61,44.66,180812,,,A*52
256,
$GPRMC,045654.000,A,3956.2654,N,11624.0567,E,1.70,52.87,180812,,,A*5C
256,
$GPRMC,045655.000,A,3956.2656,N,11624.0573,E,1.95,57.20,180812,,,A*59
255,
$GPRMC,045656.000,A,3956.2658,N,11624.0579,E,1.81,59.11,180812,,,A*57
255,
$GPRMC,045657.000,A,3956.2659,N,11624.0586,E,1.72,67.75,180812,,,A*54
255,
$GPRMC,045658.000,A,3956.2661,N,11624.0592,E,1.66,65.56,180812,,,A*53
255,
$GPRMC,045659.000,A,3956.2659,N,11624.0600,E,1.57,85.28,180812,,,A*54
254,
$GPRMC,045700.000,A,3956.2659,N,11624.0606,E,1.82,85.82,180812,,,A*57
254,
$GPRMC,045701.000,A,3956.2654,N,11624.0614,E,1.82,98.19,180812,,,A*56
254,
$GPRMC,045702.000,A,3956.2656,N,11624.0621,E,1.97,91.30,180812,,,A*57
254,
$GPRMC,045703.000,A,3956.2658,N,11624.0627,E,1.94,85.98,180812,,,A*5A
254,
$GPRMC,045704.000,A,3956.2664,N,11624.0631,E,1.69,78.72,180812,,,A*51
253,
$GPRMC,045705.000,A,3956.2672,N,11624.0635,E,1.55,72.25,180812,,,A*54
253,
$GPRMC,045706.000,A,3956.2679,N,11624.0639,E,1.70,66.94,180812,,,A*58
252,
$GPRMC,045707.000,A,3956.2693,N,11624.0640,E,1.88,51.63,180812,,,A*58
252,
$GPRMC,045708.000,A,3956.2685,N,11624.0651,E,1.61,77.05,180812,,,A*53
252,
$GPRMC,045709.000,A,3956.2690,N,11624.0655,E,1.85,62.91,180812,,,A*51
252,
$GPRMC,045710.000,A,3956.2697,N,11624.0658,E,1.46,59.41,180812,,,A*59
252,
$GPRMC,045711.000,A,3956.2719,N,11624.0656,E,1.74,41.52,180812,,,A*5B
252,
$GPRMC,045712.000,A,3956.2728,N,11624.0658,E,1.90,43.25,180812,,,A*5C
252,
$GPRMC,045713.000,A,3956.2720,N,11624.0667,E,1.31,65.70,180812,,,A*56
252,
$GPRMC,045714.000,A,3956.2724,N,11624.0672,E,1.63,69.26,180812,,,A*59
252,
$GPRMC,045715.000,A,3956.2735,N,11624.0674,E,1.47,62.25,180812,,,A*50
251,
$GPRMC,045716.000,A,3956.2742,N,11624.0678,E,1.58,62.82,180812,,,A*5C
251,
$GPRMC,045717.000,A,3956.2736,N,11624.0686,E,1.07,84.90,180812,,,A*5E
251,
$GPRMC,045718.000,A,3956.2735,N,11624.0691,E,1.58,80.94,180812,,,A*5E
251,
$GPRMC,045719.000,A,3956.2707,N,11624.0706,E,1.99,113.65,180812,,,A*69
251,
$GPRMC,045720.000,A,3956.2703,N,11624.0712,E,2.04,115.41,180812,,,A*65
250,
$GPRMC,045721.000,A,3956.2669,N,11624.0732,E,3.27,134.25,180812,,,A*6A
249,
$GPRMC,045722.000,A,3956.2668,N,11624.0741,E,3.34,127.94,180812,,,A*66
248,
$GPRMC,045723.000,A,3956.2661,N,11624.0752,E,3.75,134.44,180812,,,A*66
248,
$GPRMC,045724.000,A,3956.2694,N,11624.0743,E,2.35,111.77,180812,,,A*69
248,
$GPRMC,045725.000,A,3956.2701,N,11624.0747,E,2.01,122.33,180812,,,A*66
248,
$GPRMC,045726.000,A,3956.2704,N,11624.0749,E,1.88,120.30,180812,,,A*6D
247,
$GPRMC,045727.000,A,3956.2721,N,11624.0747,E,1.77,96.07,180812,,,A*5D
247,
$GPRMC,045728.000,A,3956.2713,N,11624.0756,E,2.08,121.56,180812,,,A*61
246,
$GPRMC,045729.000,A,3956.2703,N,11624.0765,E,2.71,127.02,180812,,,A*68
246,
$GPRMC,045730.000,A,3956.2669,N,11624.0785,E,3.38,136.07,180812,,,A*6A
246,
$GPRMC,045731.000,A,3956.2733,N,11624.0756,E,5.10,137.49,180812,,,A*6C
246,
$GPRMC,045732.000,A,3956.2771,N,11624.0747,E,2.76,117.90,180812,,,A*68
246,
$GPRMC,045733.000,A,3956.2748,N,11624.0768,E,1.42,102.10,180812,,,A*66
245,
$GPRMC,045734.000,A,3956.2711,N,11624.0791,E,1.00,108.86,180812,,,A*68
245,
$GPRMC,045735.000,A,3956.2695,N,11624.0806,E,2.68,118.77,180812,,,A*67
246,
$GPRMC,045736.000,A,3956.2694,N,11624.0816,E,2.67,110.32,180812,,,A*62
246,
$GPRMC,045737.000,A,3956.2693,N,11624.0827,E,2.63,108.51,180812,,,A*6E
246,
$GPRMC,045738.000,A,3956.2692,N,11624.0838,E,2.46,108.14,180812,,,A*68
246,
$GPRMC,045739.000,A,3956.2690,N,11624.0849,E,2.55,112.36,180812,,,A*64
248,
$GPRMC,045740.000,A,3956.2689,N,11624.0858,E,2.47,113.99,180812,,,A*65
248,
$GPRMC,045741.000,A,3956.2696,N,11624.0864,E,2.18,99.03,180812,,,A*5F
247,
$GPRMC,045742.000,A,3956.2700,N,11624.0872,E,2.08,94.47,180812,,,A*59
246,
$GPRMC,045743.000,A,3956.2699,N,11624.0882,E,2.32,98.89,180812,,,A*51
245,
$GPRMC,045744.000,A,3956.2700,N,11624.0891,E,2.26,99.52,180812,,,A*57
245,
$GPRMC,045745.000,A,3956.2701,N,11624.0900,E,2.19,98.76,180812,,,A*55
244,
$GPRMC,045746.000,A,3956.2704,N,11624.0908,E,2.31,94.34,180812,,,A*5B
244,
$GPRMC,045747.000,A,3956.2708,N,11624.0916,E,2.11,92.43,180812,,,A*5D
244,
$GPRMC,045748.000,A,3956.2713,N,11624.0923,E,2.18,86.95,180812,,,A*59
243,
$GPRMC,045749.000,A,3956.2715,N,11624.0931,E,2.10,89.14,180812,,,A*53
243,
$GPRMC,045750.000,A,3956.2721,N,11624.0937,E,1.68,90.84,180812,,,A*57
242,
$GPRMC,045751.000,A,3956.2719,N,11624.0946,E,2.05,93.24,180812,,,A*5A
243,
$GPRMC,045752.000,A,3956.2710,N,11624.0957,E,2.35,102.02,180812,,,A*6E
243,
$GPRMC,045753.000,A,3956.2712,N,11624.0962,E,1.42,95.85,180812,,,A*58
243,
$GPRMC,045754.000,A,3956.2723,N,11624.0964,E,1.72,89.79,180812,,,A*56
243,
$GPRMC,045755.000,A,3956.2728,N,11624.0970,E,2.16,74.93,180812,,,A*5E
243,
$GPRMC,045756.000,A,3956.2715,N,11624.0981,E,1.54,117.80,180812,,,A*6E
243,
$GPRMC,045757.000,A,3956.2724,N,11624.0983,E,2.04,94.00,180812,,,A*5B
243,
$GPRMC,045758.000,A,3956.2725,N,11624.0990,E,2.00,91.91,180812,,,A*5E
243,
$GPRMC,045759.000,A,3956.2669,N,11624.1027,E,1.71,57.49,180812,,,A*58
243,
$GPRMC,045800.000,A,3956.2643,N,11624.1047,E,1.76,63.91,180812,,,A*50
243,
$GPRMC,045801.000,A,3956.2649,N,11624.1051,E,1.98,71.01,180812,,,A*56
243,
$GPRMC,045802.000,A,3956.2639,N,11624.1065,E,2.01,54.89,180812,,,A*51
243,
$GPRMC,045803.000,A,3956.2641,N,11624.1071,E,2.35,20.03,180812,,,A*5C
243,
$GPRMC,045804.000,A,3956.2642,N,11624.1076,E,1.75,34.76,180812,,,A*5F
243,
$GPRMC,045805.000,A,3956.2659,N,11624.1074,E,1.85,69.08,180812,,,A*58
243,
$GPRMC,045806.000,A,3956.2667,N,11624.1075,E,1.79,44.83,180812,,,A*58
243,
$GPRMC,045807.000,A,3956.2667,N,11624.1082,E,1.89,74.51,180812,,,A*52
243,
$GPRMC,045808.000,A,3956.2672,N,11624.1086,E,2.01,82.24,180812,,,A*55
243,
$GPRMC,045809.000,A,3956.2678,N,11624.1092,E,2.07,46.59,180812,,,A*5F
242,
$GPRMC,045810.000,A,3956.2681,N,11624.1099,E,1.97,52.37,180812,,,A*5D
242,
$GPRMC,045811.000,A,3956.2687,N,11624.1104,E,2.18,80.01,180812,,,A*51
242,
$GPRMC,045812.000,A,3956.2689,N,11624.1111,E,1.99,67.96,180812,,,A*55
242,
$GPRMC,045813.000,A,3956.2693,N,11624.1117,E,2.44,96.36,180812,,,A*5E
242,
$GPRMC,045814.000,A,3956.2693,N,11624.1126,E,2.26,103.64,180812,,,A*65
241,
$GPRMC,045815.000,A,3956.2693,N,11624.1133,E,2.11,102.24,180812,,,A*61
241,
$GPRMC,045816.000,A,3956.2694,N,11624.1140,E,1.44,70.27,180812,,,A*55
241,
$GPRMC,045817.000,A,3956.2694,N,11624.1144,E,1.68,52.51,180812,,,A*5F
242,
$GPRMC,045818.000,A,3956.2693,N,11624.1151,E,1.55,66.50,180812,,,A*5B
241,
$GPRMC,045819.000,A,3956.2690,N,11624.1160,E,2.28,97.45,180812,,,A*58
242,
$GPRMC,045820.000,A,3956.2691,N,11624.1165,E,1.90,87.19,180812,,,A*5E
242,
$GPRMC,045821.000,A,3956.2692,N,11624.1172,E,1.80,93.93,180812,,,A*5C
241,
$GPRMC,045822.000,A,3956.2689,N,11624.1181,E,1.74,105.52,180812,,,A*61
242,
$GPRMC,045823.000,A,3956.2681,N,11624.1190,E,3.81,133.69,180812,,,A*6D
241,
$GPRMC,045824.000,A,3956.2678,N,11624.1198,E,2.31,120.77,180812,,,A*63
242,
$GPRMC,045825.000,A,3956.2679,N,11624.1203,E,1.79,87.95,180812,,,A*5D
242,
$GPRMC,045826.000,A,3956.2679,N,11624.1209,E,1.94,97.65,180812,,,A*59
241,
$GPRMC,045827.000,A,3956.2678,N,11624.1217,E,2.27,114.55,180812,,,A*64
241,
$GPRMC,045828.000,A,3956.2680,N,11624.1221,E,1.63,101.91,180812,,,A*66
241,
$GPRMC,045829.000,A,3956.2678,N,11624.1228,E,1.27,99.06,180812,,,A*57
241,
$GPRMC,045830.000,A,3956.2676,N,11624.1234,E,1.62,102.11,180812,,,A*68
241,
$GPRMC,045831.000,A,3956.2673,N,11624.1242,E,1.83,110.92,180812,,,A*6A
241,
$GPRMC,045832.000,A,3956.2671,N,11624.1252,E,1.70,100.92,180812,,,A*67
240,
$GPRMC,045833.000,A,3956.2673,N,11624.1256,E,1.46,108.43,180812,,,A*61
240,
$GPRMC,045834.000,A,3956.2675,N,11624.1260,E,1.72,103.87,180812,,,A*61
240,
$GPRMC,045835.000,A,3956.2672,N,11624.1269,E,1.73,106.03,180812,,,A*66
240,
$GPRMC,045836.000,A,3956.2677,N,11624.1273,E,2.04,33.74,180812,,,A*5F
240,
$GPRMC,045837.000,A,3956.2685,N,11624.1277,E,2.19,25.80,180812,,,A*57
239,
$GPRMC,045838.000,A,3956.2695,N,11624.1280,E,2.74,8.67,180812,,,A*6C
239,
$GPRMC,045839.000,A,3956.2705,N,11624.1284,E,2.59,24.36,180812,,,A*54
238,
$GPRMC,045840.000,A,3956.2707,N,11624.1289,E,1.65,78.91,180812,,,A*5D
238,
$GPRMC,045841.000,A,3956.2709,N,11624.1294,E,1.26,72.88,180812,,,A*5B
238,
$GPRMC,045842.000,A,3956.2717,N,11624.1298,E,2.30,34.12,180812,,,A*5E
237,
$GPRMC,045843.000,A,3956.2720,N,11624.1308,E,2.57,58.42,180812,,,A*5D
234,
$GPRMC,045844.000,A,3956.2725,N,11624.1320,E,4.02,67.24,180812,,,A*5F
233,
$GPRMC,045845.000,A,3956.2729,N,11624.1335,E,4.07,85.69,180812,,,A*56
233,
$GPRMC,045846.000,A,3956.2731,N,11624.1348,E,2.71,74.53,180812,,,A*56
234,
$GPRMC,045847.000,A,3956.2730,N,11624.1358,E,2.08,78.74,180812,,,A*50
235,
$GPRMC,045848.000,A,3956.2730,N,11624.1366,E,1.62,32.24,180812,,,A*56
235,
$GPRMC,045849.000,A,3956.2732,N,11624.1370,E,0.86,62.26,180812,,,A*5E
236,
$GPRMC,045850.000,A,3956.2732,N,11624.1374,E,0.59,99.77,180812,,,A*50
236,
$GPRMC,045851.000,A,3956.2730,N,11624.1377,E,0.39,100.50,180812,,,A*62
236,
$GPRMC,045852.000,A,3956.2726,N,11624.1381,E,0.87,134.06,180812,,,A*6E
236,
$GPRMC,045853.000,A,3956.2726,N,11624.1384,E,0.81,136.77,180812,,,A*68
238,
$GPRMC,045854.000,A,3956.2723,N,11624.1394,E,1.54,142.24,180812,,,A*67
238,
$GPRMC,045855.000,A,3956.2716,N,11624.1399,E,3.26,152.76,180812,,,A*6C
238,
$GPRMC,045856.000,A,3956.2711,N,11624.1397,E,0.36,113.56,180812,,,A*63
239,
$GPRMC,045857.000,A,3956.2710,N,11624.1397,E,1.11,43.17,180812,,,A*56
239,
$GPRMC,045858.000,A,3956.2708,N,11624.1401,E,1.60,77.24,180812,,,A*59
240,
$GPRMC,045859.000,A,3956.2707,N,11624.1408,E,2.23,69.06,180812,,,A*55
239,
$GPRMC,045900.000,A,3956.2706,N,11624.1415,E,2.37,71.46,180812,,,A*5D
237,
$GPRMC,045901.000,A,3956.2705,N,11624.1424,E,1.86,74.36,180812,,,A*56
235,
$GPRMC,045902.000,A,3956.2704,N,11624.1432,E,2.00,78.09,180812,,,A*5E
234,
$GPRMC,045903.000,A,3956.2706,N,11624.1438,E,1.80,57.82,180812,,,A*52
233,
$GPRMC,045904.000,A,3956.2707,N,11624.1443,E,1.43,45.92,180812,,,A*55
234,
$GPRMC,045905.000,A,3956.2711,N,11624.1452,E,1.64,85.60,180812,,,A*57
234,
$GPRMC,045906.000,A,3956.2713,N,11624.1458,E,1.64,83.58,180812,,,A*51
233,
$GPRMC,045907.000,A,3956.2721,N,11624.1464,E,2.03,93.00,180812,,,A*50
232,
$GPRMC,045908.000,A,3956.2729,N,11624.1472,E,2.60,74.89,180812,,,A*5D
229,
$GPRMC,045909.000,A,3956.2729,N,11624.1481,E,2.25,82.21,180812,,,A*5A
229,
$GPRMC,045910.000,A,3956.2728,N,11624.1490,E,1.53,80.33,180812,,,A*50
228,
$GPRMC,045911.000,A,3956.2724,N,11624.1501,E,2.23,90.34,180812,,,A*56
226,
$GPRMC,045912.000,A,3956.2720,N,11624.1514,E,2.49,85.09,180812,,,A*53
225,
$GPRMC,045913.000,A,3956.2716,N,11624.1526,E,2.53,97.14,180812,,,A*52
227,
$GPRMC,045914.000,A,3956.2712,N,11624.1539,E,2.51,90.73,180812,,,A*5B
226,
$GPRMC,045915.000,A,3956.2709,N,11624.1551,E,2.19,95.28,180812,,,A*59
224,
$GPRMC,045916.000,A,3956.2708,N,11624.1562,E,2.35,89.21,180812,,,A*51
225,
$GPRMC,045917.000,A,3956.2707,N,11624.1574,E,2.55,91.80,180812,,,A*5C
226,
$GPRMC,045918.000,A,3956.2704,N,11624.1585,E,2.64,99.34,180812,,,A*5B
226,
$GPRMC,045919.000,A,3956.2703,N,11624.1595,E,2.59,94.98,180812,,,A*59
226,
$GPRMC,045920.000,A,3956.2701,N,11624.1605,E,2.42,91.27,180812,,,A*50
227,
$GPRMC,045921.000,A,3956.2698,N,11624.1617,E,3.07,97.14,180812,,,A*55
229,
$GPRMC,045922.000,A,3956.2695,N,11624.1629,E,2.34,94.65,180812,,,A*52
230,
$GPRMC,045923.000,A,3956.2693,N,11624.1639,E,2.16,96.81,180812,,,A*5C
230,
$GPRMC,045924.000,A,3956.2690,N,11624.1647,E,2.33,96.59,180812,,,A*53
229,
$GPRMC,045925.000,A,3956.2687,N,11624.1656,E,3.48,95.99,180812,,,A*56
228,
$GPRMC,045926.000,A,3956.2686,N,11624.1664,E,2.13,90.04,180812,,,A*5B
228,
$GPRMC,045927.000,A,3956.2683,N,11624.1668,E,2.23,98.92,180812,,,A*57
227,
$GPRMC,045928.000,A,3956.2683,N,11624.1675,E,2.27,88.89,180812,,,A*5B
228,
$GPRMC,045929.000,A,3956.2684,N,11624.1683,E,2.38,89.47,180812,,,A*59
228,
$GPRMC,045930.000,A,3956.2685,N,11624.1690,E,2.63,89.61,180812,,,A*58
230,
$GPRMC,045931.000,A,3956.2687,N,11624.1699,E,2.60,88.38,180812,,,A*5C
230,
$GPRMC,045932.000,A,3956.2688,N,11624.1706,E,2.93,87.33,180812,,,A*5F
229,
$GPRMC,045933.000,A,3956.2688,N,11624.1711,E,2.26,76.19,180812,,,A*50
231,
$GPRMC,045934.000,A,3956.2690,N,11624.1717,E,2.09,84.11,180812,,,A*50
231,
$GPRMC,045935.000,A,3956.2693,N,11624.1721,E,1.98,84.79,180812,,,A*52
232,
$GPRMC,045936.000,A,3956.2694,N,11624.1728,E,2.05,85.83,180812,,,A*5C
233,
$GPRMC,045937.000,A,3956.2695,N,11624.1734,E,2.16,88.16,180812,,,A*52
236,
$GPRMC,045938.000,A,3956.2698,N,11624.1740,E,1.70,95.32,180812,,,A*5A
237,
$GPRMC,045939.000,A,3956.2701,N,11624.1741,E,1.10,86.96,180812,,,A*51
236,
$GPRMC,045940.000,A,3956.2704,N,11624.1743,E,1.77,90.32,180812,,,A*50
235,
$GPRMC,045941.000,A,3956.2707,N,11624.1747,E,1.91,87.98,180812,,,A*58
234,
$GPRMC,045942.000,A,3956.2709,N,11624.1751,E,1.62,93.11,180812,,,A*5A
233,
$GPRMC,045943.000,A,3956.2712,N,11624.1758,E,1.91,72.79,180812,,,A*55
233,
$GPRMC,045944.000,A,3956.2715,N,11624.1764,E,1.86,79.56,180812,,,A*5A
233,
$GPRMC,045945.000,A,3956.2714,N,11624.1772,E,1.33,73.39,180812,,,A*50
232,
$GPRMC,045946.000,A,3956.2714,N,11624.1779,E,1.64,80.90,180812,,,A*55
232,
$GPRMC,045947.000,A,3956.2713,N,11624.1786,E,1.65,93.22,180812,,,A*59
232,
$GPRMC,045948.000,A,3956.2713,N,11624.1793,E,1.80,82.44,180812,,,A*59
232,
$GPRMC,045949.000,A,3956.2713,N,11624.1802,E,1.15,90.21,180812,,,A*53
232,
$GPRMC,045950.000,A,3956.2716,N,11624.1806,E,1.69,79.14,180812,,,A*50
233,
$GPRMC,045951.000,A,3956.2718,N,11624.1811,E,1.66,70.86,180812,,,A*54
231,
$GPRMC,045952.000,A,3956.2720,N,11624.1817,E,1.49,85.42,180812,,,A*55
231,
$GPRMC,045953.000,A,3956.2719,N,11624.1825,E,1.98,112.90,180812,,,A*63
232,
$GPRMC,045954.000,A,3956.2718,N,11624.1834,E,2.19,78.31,180812,,,A*59
233,
$GPRMC,045955.000,A,3956.2720,N,11624.1842,E,2.73,58.44,180812,,,A*5E
234,
$GPRMC,045956.000,A,3956.2722,N,11624.1852,E,2.25,78.11,180812,,,A*5F
234,
$GPRMC,045957.000,A,3956.2722,N,11624.1861,E,2.00,91.80,180812,,,A*56
235,
$GPRMC,045958.000,A,3956.2721,N,11624.1867,E,1.88,93.21,180812,,,A*56
235,
$GPRMC,045959.000,A,3956.2721,N,11624.1874,E,1.96,87.60,180812,,,A*5A
233,
$GPRMC,050000.000,A,3956.2720,N,11624.1883,E,1.91,95.63,180812,,,A*55
234,
$GPRMC,050001.000,A,3956.2721,N,11624.1889,E,2.63,115.33,180812,,,A*6D
233,
$GPRMC,050002.000,A,3956.2725,N,11624.1890,E,2.30,82.96,180812,,,A*54
233,
$GPRMC,050003.000,A,3956.2727,N,11624.1899,E,1.64,74.65,180812,,,A*59
232,
$GPRMC,050004.000,A,3956.2732,N,11624.1897,E,0.65,16.54,180812,,,A*52
231,
$GPRMC,050005.000,A,3956.2735,N,11624.1900,E,1.51,84.49,180812,,,A*5A
231,
$GPRMC,050006.000,A,3956.2737,N,11624.1908,E,1.70,72.51,180812,,,A*50
231,
$GPRMC,050007.000,A,3956.2739,N,11624.1915,E,1.60,71.02,180812,,,A*57
231,
$GPRMC,050008.000,A,3956.2738,N,11624.1924,E,1.98,70.18,180812,,,A*56
231,
$GPRMC,050009.000,A,3956.2742,N,11624.1930,E,1.96,54.01,180812,,,A*5F
231,
$GPRMC,050010.000,A,3956.2745,N,11624.1937,E,1.77,68.64,180812,,,A*54
232,
$GPRMC,050011.000,A,3956.2743,N,11624.1946,E,1.94,94.95,180812,,,A*55
232,
$GPRMC,050012.000,A,3956.2744,N,11624.1955,E,2.24,89.37,180812,,,A*5F
232,
$GPRMC,050013.000,A,3956.2744,N,11624.1968,E,2.17,95.43,180812,,,A*5E
232,
$GPRMC,050014.000,A,3956.2742,N,11624.1982,E,2.40,90.92,180812,,,A*50
232,
$GPRMC,050015.000,A,3956.2742,N,11624.1991,E,2.02,90.99,180812,,,A*5E
232,
$GPRMC,050016.000,A,3956.2740,N,11624.2002,E,2.00,93.15,180812,,,A*5A
232,
$GPRMC,050017.000,A,3956.2739,N,11624.2011,E,1.99,84.52,180812,,,A*51
232,
$GPRMC,050018.000,A,3956.2736,N,11624.2022,E,2.14,98.70,180812,,,A*5A
232,
$GPRMC,050019.000,A,3956.2733,N,11624.2034,E,2.18,96.01,180812,,,A*5D
232,
$GPRMC,050020.000,A,3956.2729,N,11624.2046,E,2.42,99.29,180812,,,A*53
232,
$GPRMC,050021.000,A,3956.2726,N,11624.2060,E,2.48,100.15,180812,,,A*6D
232,
$GPRMC,050022.000,A,3956.2721,N,11624.2073,E,2.09,95.46,180812,,,A*55
233,
$GPRMC,050023.000,A,3956.2718,N,11624.2087,E,2.64,96.26,180812,,,A*5B
232,
$GPRMC,050024.000,A,3956.2716,N,11624.2098,E,2.65,87.09,180812,,,A*50
232,
$GPRMC,050025.000,A,3956.2714,N,11624.2109,E,2.67,96.80,180812,,,A*59
232,
$GPRMC,050026.000,A,3956.2711,N,11624.2122,E,2.40,98.73,180812,,,A*51
231,
$GPRMC,050027.000,A,3956.2708,N,11624.2134,E,2.61,89.40,180812,,,A*5C
231,
$GPRMC,050028.000,A,3956.2707,N,11624.2146,E,2.66,96.69,180812,,,A*5B
231,
$GPRMC,050029.000,A,3956.2702,N,11624.2160,E,2.75,100.35,180812,,,A*6E
230,
$GPRMC,050030.000,A,3956.2702,N,11624.2169,E,2.70,91.98,180812,,,A*54
229,
$GPRMC,050031.000,A,3956.2703,N,11624.2178,E,2.67,94.24,180812,,,A*50
229,
$GPRMC,050032.000,A,3956.2704,N,11624.2187,E,2.83,89.47,180812,,,A*57
229,
$GPRMC,050033.000,A,3956.2705,N,11624.2196,E,2.83,91.57,180812,,,A*5F
229,
$GPRMC,050034.000,A,3956.2707,N,11624.2202,E,2.68,91.01,180812,,,A*52
228,
$GPRMC,050035.000,A,3956.2708,N,11624.2209,E,2.45,83.55,180812,,,A*5A
227,
$GPRMC,050036.000,A,3956.2710,N,11624.2216,E,2.31,92.21,180812,,,A*5E
227,
$GPRMC,050037.000,A,3956.2710,N,11624.2223,E,2.43,87.97,180812,,,A*55
227,
$GPRMC,050038.000,A,3956.2712,N,11624.2228,E,2.23,87.95,180812,,,A*57
227,
$GPRMC,050039.000,A,3956.2714,N,11624.2234,E,2.47,86.96,180812,,,A*5D
227,
$GPRMC,050040.000,A,3956.2714,N,11624.2242,E,2.36,90.21,180812,,,A*5F
228,
$GPRMC,050041.000,A,3956.2715,N,11624.2248,E,2.30,89.99,180812,,,A*58
228,
$GPRMC,050042.000,A,3956.2716,N,11624.2254,E,2.20,82.81,180812,,,A*56
228,
$GPRMC,050043.000,A,3956.2717,N,11624.2260,E,2.13,87.52,180812,,,A*5A
228,
$GPRMC,050044.000,A,3956.2716,N,11624.2267,E,2.20,90.22,180812,,,A*5A
228,
$GPRMC,050045.000,A,3956.2716,N,11624.2273,E,2.12,92.43,180812,,,A*5A
228,
$GPRMC,050046.000,A,3956.2716,N,11624.2279,E,2.11,93.10,180812,,,A*57
228,
$GPRMC,050047.000,A,3956.2717,N,11624.2285,E,1.98,87.82,180812,,,A*58
228,
$GPRMC,050048.000,A,3956.2718,N,11624.2292,E,2.12,89.21,180812,,,A*58
228,
$GPRMC,050049.000,A,3956.2718,N,11624.2299,E,2.10,90.86,180812,,,A*55
228,
$GPRMC,050050.000,A,3956.2720,N,11624.2305,E,1.88,76.11,180812,,,A*56
228,
$GPRMC,050051.000,A,3956.2721,N,11624.2310,E,1.74,88.21,180812,,,A*53
228,
$GPRMC,050052.000,A,3956.2721,N,11624.2314,E,1.10,116.23,180812,,,A*62
228,
$GPRMC,050053.000,A,3956.2718,N,11624.2320,E,1.44,121.59,180812,,,A*66
228,
$GPRMC,050054.000,A,3956.2716,N,11624.2326,E,1.42,100.90,180812,,,A*69
229,
$GPRMC,050055.000,A,3956.2717,N,11624.2331,E,1.59,86.98,180812,,,A*52
229,
$GPRMC,050056.000,A,3956.2718,N,11624.2339,E,1.66,88.27,180812,,,A*50
228,
$GPRMC,050057.000,A,3956.2718,N,11624.2347,E,2.13,80.54,180812,,,A*55
227,
$GPRMC,050058.000,A,3956.2718,N,11624.2357,E,2.61,77.85,180812,,,A*5A
226,
$GPRMC,050059.000,A,3956.2720,N,11624.2367,E,2.95,77.14,180812,,,A*50
226,
$GPRMC,050100.000,A,3956.2720,N,11624.2377,E,2.64,81.13,180812,,,A*5C
226,
$GPRMC,050101.000,A,3956.2721,N,11624.2388,E,2.68,82.72,180812,,,A*54
227,
$GPRMC,050102.000,A,3956.2721,N,11624.2397,E,2.50,83.57,180812,,,A*54
227,
$GPRMC,050103.000,A,3956.2722,N,11624.2405,E,2.22,79.72,180812,,,A*5D
226,
$GPRMC,050104.000,A,3956.2722,N,11624.2414,E,2.51,87.07,180812,,,A*5D
225,
$GPRMC,050105.000,A,3956.2723,N,11624.2419,E,2.02,87.73,180812,,,A*55
224,
$GPRMC,050106.000,A,3956.2722,N,11624.2428,E,2.23,85.82,180812,,,A*5A
224,
$GPRMC,050107.000,A,3956.2723,N,11624.2436,E,2.13,81.93,180812,,,A*52
224,
$GPRMC,050108.000,A,3956.2722,N,11624.2446,E,1.95,83.69,180812,,,A*51
225,
$GPRMC,050109.000,A,3956.2723,N,11624.2453,E,2.16,83.28,180812,,,A*58
225,
$GPRMC,050110.000,A,3956.2723,N,11624.2461,E,1.92,86.73,180812,,,A*55
226,
$GPRMC,050111.000,A,3956.2723,N,11624.2469,E,2.21,87.86,180812,,,A*5C
227,
$GPRMC,050112.000,A,3956.2723,N,11624.2477,E,2.27,86.69,180812,,,A*56
226,
$GPRMC,050113.000,A,3956.2723,N,11624.2485,E,1.88,92.73,180812,,,A*52
226,
$GPRMC,050114.000,A,3956.2722,N,11624.2493,E,1.93,85.67,180812,,,A*5A
226,
$GPRMC,050115.000,A,3956.2723,N,11624.2500,E,2.08,83.13,180812,,,A*55
226,
$GPRMC,050116.000,A,3956.2724,N,11624.2508,E,2.30,88.13,180812,,,A*59
226,
$GPRMC,050117.000,A,3956.2724,N,11624.2515,E,1.97,88.11,180812,,,A*58
226,
$GPRMC,050118.000,A,3956.2723,N,11624.2523,E,2.04,86.21,180812,,,A*51
226,
$GPRMC,050119.000,A,3956.2726,N,11624.2528,E,1.70,69.19,180812,,,A*54
226,
$GPRMC,050120.000,A,3956.2729,N,11624.2533,E,1.79,78.26,180812,,,A*5E
225,
$GPRMC,050121.000,A,3956.2730,N,11624.2540,E,2.10,85.66,180812,,,A*59
225,
$GPRMC,050122.000,A,3956.2730,N,11624.2549,E,1.83,72.17,180812,,,A*54
225,
$GPRMC,050123.000,A,3956.2731,N,11624.2557,E,2.11,80.96,180812,,,A*57
225,
$GPRMC,050124.000,A,3956.2731,N,11624.2565,E,1.75,92.75,180812,,,A*5E
225,
$GPRMC,050125.000,A,3956.2731,N,11624.2572,E,1.71,83.99,180812,,,A*5F
225,
$GPRMC,050126.000,A,3956.2730,N,11624.2583,E,1.71,82.71,180812,,,A*54
225,
$GPRMC,050127.000,A,3956.2730,N,11624.2592,E,1.91,76.66,180812,,,A*56
224,
$GPRMC,050128.000,A,3956.2730,N,11624.2598,E,1.88,82.45,180812,,,A*51
224,
$GPRMC,050129.000,A,3956.2730,N,11624.2604,E,1.53,95.34,180812,,,A*50
224,
$GPRMC,050130.000,A,3956.2728,N,11624.2607,E,0.93,106.23,180812,,,A*62
225,
$GPRMC,050131.000,A,3956.2726,N,11624.2610,E,1.00,137.43,180812,,,A*64
225,
$GPRMC,050132.000,A,3956.2726,N,11624.2611,E,0.53,0.35,180812,,,A*65
225,
$GPRMC,050133.000,A,3956.2725,N,11624.2610,E,0.04,23.86,180812,,,A*5D
225,
$GPRMC,050134.000,A,3956.2725,N,11624.2610,E,0.11,41.56,180812,,,A*57
225,
$GPRMC,050135.000,A,3956.2724,N,11624.2610,E,0.07,19.28,180812,,,A*54
226,
$GPRMC,050136.000,A,3956.2724,N,11624.2610,E,0.08,7.69,180812,,,A*62
226,
$GPRMC,050137.000,A,3956.2724,N,11624.2610,E,0.11,25.07,180812,,,A*53
226,
$GPRMC,050138.000,A,3956.2724,N,11624.2610,E,0.02,348.93,180812,,,A*6B
226,
$GPRMC,050139.000,A,3956.2723,N,11624.2609,E,0.07,149.54,180812,,,A*68
225,
$GPRMC,050140.000,A,3956.2723,N,11624.2611,E,1.00,76.29,180812,,,A*5E
224,
$GPRMC,050141.000,A,3956.2724,N,11624.2616,E,1.91,79.72,180812,,,A*56
224,
$GPRMC,050142.000,A,3956.2724,N,11624.2623,E,1.98,83.12,180812,,,A*59
223,
$GPRMC,050143.000,A,3956.2725,N,11624.2630,E,1.86,80.43,180812,,,A*53
223,
$GPRMC,050144.000,A,3956.2725,N,11624.2636,E,1.91,84.83,180812,,,A*5C
223,
$GPRMC,050145.000,A,3956.2726,N,11624.2643,E,1.69,77.74,180812,,,A*5F
222,
$GPRMC,050146.000,A,3956.2726,N,11624.2648,E,1.70,87.87,180812,,,A*5C
222,
$GPRMC,050147.000,A,3956.2725,N,11624.2654,E,1.69,85.47,180812,,,A*55
221,
$GPRMC,050148.000,A,3956.2725,N,11624.2660,E,1.78,86.93,180812,,,A*57
221,
$GPRMC,050149.000,A,3956.2725,N,11624.2668,E,1.68,83.44,180812,,,A*50
220,
$GPRMC,050150.000,A,3956.2724,N,11624.2675,E,1.72,84.18,180812,,,A*50
220,
$GPRMC,050151.000,A,3956.2724,N,11624.2683,E,1.91,86.93,180812,,,A*54
220,
$GPRMC,050152.000,A,3956.2723,N,11624.2691,E,1.90,83.38,180812,,,A*56
220,
$GPRMC,050153.000,A,3956.2723,N,11624.2699,E,1.71,81.31,180812,,,A*5B
221,
$GPRMC,050154.000,A,3956.2724,N,11624.2706,E,1.66,77.69,180812,,,A*5E
221,
$GPRMC,050155.000,A,3956.2724,N,11624.2712,E,1.70,83.52,180812,,,A*5E
221,
$GPRMC,050156.000,A,3956.2725,N,11624.2718,E,1.74,84.52,180812,,,A*55
220,
$GPRMC,050157.000,A,3956.2725,N,11624.2725,E,1.83,86.14,180812,,,A*52
220,
$GPRMC,050158.000,A,3956.2724,N,11624.2734,E,1.83,83.42,180812,,,A*5A
219,
$GPRMC,050159.000,A,3956.2724,N,11624.2741,E,1.84,84.70,180812,,,A*58
219,
$GPRMC,050200.000,A,3956.2725,N,11624.2749,E,1.83,83.32,180812,,,A*58
218,
$GPRMC,050201.000,A,3956.2725,N,11624.2756,E,1.87,88.45,180812,,,A*58
218,
$GPRMC,050202.000,A,3956.2725,N,11624.2762,E,1.89,83.39,180812,,,A*52
218,
$GPRMC,050203.000,A,3956.2726,N,11624.2770,E,1.87,80.22,180812,,,A*54
218,
$GPRMC,050204.000,A,3956.2726,N,11624.2777,E,1.77,81.82,180812,,,A*50
218,
$GPRMC,050205.000,A,3956.2727,N,11624.2783,E,1.74,82.07,180812,,,A*56
218,
$GPRMC,050206.000,A,3956.2727,N,11624.2792,E,1.71,81.28,180812,,,A*5E
218,
$GPRMC,050207.000,A,3956.2726,N,11624.2800,E,1.80,86.27,180812,,,A*5C
218,
$GPRMC,050208.000,A,3956.2727,N,11624.2807,E,2.06,82.41,180812,,,A*5C
218,
$GPRMC,050209.000,A,3956.2727,N,11624.2816,E,1.97,79.57,180812,,,A*55
218,
$GPRMC,050210.000,A,3956.2727,N,11624.2825,E,1.96,80.45,180812,,,A*59
218,
$GPRMC,050211.000,A,3956.2728,N,11624.2832,E,1.87,80.41,180812,,,A*55
218,
$GPRMC,050212.000,A,3956.2729,N,11624.2839,E,1.84,80.66,180812,,,A*5A
219,
$GPRMC,050213.000,A,3956.2729,N,11624.2847,E,1.72,82.82,180812,,,A*53
220,
$GPRMC,050214.000,A,3956.2728,N,11624.2855,E,1.52,85.40,180812,,,A*5D
220,
$GPRMC,050215.000,A,3956.2728,N,11624.2862,E,1.34,91.86,180812,,,A*57
220,
$GPRMC,050216.000,A,3956.2727,N,11624.2868,E,1.24,88.72,180812,,,A*53
220,
$GPRMC,050217.000,A,3956.2727,N,11624.2874,E,1.40,89.47,180812,,,A*5A
220,
$GPRMC,050218.000,A,3956.2726,N,11624.2881,E,1.82,98.84,180812,,,A*5F
220,
$GPRMC,050219.000,A,3956.2725,N,11624.2888,E,1.83,92.96,180812,,,A*5C
220,
$GPRMC,050220.000,A,3956.2724,N,11624.2898,E,2.10,85.87,180812,,,A*59
221,
$GPRMC,050221.000,A,3956.2725,N,11624.2905,E,1.91,77.80,180812,,,A*5C
220,
$GPRMC,050222.000,A,3956.2726,N,11624.2912,E,1.89,74.01,180812,,,A*59
220,
$GPRMC,050223.000,A,3956.2727,N,11624.2919,E,1.86,78.50,180812,,,A*55
220,
$GPRMC,050224.000,A,3956.2727,N,11624.2926,E,1.79,86.50,180812,,,A*5F
220,
$GPRMC,050225.000,A,3956.2728,N,11624.2933,E,1.85,78.54,180812,,,A*53
220,
$GPRMC,050226.000,A,3956.2728,N,11624.2940,E,1.89,78.88,180812,,,A*59
220,
$GPRMC,050227.000,A,3956.2729,N,11624.2947,E,1.93,86.67,180812,,,A*55
219,
$GPRMC,050228.000,A,3956.2729,N,11624.2953,E,1.80,85.41,180812,,,A*5A
218,
$GPRMC,050229.000,A,3956.2729,N,11624.2961,E,1.82,81.42,180812,,,A*5F
216,
$GPRMC,050230.000,A,3956.2730,N,11624.2969,E,1.95,83.55,180812,,,A*55
216,
$GPRMC,050231.000,A,3956.2730,N,11624.2976,E,1.98,87.98,180812,,,A*52
216,
$GPRMC,050232.000,A,3956.2729,N,11624.2984,E,2.04,88.90,180812,,,A*55
215,
$GPRMC,050233.000,A,3956.2730,N,11624.2991,E,1.91,82.95,180812,,,A*58
216,
$GPRMC,050234.000,A,3956.2730,N,11624.2998,E,2.00,85.14,180812,,,A*53
216,
$GPRMC,050235.000,A,3956.2730,N,11624.3006,E,2.04,88.17,180812,,,A*57
216,
$GPRMC,050236.000,A,3956.2730,N,11624.3013,E,2.02,83.34,180812,,,A*5C
217,
$GPRMC,050237.000,A,3956.2731,N,11624.3020,E,2.11,83.42,180812,,,A*5F
217,
$GPRMC,050238.000,A,3956.2731,N,11624.3030,E,2.11,87.04,180812,,,A*57
216,
$GPRMC,050239.000,A,3956.2731,N,11624.3037,E,1.96,82.46,180812,,,A*5E
214,
$GPRMC,050240.000,A,3956.2732,N,11624.3044,E,2.13,81.84,180812,,,A*54
212,
$GPRMC,050241.000,A,3956.2732,N,11624.3051,E,2.04,86.42,180812,,,A*5A
209,
$GPRMC,050242.000,A,3956.2733,N,11624.3058,E,1.83,84.24,180812,,,A*5F
206,
$GPRMC,050243.000,A,3956.2733,N,11624.3065,E,1.90,85.84,180812,,,A*59
205,
$GPRMC,050244.000,A,3956.2733,N,11624.3072,E,1.91,88.53,180812,,,A*5E
204,
$GPRMC,050245.000,A,3956.2732,N,11624.3079,E,2.07,88.40,180812,,,A*5B
204,
$GPRMC,050246.000,A,3956.2732,N,11624.3086,E,2.03,89.49,180812,,,A*54
205,
$GPRMC,050247.000,A,3956.2732,N,11624.3093,E,2.03,90.31,180812,,,A*56
207,
$GPRMC,050248.000,A,3956.2732,N,11624.3100,E,2.05,91.80,180812,,,A*5F
208,
$GPRMC,050249.000,A,3956.2731,N,11624.3108,E,1.97,92.18,180812,,,A*5F
209,
$GPRMC,050250.000,A,3956.2731,N,11624.3115,E,2.02,91.52,180812,,,A*59
211,
$GPRMC,050251.000,A,3956.2731,N,11624.3123,E,1.92,87.23,180812,,,A*56
214,
$GPRMC,050252.000,A,3956.2730,N,11624.3130,E,1.86,85.86,180812,,,A*5E
216,
$GPRMC,050253.000,A,3956.2730,N,11624.3137,E,1.49,79.31,180812,,,A*54
218,
$GPRMC,050254.000,A,3956.2731,N,11624.3144,E,1.64,73.65,180812,,,A*52
218,
$GPRMC,050255.000,A,3956.2731,N,11624.3151,E,1.79,81.89,180812,,,A*54
219,
$GPRMC,050256.000,A,3956.2731,N,11624.3158,E,2.05,91.96,180812,,,A*59
220,
$GPRMC,050257.000,A,3956.2731,N,11624.3165,E,1.83,80.48,180812,,,A*58
220,
$GPRMC,050258.000,A,3956.2731,N,11624.3172,E,1.99,82.69,180812,,,A*5B
220,
$GPRMC,050259.000,A,3956.2731,N,11624.3179,E,2.06,80.77,180812,,,A*59
221,
$GPRMC,050300.000,A,3956.2732,N,11624.3187,E,2.17,79.48,180812,,,A*5C
221,
$GPRMC,050301.000,A,3956.2733,N,11624.3194,E,2.23,80.60,180812,,,A*55
220,
$GPRMC,050302.000,A,3956.2734,N,11624.3202,E,2.30,77.53,180812,,,A*57
218,
$GPRMC,050303.000,A,3956.2735,N,11624.3209,E,2.13,80.55,180812,,,A*53
216,
$GPRMC,050304.000,A,3956.2735,N,11624.3216,E,1.99,80.08,180812,,,A*53
214,
$GPRMC,050305.000,A,3956.2735,N,11624.3222,E,1.93,87.64,180812,,,A*52
214,
$GPRMC,050306.000,A,3956.2734,N,11624.3229,E,1.83,91.11,180812,,,A*5F
213,
$GPRMC,050307.000,A,3956.2734,N,11624.3234,E,1.61,90.16,180812,,,A*58
214,
$GPRMC,050308.000,A,3956.2733,N,11624.3239,E,1.50,103.72,180812,,,A*66
214,
$GPRMC,050309.000,A,3956.2732,N,11624.3244,E,1.73,107.77,180812,,,A*6C
214,
$GPRMC,050310.000,A,3956.2731,N,11624.3250,E,1.87,95.03,180812,,,A*50
215,
$GPRMC,050311.000,A,3956.2732,N,11624.3256,E,1.74,72.57,180812,,,A*50
216,
$GPRMC,050312.000,A,3956.2734,N,11624.3261,E,1.57,69.18,180812,,,A*51
217,
$GPRMC,050313.000,A,3956.2735,N,11624.3266,E,1.28,91.40,180812,,,A*54
217,
$GPRMC,050314.000,A,3956.2735,N,11624.3270,E,0.95,105.13,180812,,,A*69
217,
$GPRMC,050315.000,A,3956.2735,N,11624.3274,E,1.16,71.83,180812,,,A*5D
217,
$GPRMC,050316.000,A,3956.2737,N,11624.3279,E,1.69,64.29,180812,,,A*5D
215,
$GPRMC,050317.000,A,3956.2740,N,11624.3285,E,1.83,67.57,180812,,,A*51
214,
$GPRMC,050318.000,A,3956.2742,N,11624.3291,E,2.09,72.07,180812,,,A*59
212,
$GPRMC,050319.000,A,3956.2742,N,11624.3297,E,2.14,83.28,180812,,,A*51
210,
$GPRMC,050320.000,A,3956.2743,N,11624.3304,E,2.17,84.97,180812,,,A*51
211,
$GPRMC,050321.000,A,3956.2743,N,11624.3312,E,2.10,87.03,180812,,,A*5E
212,
$GPRMC,050322.000,A,3956.2744,N,11624.3320,E,2.10,85.13,180812,,,A*58
214,
$GPRMC,050323.000,A,3956.2743,N,11624.3328,E,2.17,93.54,180812,,,A*55
213,
$GPRMC,050324.000,A,3956.2744,N,11624.3336,E,2.48,89.59,180812,,,A*56
213,
$GPRMC,050325.000,A,3956.2744,N,11624.3344,E,2.23,85.50,180812,,,A*5A
212,
$GPRMC,050326.000,A,3956.2743,N,11624.3352,E,2.20,99.36,180812,,,A*57
212,
$GPRMC,050327.000,A,3956.2743,N,11624.3360,E,2.13,93.72,180812,,,A*5D
213,
$GPRMC,050328.000,A,3956.2743,N,11624.3366,E,1.30,103.60,180812,,,A*6D
212,
$GPRMC,050329.000,A,3956.2744,N,11624.3371,E,1.44,86.24,180812,,,A*52
213,
$GPRMC,050330.000,A,3956.2743,N,11624.3379,E,2.62,111.95,180812,,,A*67
215,
$GPRMC,050331.000,A,3956.2739,N,11624.3388,E,2.60,110.42,180812,,,A*6C
215,
$GPRMC,050332.000,A,3956.2739,N,11624.3394,E,1.78,100.43,180812,,,A*68
216,
$GPRMC,050333.000,A,3956.2738,N,11624.3399,E,1.96,102.29,180812,,,A*6B
216,
$GPRMC,050334.000,A,3956.2738,N,11624.3405,E,1.66,102.15,180812,,,A*6E
216,
$GPRMC,050335.000,A,3956.2738,N,11624.3412,E,2.69,84.92,180812,,,A*55
216,
$GPRMC,050336.000,A,3956.2739,N,11624.3422,E,2.15,87.11,180812,,,A*57
217,
$GPRMC,050337.000,A,3956.2739,N,11624.3430,E,2.57,89.82,180812,,,A*57
217,
$GPRMC,050338.000,A,3956.2738,N,11624.3439,E,2.60,91.69,180812,,,A*58
217,
$GPRMC,050339.000,A,3956.2737,N,11624.3446,E,2.09,87.34,180812,,,A*5E
218,
$GPRMC,050340.000,A,3956.2737,N,11624.3452,E,2.44,89.21,180812,,,A*56
219,
$GPRMC,050341.000,A,3956.2736,N,11624.3458,E,2.20,83.89,180812,,,A*56
218,
$GPRMC,050342.000,A,3956.2737,N,11624.3466,E,1.86,77.20,180812,,,A*5E
218,
$GPRMC,050343.000,A,3956.2737,N,11624.3472,E,1.80,87.28,180812,,,A*5B
218,
$GPRMC,050344.000,A,3956.2738,N,11624.3476,E,1.51,81.78,180812,,,A*58
217,
$GPRMC,050345.000,A,3956.2740,N,11624.3483,E,1.93,66.14,180812,,,A*51
217,
$GPRMC,050346.000,A,3956.2742,N,11624.3491,E,2.42,79.20,180812,,,A*55
217,
$GPRMC,050347.000,A,3956.2743,N,11624.3499,E,2.19,95.00,180812,,,A*53
217,
$GPRMC,050348.000,A,3956.2743,N,11624.3509,E,1.94,94.09,180812,,,A*5A
217,
$GPRMC,050349.000,A,3956.2744,N,11624.3517,E,1.73,79.38,180812,,,A*5B
216,
$GPRMC,050350.000,A,3956.2745,N,11624.3526,E,2.30,107.37,180812,,,A*63
216,
$GPRMC,050351.000,A,3956.2747,N,11624.3533,E,2.17,77.27,180812,,,A*56
216,
$GPRMC,050352.000,A,3956.2748,N,11624.3541,E,1.91,78.20,180812,,,A*5A
216,
$GPRMC,050353.000,A,3956.2752,N,11624.3544,E,1.52,84.28,180812,,,A*51
216,
$GPRMC,050354.000,A,3956.2753,N,11624.3550,E,1.43,78.31,180812,,,A*59
217,
$GPRMC,050355.000,A,3956.2755,N,11624.3555,E,1.23,72.87,180812,,,A*5A
218,
$GPRMC,050356.000,A,3956.2753,N,11624.3563,E,1.49,104.84,180812,,,A*65
218,
$GPRMC,050357.000,A,3956.2748,N,11624.3576,E,1.84,111.48,180812,,,A*6F
218,
$GPRMC,050358.000,A,3956.2746,N,11624.3585,E,1.67,98.50,180812,,,A*56
218,
$GPRMC,050359.000,A,3956.2743,N,11624.3600,E,1.62,97.85,180812,,,A*5E
218,
$GPRMC,050400.000,A,3956.2743,N,11624.3613,E,1.73,95.21,180812,,,A*5B
218,
$GPRMC,050401.000,A,3956.2741,N,11624.3624,E,1.69,92.33,180812,,,A*53
218,
$GPRMC,050402.000,A,3956.2741,N,11624.3642,E,1.85,77.85,180812,,,A*54
218,
$GPRMC,050403.000,A,3956.2738,N,11624.3661,E,1.76,77.33,180812,,,A*5B
218,
$GPRMC,050404.000,A,3956.2736,N,11624.3674,E,1.71,94.27,180812,,,A*59
217,
$GPRMC,050405.000,A,3956.2733,N,11624.3685,E,1.31,109.33,180812,,,A*67
217,
$GPRMC,050406.000,A,3956.2735,N,11624.3693,E,1.46,110.98,180812,,,A*6C
216,
$GPRMC,050407.000,A,3956.2735,N,11624.3698,E,1.76,100.83,180812,,,A*6E
216,
$GPRMC,050408.000,A,3956.2736,N,11624.3703,E,0.69,45.77,180812,,,A*55
215,
$GPRMC,050409.000,A,3956.2736,N,11624.3704,E,1.03,93.79,180812,,,A*5B
215,
$GPRMC,050410.000,A,3956.2733,N,11624.3717,E,1.03,75.56,180812,,,A*51
215,
$GPRMC,050411.000,A,3956.2732,N,11624.3724,E,1.23,69.42,180812,,,A*5B
215,
$GPRMC,050412.000,A,3956.2733,N,11624.3728,E,1.34,73.57,180812,,,A*5C
215,
$GPRMC,050413.000,A,3956.2732,N,11624.3735,E,1.22,79.54,180812,,,A*5E
215,
$GPRMC,050414.000,A,3956.2731,N,11624.3738,E,1.05,87.69,180812,,,A*5D
214,
$GPRMC,050415.000,A,3956.2730,N,11624.3743,E,1.88,76.23,180812,,,A*54
214,
$GPRMC,050416.000,A,3956.2729,N,11624.3745,E,0.65,77.35,180812,,,A*5D
214,
$GPRMC,050417.000,A,3956.2730,N,11624.3748,E,1.21,84.05,180812,,,A*57
214,
$GPRMC,050418.000,A,3956.2733,N,11624.3750,E,1.19,93.60,180812,,,A*5C
215,
$GPRMC,050419.000,A,3956.2732,N,11624.3754,E,1.18,74.94,180812,,,A*5B
214,
$GPRMC,050420.000,A,3956.2732,N,11624.3755,E,1.14,83.81,180812,,,A*50
214,
$GPRMC,050421.000,A,3956.2731,N,11624.3755,E,1.09,68.62,180812,,,A*56
214,
$GPRMC,050422.000,A,3956.2737,N,11624.3761,E,2.29,54.05,180812,,,A*5B
214,
$GPRMC,050423.000,A,3956.2740,N,11624.3767,E,1.44,84.59,180812,,,A*50
214,
$GPRMC,050424.000,A,3956.2740,N,11624.3772,E,1.26,82.98,180812,,,A*5C
214,
$GPRMC,050425.000,A,3956.2737,N,11624.3776,E,1.74,105.01,180812,,,A*60
214,
$GPRMC,050426.000,A,3956.2735,N,11624.3782,E,1.69,93.52,180812,,,A*5E
213,
$GPRMC,050427.000,A,3956.2735,N,11624.3790,E,2.58,79.43,180812,,,A*59
212,
$GPRMC,050428.000,A,3956.2736,N,11624.3798,E,1.81,89.89,180812,,,A*53
212,
$GPRMC,050429.000,A,3956.2735,N,11624.3803,E,1.62,102.40,180812,,,A*66
211,
$GPRMC,050430.000,A,3956.2735,N,11624.3810,E,1.99,95.28,180812,,,A*59
211,
$GPRMC,050431.000,A,3956.2734,N,11624.3818,E,2.37,91.03,180812,,,A*5B
211,
$GPRMC,050432.000,A,3956.2736,N,11624.3829,E,2.40,89.54,180812,,,A*53
211,
$GPRMC,050433.000,A,3956.2736,N,11624.3839,E,2.37,87.05,180812,,,A*59
211,
$GPRMC,050434.000,A,3956.2737,N,11624.3846,E,1.38,96.27,180812,,,A*5B
212,
$GPRMC,050435.000,A,3956.2735,N,11624.3852,E,2.04,95.73,180812,,,A*53
212,
$GPRMC,050436.000,A,3956.2734,N,11624.3859,E,1.78,91.00,180812,,,A*52
212,
$GPRMC,050437.000,A,3956.2735,N,11624.3870,E,2.48,87.65,180812,,,A*5D
212,
$GPRMC,050438.000,A,3956.2737,N,11624.3882,E,2.41,71.51,180812,,,A*5A
212,
$GPRMC,050439.000,A,3956.2739,N,11624.3892,E,1.91,73.95,180812,,,A*50
211,
$GPRMC,050440.000,A,3956.2739,N,11624.3901,E,1.65,75.69,180812,,,A*5B
211,
$GPRMC,050441.000,A,3956.2739,N,11624.3910,E,1.64,80.28,180812,,,A*54
211,
$GPRMC,050442.000,A,3956.2739,N,11624.3920,E,2.02,89.52,180812,,,A*53
212,
$GPRMC,050443.000,A,3956.2738,N,11624.3930,E,1.91,66.69,180812,,,A*52
212,
$GPRMC,050444.000,A,3956.2738,N,11624.3940,E,1.92,69.87,180812,,,A*5E
212,
$GPRMC,050445.000,A,3956.2739,N,11624.3948,E,1.80,72.38,180812,,,A*5B
212,
$GPRMC,050446.000,A,3956.2739,N,11624.3958,E,2.32,89.74,180812,,,A*5F
211,
$GPRMC,050447.000,A,3956.2740,N,11624.3968,E,1.99,71.50,180812,,,A*50
211,
$GPRMC,050448.000,A,3956.2739,N,11624.3978,E,1.62,84.72,180812,,,A*5E
212,
$GPRMC,050449.000,A,3956.2737,N,11624.3988,E,1.77,77.97,180812,,,A*5D
211,
$GPRMC,050450.000,A,3956.2736,N,11624.3996,E,1.13,84.02,180812,,,A*59
211,
$GPRMC,050451.000,A,3956.2735,N,11624.4006,E,1.60,78.54,180812,,,A*58
211,
$GPRMC,050452.000,A,3956.2735,N,11624.4016,E,2.02,86.87,180812,,,A*52
212,
$GPRMC,050453.000,A,3956.2734,N,11624.4029,E,2.47,85.61,180812,,,A*54
212,
$GPRMC,050454.000,A,3956.2732,N,11624.4040,E,2.03,87.89,180812,,,A*5E
213,
$GPRMC,050455.000,A,3956.2730,N,11624.4049,E,2.13,87.10,180812,,,A*55
213,
$GPRMC,050456.000,A,3956.2727,N,11624.4059,E,2.15,83.75,180812,,,A*50
213,
$GPRMC,050457.000,A,3956.2726,N,11624.4070,E,2.24,72.30,180812,,,A*56
213,
$GPRMC,050458.000,A,3956.2723,N,11624.4079,E,1.95,108.13,180812,,,A*61
213,
$GPRMC,050459.000,A,3956.2719,N,11624.4089,E,2.14,130.05,180812,,,A*60
213,
$GPRMC,050500.000,A,3956.2716,N,11624.4099,E,2.58,87.87,180812,,,A*5C
213,
$GPRMC,050501.000,A,3956.2714,N,11624.4113,E,2.32,89.59,180812,,,A*5D
213,
$GPRMC,050502.000,A,3956.2712,N,11624.4123,E,2.35,90.90,180812,,,A*51
214,
$GPRMC,050503.000,A,3956.2712,N,11624.4133,E,2.43,87.47,180812,,,A*5C
214,
$GPRMC,050504.000,A,3956.2712,N,11624.4141,E,2.18,89.70,180812,,,A*5A
213,
$GPRMC,050505.000,A,3956.2712,N,11624.4151,E,2.08,90.11,180812,,,A*54
211,
$GPRMC,050506.000,A,3956.2710,N,11624.4163,E,2.51,96.93,180812,,,A*54
210,
$GPRMC,050507.000,A,3956.2711,N,11624.4173,E,1.80,57.35,180812,,,A*5B
209,
$GPRMC,050508.000,A,3956.2717,N,11624.4184,E,3.09,40.06,180812,,,A*5F
210,
$GPRMC,050509.000,A,3956.2720,N,11624.4197,E,3.60,84.30,180812,,,A*5A
209,
$GPRMC,050510.000,A,3956.2719,N,11624.4214,E,4.32,100.96,180812,,,A*61
208,
$GPRMC,050511.000,A,3956.2717,N,11624.4229,E,3.46,95.80,180812,,,A*5E
209,
$GPRMC,050512.000,A,3956.2718,N,11624.4240,E,3.16,89.92,180812,,,A*56
209,
$GPRMC,050513.000,A,3956.2717,N,11624.4250,E,2.94,96.99,180812,,,A*57
210,
$GPRMC,050514.000,A,3956.2717,N,11624.4259,E,2.74,93.63,180812,,,A*57
211,
$GPRMC,050515.000,A,3956.2719,N,11624.4264,E,2.68,89.00,180812,,,A*55
216,
$GPRMC,050516.000,A,3956.2718,N,11624.4273,E,2.51,96.05,180812,,,A*50
215,
$GPRMC,050517.000,A,3956.2719,N,11624.4282,E,2.22,96.08,180812,,,A*57
213,
$GPRMC,050518.000,A,3956.2719,N,11624.4288,E,2.20,84.09,180812,,,A*52
212,
$GPRMC,050519.000,A,3956.2721,N,11624.4292,E,1.31,70.02,180812,,,A*50
210,
$GPRMC,050520.000,A,3956.2724,N,11624.4299,E,1.42,78.59,180812,,,A*56
209,
$GPRMC,050521.000,A,3956.2725,N,11624.4306,E,2.08,92.55,180812,,,A*54
208,
$GPRMC,050522.000,A,3956.2723,N,11624.4316,E,2.10,89.07,180812,,,A*54
206,
$GPRMC,050523.000,A,3956.2724,N,11624.4323,E,2.07,98.37,180812,,,A*51
203,
$GPRMC,050524.000,A,3956.2724,N,11624.4333,E,2.31,81.86,180812,,,A*50
202,
$GPRMC,050525.000,A,3956.2726,N,11624.4344,E,1.65,54.66,180812,,,A*57
201,
$GPRMC,050526.000,A,3956.2726,N,11624.4354,E,1.87,79.22,180812,,,A*56
200,
$GPRMC,050527.000,A,3956.2727,N,11624.4362,E,2.36,86.53,180812,,,A*5C
202,
$GPRMC,050528.000,A,3956.2729,N,11624.4370,E,1.52,90.11,180812,,,A*5E
204,
$GPRMC,050529.000,A,3956.2731,N,11624.4377,E,2.24,84.68,180812,,,A*58
205,
$GPRMC,050530.000,A,3956.2733,N,11624.4384,E,1.62,88.25,180812,,,A*5A
207,
$GPRMC,050531.000,A,3956.2735,N,11624.4391,E,1.65,90.53,180812,,,A*56
206,
$GPRMC,050532.000,A,3956.2739,N,11624.4396,E,2.00,68.40,180812,,,A*5B
203,
$GPRMC,050533.000,A,3956.2743,N,11624.4403,E,2.68,81.56,180812,,,A*52
204,
$GPRMC,050534.000,A,3956.2745,N,11624.4418,E,2.49,72.65,180812,,,A*56
205,
$GPRMC,050535.000,A,3956.2747,N,11624.4433,E,2.10,73.26,180812,,,A*56
207,
$GPRMC,050536.000,A,3956.2749,N,11624.4441,E,1.49,66.53,180812,,,A*57
207,
$GPRMC,050537.000,A,3956.2751,N,11624.4449,E,1.07,37.11,180812,,,A*5F
208,
$GPRMC,050538.000,A,3956.2753,N,11624.4455,E,0.96,55.62,180812,,,A*56
209,
$GPRMC,050539.000,A,3956.2755,N,11624.4459,E,1.68,66.86,180812,,,A*57
210,
$GPRMC,050540.000,A,3956.2757,N,11624.4465,E,1.71,81.53,180812,,,A*5D
210,
$GPRMC,050541.000,A,3956.2760,N,11624.4470,E,1.57,55.98,180812,,,A*56
211,
$GPRMC,050542.000,A,3956.2762,N,11624.4474,E,1.39,75.81,180812,,,A*51
211,
$GPRMC,050543.000,A,3956.2763,N,11624.4478,E,1.59,72.20,180812,,,A*57
212,
$GPRMC,050544.000,A,3956.2763,N,11624.4486,E,1.45,68.83,180812,,,A*5E
211,
$GPRMC,050545.000,A,3956.2763,N,11624.4494,E,1.90,80.61,180812,,,A*5E
211,
$GPRMC,050546.000,A,3956.2763,N,11624.4501,E,1.23,67.77,180812,,,A*56
212,
$GPRMC,050547.000,A,3956.2765,N,11624.4509,E,1.90,66.46,180812,,,A*52
212,
$GPRMC,050548.000,A,3956.2764,N,11624.4515,E,1.43,92.69,180812,,,A*59
212,
$GPRMC,050549.000,A,3956.2763,N,11624.4519,E,1.35,85.38,180812,,,A*50
211,
$GPRMC,050550.000,A,3956.2763,N,11624.4526,E,1.58,77.58,180812,,,A*54
211,
$GPRMC,050551.000,A,3956.2763,N,11624.4532,E,1.52,54.91,180812,,,A*5E
211,
$GPRMC,050552.000,A,3956.2764,N,11624.4536,E,1.93,75.71,180812,,,A*5E
211,
$GPRMC,050553.000,A,3956.2766,N,11624.4541,E,1.96,79.76,180812,,,A*53
211,
$GPRMC,050554.000,A,3956.2768,N,11624.4545,E,2.13,109.25,180812,,,A*60
211,
$GPRMC,050555.000,A,3956.2769,N,11624.4548,E,1.84,108.74,180812,,,A*65
211,
$GPRMC,050556.000,A,3956.2770,N,11624.4553,E,1.95,101.94,180812,,,A*63
211,
$GPRMC,050557.000,A,3956.2769,N,11624.4558,E,2.11,103.47,180812,,,A*62
211,
$GPRMC,050558.000,A,3956.2767,N,11624.4563,E,2.21,107.89,180812,,,A*6E
210,
$GPRMC,050559.000,A,3956.2766,N,11624.4570,E,2.12,96.17,180812,,,A*52
209,
$GPRMC,050600.000,A,3956.2766,N,11624.4576,E,2.03,85.70,180812,,,A*58
210,
$GPRMC,050601.000,A,3956.2765,N,11624.4581,E,1.69,98.98,180812,,,A*57
209,
$GPRMC,050602.000,A,3956.2766,N,11624.4590,E,2.55,95.16,180812,,,A*50
209,
$GPRMC,050603.000,A,3956.2767,N,11624.4602,E,3.04,93.73,180812,,,A*58
209,
$GPRMC,050604.000,A,3956.2770,N,11624.4614,E,3.02,91.78,180812,,,A*51
209,
$GPRMC,050605.000,A,3956.2775,N,11624.4624,E,2.27,80.86,180812,,,A*51
210,
$GPRMC,050606.000,A,3956.2780,N,11624.4633,E,2.21,78.44,180812,,,A*51
209,
$GPRMC,050607.000,A,3956.2783,N,11624.4641,E,2.26,81.65,180812,,,A*54
209,
$GPRMC,050608.000,A,3956.2785,N,11624.4649,E,2.12,73.10,180812,,,A*5D
209,
$GPRMC,050609.000,A,3956.2787,N,11624.4658,E,2.43,84.71,180812,,,A*55
210,
$GPRMC,050610.000,A,3956.2789,N,11624.4669,E,2.44,84.07,180812,,,A*57
211,
$GPRMC,050611.000,A,3956.2790,N,11624.4678,E,2.09,93.53,180812,,,A*50
211,
$GPRMC,050612.000,A,3956.2789,N,11624.4688,E,1.52,98.88,180812,,,A*54
210,
$GPRMC,050613.000,A,3956.2788,N,11624.4699,E,1.97,94.31,180812,,,A*53
209,
$GPRMC,050614.000,A,3956.2784,N,11624.4710,E,2.52,122.37,180812,,,A*68
209,
$GPRMC,050615.000,A,3956.2779,N,11624.4722,E,2.22,111.37,180812,,,A*6D
209,
$GPRMC,050616.000,A,3956.2776,N,11624.4733,E,2.18,100.74,180812,,,A*6F
208,
$GPRMC,050617.000,A,3956.2774,N,11624.4743,E,2.04,95.33,180812,,,A*58
208,
$GPRMC,050618.000,A,3956.2772,N,11624.4754,E,1.84,91.81,180812,,,A*51
208,
$GPRMC,050619.000,A,3956.2770,N,11624.4765,E,1.69,83.17,180812,,,A*5F
208,
$GPRMC,050620.000,A,3956.2768,N,11624.4775,E,1.54,75.26,180812,,,A*58
209,
$GPRMC,050621.000,A,3956.2767,N,11624.4783,E,1.29,76.09,180812,,,A*5B
208,
$GPRMC,050622.000,A,3956.2764,N,11624.4791,E,1.36,96.90,180812,,,A*58
208,
$GPRMC,050623.000,A,3956.2762,N,11624.4799,E,1.42,67.30,180812,,,A*50
208,
$GPRMC,050624.000,A,3956.2760,N,11624.4804,E,0.61,91.21,180812,,,A*57
207,
$GPRMC,050625.000,A,3956.2758,N,11624.4802,E,0.63,74.51,180812,,,A*55
206,
$GPRMC,050626.000,A,3956.2757,N,11624.4804,E,0.77,68.03,180812,,,A*50
205,
$GPRMC,050627.000,A,3956.2756,N,11624.4807,E,1.04,80.70,180812,,,A*54
204,
$GPRMC,050628.000,A,3956.2755,N,11624.4809,E,0.91,45.41,180812,,,A*50
204,
$GPRMC,050629.000,A,3956.2754,N,11624.4810,E,0.85,51.49,180812,,,A*50
204,
$GPRMC,050630.000,A,3956.2752,N,11624.4814,E,0.88,115.41,180812,,,A*6E
204,
$GPRMC,050631.000,A,3956.2751,N,11624.4813,E,1.05,129.30,180812,,,A*66
204,
$GPRMC,050632.000,A,3956.2750,N,11624.4814,E,0.95,102.43,180812,,,A*66
201,
$GPRMC,050633.000,A,3956.2750,N,11624.4816,E,1.70,86.44,180812,,,A*55
200,
$GPRMC,050634.000,A,3956.2750,N,11624.4821,E,2.25,93.90,180812,,,A*58
201,
$GPRMC,050635.000,A,3956.2750,N,11624.4825,E,1.15,120.86,180812,,,A*63
203,
$GPRMC,050636.000,A,3956.2751,N,11624.4832,E,1.33,89.60,180812,,,A*59
203,
$GPRMC,050637.000,A,3956.2751,N,11624.4840,E,1.75,87.12,180812,,,A*54
204,
$GPRMC,050638.000,A,3956.2752,N,11624.4847,E,2.09,95.33,180812,,,A*57
205,
$GPRMC,050639.000,A,3956.2752,N,11624.4854,E,1.96,89.98,180812,,,A*5D
207,
$GPRMC,050640.000,A,3956.2753,N,11624.4865,E,1.97,86.49,180812,,,A*52
208,
$GPRMC,050641.000,A,3956.2754,N,11624.4874,E,2.23,94.55,180812,,,A*56
211,
$GPRMC,050642.000,A,3956.2754,N,11624.4883,E,2.14,96.46,180812,,,A*59
216,
$GPRMC,050643.000,A,3956.2756,N,11624.4894,E,2.31,90.33,180812,,,A*5F
214,
$GPRMC,050644.000,A,3956.2758,N,11624.4904,E,1.94,94.72,180812,,,A*53
211,
$GPRMC,050645.000,A,3956.2758,N,11624.4913,E,2.17,111.29,180812,,,A*6E
209,
$GPRMC,050646.000,A,3956.2757,N,11624.4922,E,2.09,92.82,180812,,,A*54
207,
$GPRMC,050647.000,A,3956.2757,N,11624.4926,E,1.76,93.61,180812,,,A*56
205,
$GPRMC,050648.000,A,3956.2756,N,11624.4933,E,2.23,111.80,180812,,,A*6B
207,
$GPRMC,050649.000,A,3956.2757,N,11624.4945,E,1.80,88.60,180812,,,A*5F
208,
$GPRMC,050650.000,A,3956.2759,N,11624.4956,E,2.08,81.81,180812,,,A*5E
209,
$GPRMC,050651.000,A,3956.2759,N,11624.4965,E,1.86,74.81,180812,,,A*50
210,
$GPRMC,050652.000,A,3956.2760,N,11624.4974,E,2.20,74.92,180812,,,A*54
211,
$GPRMC,050653.000,A,3956.2761,N,11624.4981,E,1.30,69.07,180812,,,A*5C
211,
$GPRMC,050654.000,A,3956.2762,N,11624.4990,E,1.68,69.93,180812,,,A*58
211,
$GPRMC,050655.000,A,3956.2763,N,11624.4998,E,1.69,70.62,180812,,,A*57
210,
$GPRMC,050656.000,A,3956.2763,N,11624.5009,E,1.92,90.11,180812,,,A*5A
209,
$GPRMC,050657.000,A,3956.2762,N,11624.5021,E,1.90,87.42,180812,,,A*52
208,
$GPRMC,050658.000,A,3956.2763,N,11624.5032,E,1.88,94.50,180812,,,A*56
208,
$GPRMC,050659.000,A,3956.2761,N,11624.5041,E,1.94,91.82,180812,,,A*56
209,
$GPRMC,050700.000,A,3956.2758,N,11624.5048,E,2.00,97.10,180812,,,A*5B
208,
$GPRMC,050701.000,A,3956.2756,N,11624.5055,E,1.91,96.41,180812,,,A*56
208,
$GPRMC,050702.000,A,3956.2754,N,11624.5063,E,1.91,89.57,180812,,,A*5B
209,
$GPRMC,050703.000,A,3956.2753,N,11624.5071,E,1.81,82.88,180812,,,A*56
210,
$GPRMC,050704.000,A,3956.2751,N,11624.5078,E,1.70,94.14,180812,,,A*56
210,
$GPRMC,050705.000,A,3956.2750,N,11624.5086,E,1.83,77.96,180812,,,A*5C
210,
$GPRMC,050706.000,A,3956.2749,N,11624.5101,E,2.12,90.48,180812,,,A*58
209,
$GPRMC,050707.000,A,3956.2749,N,11624.5111,E,2.17,82.77,180812,,,A*52
209,
$GPRMC,050708.000,A,3956.2749,N,11624.5121,E,1.82,84.87,180812,,,A*58
208,
$GPRMC,050709.000,A,3956.2749,N,11624.5131,E,1.59,101.21,180812,,,A*6E
208,
$GPRMC,050710.000,A,3956.2750,N,11624.5139,E,1.65,84.97,180812,,,A*58
208,
$GPRMC,050711.000,A,3956.2751,N,11624.5145,E,1.52,82.52,180812,,,A*58
207,
