$PSRFTXT,Version:GSW3.5.0_3.5.00.00-SDK-3EP2.01 *46
210,
$GPRMC,065008.596,A,3956.3292,N,11625.5228,E,0.39,321.38,180812,,,A*63
209,
$GPRMC,065009.596,A,3956.3220,N,11625.5238,E,0.26,193.07,180812,,,A*63
210, 
$GPRMC,065010.596,A,3956.3215,N,11625.5223,E,0.25,205.52,180812,,,A*68
210,
$GPRMC,065011.596,A,3956.3205,N,11625.5237,E,0.26,282.99,180812,,,A*66
209,
$GPRMC,065012.596,A,3956.3201,N,11625.5231,E,0.08,12.35,180812,,,A*56
211,
$GPRMC,065013.596,A,3956.3194,N,11625.5229,E,0.18,154.71,180812,,,A*63
212,
$GPRMC,065014.000,A,3956.3192,N,11625.5229,E,0.41,112.89,180812,,,A*61
212,
$GPRMC,065015.000,A,3956.3196,N,11625.5225,E,0.36,227.07,180812,,,A*6B
213,
$GPRMC,065016.000,A,3956.3191,N,11625.5219,E,0.24,300.18,180812,,,A*69
214,
$GPRMC,065017.000,A,3956.3188,N,11625.5212,E,0.03,81.01,180812,,,A*5C
214,
$GPRMC,065018.000,A,3956.3182,N,11625.5202,E,0.21,192.53,180812,,,A*6C
215,
$GPRMC,065019.000,A,3956.3179,N,11625.5203,E,0.37,210.14,180812,,,A*65
215,
$GPRMC,065020.000,A,3956.3178,N,11625.5204,E,0.25,198.09,180812,,,A*65
214,
$GPRMC,065021.000,A,3956.3177,N,11625.5203,E,0.18,188.22,180812,,,A*6A
214,
$GPRMC,065022.000,A,3956.3174,N,11625.5198,E,0.26,210.13,180812,,,A*66
214,
$GPRMC,065023.000,A,3956.3171,N,11625.5191,E,0.26,205.64,180812,,,A*6F
214,
$GPRMC,065024.000,A,3956.3167,N,11625.5182,E,0.27,208.25,180812,,,A*64
214,
$GPRMC,065025.000,A,3956.3163,N,11625.5173,E,0.18,186.47,180812,,,A*62
214,
$GPRMC,065026.000,A,3956.3159,N,11625.5165,E,0.20,196.64,180812,,,A*64
214,
$GPRMC,065027.000,A,3956.3156,N,11625.5158,E,0.28,209.31,180812,,,A*69
214,
$GPRMC,065028.000,A,3956.3153,N,11625.5154,E,0.24,196.27,180812,,,A*61
213,
$GPRMC,065029.000,A,3956.3152,N,11625.5151,E,0.21,214.16,180812,,,A*6A
213,
$GPRMC,065030.000,A,3956.3151,N,11625.5150,E,0.16,190.12,180812,,,A*6F
213,
$GPRMC,065031.000,A,3956.3150,N,11625.5149,E,0.14,196.34,180812,,,A*67
213,
$GPRMC,065032.000,A,3956.3149,N,11625.5147,E,0.13,196.55,180812,,,A*62
213,
$GPRMC,065033.000,A,3956.3149,N,11625.5147,E,0.40,209.35,180812,,,A*66
213,
$GPRMC,065034.000,A,3956.3148,N,11625.5147,E,0.39,193.48,180812,,,A*64
213,
$GPRMC,065035.000,A,3956.3146,N,11625.5149,E,0.13,117.80,180812,,,A*65
213,
$GPRMC,065036.000,A,3956.3143,N,11625.5153,E,0.33,168.47,180812,,,A*69
213,
$GPRMC,065037.000,A,3956.3139,N,11625.5154,E,0.19,169.68,180812,,,A*66
213,
$GPRMC,065038.000,A,3956.3135,N,11625.5152,E,0.42,209.77,180812,,,A*66
213,
$GPRMC,065039.000,A,3956.3134,N,11625.5153,E,0.28,188.86,180812,,,A*6F
212,
$GPRMC,065040.000,A,3956.3137,N,11625.5153,E,0.14,168.60,180812,,,A*6B
212,
$GPRMC,065041.000,A,3956.3140,N,11625.5153,E,0.13,75.52,180812,,,A*51
211,
$GPRMC,065042.000,A,3956.3143,N,11625.5156,E,0.27,90.80,180812,,,A*57
211,
$GPRMC,065043.000,A,3956.3144,N,11625.5157,E,0.24,110.88,180812,,,A*62
211,
$GPRMC,065044.000,A,3956.3144,N,11625.5156,E,0.05,184.17,180812,,,A*6C
211,
$GPRMC,065045.000,A,3956.3144,N,11625.5154,E,0.12,187.63,180812,,,A*69
211,
$GPRMC,065046.000,A,3956.3144,N,11625.5153,E,0.16,150.25,180812,,,A*61
210,
$GPRMC,065047.000,A,3956.3145,N,11625.5150,E,0.11,247.37,180812,,,A*63
209,
$GPRMC,065048.000,A,3956.3145,N,11625.5148,E,0.11,180.61,180812,,,A*6E
209,
$GPRMC,065049.000,A,3956.3145,N,11625.5146,E,0.16,153.36,180812,,,A*6A
210,
$GPRMC,065050.000,A,3956.3145,N,11625.5144,E,0.12,265.16,180812,,,A*60
210,
$GPRMC,065051.000,A,3956.3146,N,11625.5141,E,0.18,281.89,180812,,,A*61
210,
$GPRMC,065052.000,A,3956.3147,N,11625.5141,E,0.65,48.57,180812,,,A*5D
212,
$GPRMC,065053.000,A,3956.3148,N,11625.5144,E,0.13,113.38,180812,,,A*61
213,
$GPRMC,065054.000,A,3956.3148,N,11625.5144,E,0.21,116.22,180812,,,A*69
213,
$GPRMC,065055.000,A,3956.3149,N,11625.5144,E,0.17,108.72,180812,,,A*66
213,
$GPRMC,065056.000,A,3956.3150,N,11625.5143,E,0.40,213.66,180812,,,A*64
214,
$GPRMC,065057.000,A,3956.3148,N,11625.5143,E,0.45,222.02,180812,,,A*69
214,
$GPRMC,065058.000,A,3956.3148,N,11625.5144,E,0.61,239.30,180812,,,A*6C
213,
$GPRMC,065059.000,A,3956.3151,N,11625.5143,E,0.15,312.72,180812,,,A*6F
213,
$GPRMC,065100.000,A,3956.3155,N,11625.5143,E,0.13,240.35,180812,,,A*65
212,
$GPRMC,065101.000,A,3956.3159,N,11625.5145,E,0.12,318.55,180812,,,A*65
212,
$GPRMC,065102.000,A,3956.3162,N,11625.5148,E,0.04,198.58,180812,,,A*63
208,
$GPRMC,065103.000,A,3956.3160,N,11625.5151,E,1.25,237.10,180812,,,A*60
205,
$GPRMC,065104.000,A,3956.3155,N,11625.5153,E,1.57,162.40,180812,,,A*60
203,
$GPRMC,065105.000,A,3956.3151,N,11625.5155,E,0.47,196.77,180812,,,A*6C
204,
$GPRMC,065106.000,A,3956.3148,N,11625.5154,E,0.18,217.89,180812,,,A*67
206,
$GPRMC,065107.000,A,3956.3146,N,11625.5151,E,0.20,188.07,180812,,,A*65
208,
$GPRMC,065108.000,A,3956.3148,N,11625.5151,E,0.15,104.35,180812,,,A*67
209,
$GPRMC,065109.000,A,3956.3150,N,11625.5153,E,0.19,177.31,180812,,,A*61
209,
$GPRMC,065110.000,A,3956.3151,N,11625.5155,E,0.03,212.68,180812,,,A*69
207,
$GPRMC,065111.000,A,3956.3150,N,11625.5158,E,0.20,328.93,180812,,,A*69
205,
$GPRMC,065112.000,A,3956.3149,N,11625.5164,E,0.30,122.75,180812,,,A*6C
200,
$GPRMC,065113.000,A,3956.3149,N,11625.5168,E,0.22,170.69,180812,,,A*68
203,
$GPRMC,065114.000,A,3956.3148,N,11625.5171,E,0.21,180.40,180812,,,A*61
205,
$GPRMC,065115.000,A,3956.3147,N,11625.5173,E,0.16,171.52,180812,,,A*64
207,
$GPRMC,065116.000,A,3956.3147,N,11625.5176,E,0.18,158.24,180812,,,A*66
208,
$GPRMC,065117.000,A,3956.3147,N,11625.5178,E,0.09,236.03,180812,,,A*67
209,
$GPRMC,065118.000,A,3956.3148,N,11625.5178,E,0.10,227.21,180812,,,A*6F
210,
$GPRMC,065119.000,A,3956.3150,N,11625.5178,E,0.19,287.35,180812,,,A*61
211,
$GPRMC,065120.000,A,3956.3151,N,11625.5178,E,0.24,142.66,180812,,,A*68
211,
$GPRMC,065121.000,A,3956.3154,N,11625.5185,E,0.13,109.06,180812,,,A*63
211,
$GPRMC,065122.000,A,3956.3156,N,11625.5192,E,0.19,60.91,180812,,,A*5E
211,
$GPRMC,065123.000,A,3956.3158,N,11625.5199,E,0.08,87.45,180812,,,A*5A
210,
$GPRMC,065124.000,A,3956.3158,N,11625.5206,E,0.01,283.10,180812,,,A*67
211,
$GPRMC,065125.000,A,3956.3155,N,11625.5208,E,0.29,120.87,180812,,,A*6B
212,
$GPRMC,065126.000,A,3956.3152,N,11625.5204,E,0.18,152.18,180812,,,A*62
211,
$GPRMC,065127.000,A,3956.3151,N,11625.5200,E,0.18,161.52,180812,,,A*6A
212,
$GPRMC,065128.000,A,3956.3149,N,11625.5195,E,0.22,181.60,180812,,,A*65
212,
$GPRMC,065129.000,A,3956.3149,N,11625.5192,E,0.15,154.97,180812,,,A*67
212,
$GPRMC,065130.000,A,3956.3145,N,11625.5188,E,0.23,224.26,180812,,,A*63
212,
$GPRMC,065131.000,A,3956.3144,N,11625.5184,E,0.18,311.32,180812,,,A*65
212,
$GPRMC,065132.000,A,3956.3143,N,11625.5183,E,0.17,93.79,180812,,,A*5F
213,
$GPRMC,065133.000,A,3956.3146,N,11625.5182,E,0.28,37.18,180812,,,A*5F
213,
$GPRMC,065134.000,A,3956.3148,N,11625.5180,E,0.21,258.35,180812,,,A*69
213,
$GPRMC,065135.000,A,3956.3148,N,11625.5176,E,0.21,270.00,180812,,,A*6D
211,
$GPRMC,065136.000,A,3956.3147,N,11625.5171,E,0.36,241.83,180812,,,A*69
205,
$GPRMC,065137.000,A,3956.3147,N,11625.5168,E,0.19,150.01,180812,,,A*64
204,
$GPRMC,065138.000,A,3956.3148,N,11625.5166,E,0.12,176.15,180812,,,A*60
198,
$GPRMC,065139.000,A,3956.3149,N,11625.5164,E,0.12,167.67,180812,,,A*67
195,
$GPRMC,065140.000,A,3956.3149,N,11625.5163,E,0.20,219.50,180812,,,A*61
196,
$GPRMC,065141.000,A,3956.3152,N,11625.5162,E,0.32,228.18,180812,,,A*66
200,
$GPRMC,065142.000,A,3956.3153,N,11625.5163,E,0.12,127.19,180812,,,A*6A
203,
$GPRMC,065143.000,A,3956.3155,N,11625.5164,E,0.20,93.98,180812,,,A*5C
205,
$GPRMC,065144.000,A,3956.3156,N,11625.5163,E,0.25,114.75,180812,,,A*67
201,
$GPRMC,065145.000,A,3956.3158,N,11625.5161,E,0.11,133.84,180812,,,A*66
201,
$GPRMC,065146.000,A,3956.3161,N,11625.5160,E,0.12,152.84,180812,,,A*6A
203,
$GPRMC,065147.000,A,3956.3163,N,11625.5160,E,0.24,350.58,180812,,,A*6D
204,
$GPRMC,065148.000,A,3956.3165,N,11625.5160,E,0.39,162.67,180812,,,A*67
207,
$GPRMC,065149.000,A,3956.3165,N,11625.5161,E,0.23,87.98,180812,,,A*56
208,
$GPRMC,065150.000,A,3956.3165,N,11625.5159,E,0.15,121.56,180812,,,A*6F
207,
$GPRMC,065151.000,A,3956.3165,N,11625.5159,E,0.17,96.82,180812,,,A*58
203,
$GPRMC,065152.000,A,3956.3166,N,11625.5157,E,0.34,40.75,180812,,,A*54
201,
$GPRMC,065153.000,A,3956.3167,N,11625.5153,E,0.46,245.60,180812,,,A*66
197,
$GPRMC,065154.000,A,3956.3165,N,11625.5149,E,1.31,276.10,180812,,,A*6E
194,
$GPRMC,065155.000,A,3956.3162,N,11625.5147,E,0.37,126.37,180812,,,A*62
193,
$GPRMC,065156.000,A,3956.3160,N,11625.5148,E,0.26,171.86,180812,,,A*64
194,
$GPRMC,065157.000,A,3956.3158,N,11625.5149,E,0.27,245.78,180812,,,A*6B
198,
$GPRMC,065158.000,A,3956.3158,N,11625.5149,E,0.31,252.18,180812,,,A*63
202,
$GPRMC,065159.000,A,3956.3157,N,11625.5148,E,0.17,285.94,180812,,,A*66
202,
$GPRMC,065200.000,A,3956.3156,N,11625.5148,E,0.28,179.04,180812,,,A*6D
201,
$GPRMC,065201.000,A,3956.3154,N,11625.5148,E,0.27,194.15,180812,,,A*62
201,
$GPRMC,065202.000,A,3956.3154,N,11625.5149,E,0.53,121.12,180812,,,A*6A
203,
$GPRMC,065203.000,A,3956.3154,N,11625.5150,E,0.39,259.68,180812,,,A*6E
205,
$GPRMC,065204.000,A,3956.3155,N,11625.5150,E,0.37,294.41,180812,,,A*6C
207,
$GPRMC,065205.000,A,3956.3157,N,11625.5151,E,0.18,142.17,180812,,,A*68
210,
$GPRMC,065206.000,A,3956.3157,N,11625.5153,E,0.54,188.90,180812,,,A*68
210,
$GPRMC,065207.000,A,3956.3159,N,11625.5153,E,0.67,257.24,180812,,,A*69
211,
$GPRMC,065208.000,A,3956.3162,N,11625.5152,E,1.15,308.69,180812,,,A*69
212,
$GPRMC,065209.000,A,3956.3166,N,11625.5152,E,1.22,346.12,180812,,,A*6E
212,
$GPRMC,065210.000,A,3956.3170,N,11625.5154,E,0.47,4.68,180812,,,A*6D
212,
$GPRMC,065211.000,A,3956.3172,N,11625.5157,E,0.53,19.71,180812,,,A*5C
213,
$GPRMC,065212.000,A,3956.3172,N,11625.5162,E,0.76,53.76,180812,,,A*57
213,
$GPRMC,065213.000,A,3956.3176,N,11625.5166,E,1.35,8.71,180812,,,A*69
212,
