$PSRFTXT,Version:GSW3.5.0_3.5.00.00-SDK-3EP2.01 *46
229,
$GPRMC,064211.679,A,3956.1025,N,11625.2224,E,7.26,90.39,180812,,,A*5C
221,
$GPRMC,064212.000,A,3956.1023,N,11625.2229,E,7.20,87.96,180812,,,A*59
223,
$GPRMC,064213.000,A,3956.1095,N,11625.2247,E,7.02,90.90,180812,,,A*5D
224,
$GPRMC,064214.000,A,3956.1144,N,11625.2269,E,7.40,93.37,180812,,,A*53
222,
$GPRMC,064215.000,A,3956.1165,N,11625.2289,E,7.41,94.35,180812,,,A*5B
220,
$GPRMC,064216.000,A,3956.1173,N,11625.2314,E,7.33,93.10,180812,,,A*5F
216,
$GPRMC,064217.000,A,3956.1177,N,11625.2337,E,7.24,91.94,180812,,,A*53
218,
$GPRMC,064218.000,A,3956.1184,N,11625.2361,E,7.19,87.84,180812,,,A*5B
222,
$GPRMC,064219.000,A,3956.1182,N,11625.2386,E,7.09,90.69,180812,,,A*51
222,
$GPRMC,064220.000,A,3956.1179,N,11625.2412,E,7.14,90.67,180812,,,A*57
220,
$GPRMC,064221.000,A,3956.1177,N,11625.2436,E,6.90,92.54,180812,,,A*51
222,
$GPRMC,064222.000,A,3956.1173,N,11625.2462,E,7.04,90.32,180812,,,A*59
223,
$GPRMC,064223.000,A,3956.1169,N,11625.2488,E,6.88,88.59,180812,,,A*56
225,
$GPRMC,064224.000,A,3956.1167,N,11625.2511,E,5.98,86.14,180812,,,A*5B
226,
$GPRMC,064225.000,A,3956.1167,N,11625.2532,E,5.82,92.88,180812,,,A*50
226,
$GPRMC,064226.000,A,3956.1164,N,11625.2552,E,5.68,101.95,180812,,,A*65
224,
$GPRMC,064227.000,A,3956.1154,N,11625.2574,E,5.84,102.85,180812,,,A*63
224,
$GPRMC,064228.000,A,3956.1147,N,11625.2596,E,6.13,95.92,180812,,,A*56
223,
$GPRMC,064229.000,A,3956.1138,N,11625.2619,E,6.33,95.23,180812,,,A*53
224,
$GPRMC,064230.000,A,3956.1131,N,11625.2643,E,6.56,94.09,180812,,,A*57
221,
$GPRMC,064231.000,A,3956.1128,N,11625.2667,E,6.70,98.22,180812,,,A*59
219,
$GPRMC,064232.000,A,3956.1126,N,11625.2690,E,6.78,97.31,180812,,,A*59
216,
$GPRMC,064233.000,A,3956.1126,N,11625.2714,E,6.83,94.04,180812,,,A*54
215,
$GPRMC,064234.000,A,3956.1127,N,11625.2739,E,6.91,92.93,180812,,,A*56
215,
$GPRMC,064235.000,A,3956.1129,N,11625.2764,E,6.92,93.63,180812,,,A*5C
215,
$GPRMC,064236.000,A,3956.1131,N,11625.2788,E,6.77,84.13,180812,,,A*5E
212,
$GPRMC,064237.000,A,3956.1134,N,11625.2811,E,6.65,81.19,180812,,,A*59
211,
$GPRMC,064238.000,A,3956.1138,N,11625.2834,E,6.65,80.61,180812,,,A*53
211,
$GPRMC,064239.000,A,3956.1141,N,11625.2858,E,6.79,86.46,180812,,,A*58
210,
$GPRMC,064240.000,A,3956.1144,N,11625.2882,E,6.79,86.05,180812,,,A*53
205,
$GPRMC,064241.000,A,3956.1147,N,11625.2906,E,6.76,85.94,180812,,,A*58
201,
$GPRMC,064242.000,A,3956.1150,N,11625.2929,E,6.81,85.92,180812,,,A*5E
201,
$GPRMC,064243.000,A,3956.1152,N,11625.2951,E,6.79,90.50,180812,,,A*5F
201,
$GPRMC,064244.000,A,3956.1152,N,11625.2973,E,6.83,91.45,180812,,,A*58
199,
$GPRMC,064245.000,A,3956.1152,N,11625.2995,E,6.78,91.62,180812,,,A*50
198,
$GPRMC,064246.000,A,3956.1151,N,11625.3019,E,6.81,88.42,180812,,,A*50
201,
$GPRMC,064247.000,A,3956.1150,N,11625.3044,E,6.73,90.21,180812,,,A*59
203,
$GPRMC,064248.000,A,3956.1150,N,11625.3070,E,6.78,86.81,180812,,,A*57
206,
$GPRMC,064249.000,A,3956.1151,N,11625.3095,E,6.88,86.24,180812,,,A*5C
209,
$GPRMC,064250.000,A,3956.1150,N,11625.3121,E,6.91,88.88,180812,,,A*5B
211,
$GPRMC,064251.000,A,3956.1148,N,11625.3147,E,6.98,91.25,180812,,,A*55
212,
$GPRMC,064252.000,A,3956.1147,N,11625.3173,E,6.96,91.24,180812,,,A*51
210,
$GPRMC,064253.000,A,3956.1145,N,11625.3199,E,7.00,93.62,180812,,,A*58
206,
$GPRMC,064254.000,A,3956.1145,N,11625.3225,E,6.90,88.35,180812,,,A*5B
203,
$GPRMC,064255.000,A,3956.1148,N,11625.3250,E,6.91,88.44,180812,,,A*52
202,
$GPRMC,064256.000,A,3956.1151,N,11625.3275,E,6.92,86.92,180812,,,A*58
207,
$GPRMC,064257.000,A,3956.1154,N,11625.3300,E,6.95,90.37,180812,,,A*50
211,
$GPRMC,064258.000,A,3956.1156,N,11625.3325,E,6.84,88.58,180812,,,A*5A
215,
$GPRMC,064259.000,A,3956.1159,N,11625.3350,E,6.96,88.86,180812,,,A*56
215,
$GPRMC,064300.000,A,3956.1161,N,11625.3375,E,6.96,96.84,180812,,,A*5A
213,
$GPRMC,064301.000,A,3956.1161,N,11625.3400,E,6.92,97.72,180812,,,A*52
213,
$GPRMC,064302.000,A,3956.1161,N,11625.3425,E,6.91,95.77,180812,,,A*52
213,
$GPRMC,064303.000,A,3956.1162,N,11625.3449,E,6.86,92.18,180812,,,A*52
214,
$GPRMC,064304.000,A,3956.1163,N,11625.3474,E,6.88,92.37,180812,,,A*59
213,
$GPRMC,064305.000,A,3956.1167,N,11625.3498,E,6.83,87.86,180812,,,A*5B
214,
$GPRMC,064306.000,A,3956.1171,N,11625.3523,E,6.82,84.95,180812,,,A*5E
216,
$GPRMC,064307.000,A,3956.1174,N,11625.3547,E,6.87,86.17,180812,,,A*55
216,
$GPRMC,064308.000,A,3956.1177,N,11625.3572,E,6.81,90.36,180812,,,A*5D
219,
$GPRMC,064309.000,A,3956.1179,N,11625.3596,E,6.78,90.57,180812,,,A*59
222,
$GPRMC,064310.000,A,3956.1182,N,11625.3620,E,6.87,86.01,180812,,,A*5F
223,
$GPRMC,064311.000,A,3956.1185,N,11625.3645,E,6.94,85.39,180812,,,A*50
226,
$GPRMC,064312.000,A,3956.1189,N,11625.3670,E,7.02,85.66,180812,,,A*5D
228,
$GPRMC,064313.000,A,3956.1191,N,11625.3695,E,6.98,88.55,180812,,,A*51
227,
$GPRMC,064314.000,A,3956.1190,N,11625.3720,E,6.94,88.82,180812,,,A*5E
228,
$GPRMC,064315.000,A,3956.1186,N,11625.3745,E,6.98,94.01,180812,,,A*51
226,
$GPRMC,064316.000,A,3956.1184,N,11625.3770,E,6.74,91.51,180812,,,A*54
227,
$GPRMC,064317.000,A,3956.1184,N,11625.3794,E,6.77,89.05,180812,,,A*54
229,
$GPRMC,064318.000,A,3956.1185,N,11625.3819,E,6.91,88.68,180812,,,A*52
232,
$GPRMC,064319.000,A,3956.1185,N,11625.3845,E,7.03,91.34,180812,,,A*51
232,
$GPRMC,064320.000,A,3956.1185,N,11625.3871,E,7.04,89.49,180812,,,A*58
236,
$GPRMC,064321.000,A,3956.1184,N,11625.3897,E,7.07,92.43,180812,,,A*53
241,
$GPRMC,064322.000,A,3956.1185,N,11625.3922,E,7.12,91.06,180812,,,A*58
243,
$GPRMC,064323.000,A,3956.1184,N,11625.3949,E,7.18,93.84,180812,,,A*57
244,
$GPRMC,064324.000,A,3956.1184,N,11625.3975,E,7.15,90.53,180812,,,A*5B
245,
$GPRMC,064325.000,A,3956.1184,N,11625.4001,E,7.15,87.23,180812,,,A*56
242,
$GPRMC,064326.000,A,3956.1185,N,11625.4027,E,7.18,84.07,180812,,,A*58
241,
$GPRMC,064327.000,A,3956.1186,N,11625.4054,E,7.17,85.60,180812,,,A*51
238,
$GPRMC,064328.000,A,3956.1188,N,11625.4079,E,7.11,82.61,180812,,,A*5F
238,
$GPRMC,064329.000,A,3956.1191,N,11625.4105,E,7.04,83.37,180812,,,A*5A
236,
$GPRMC,064330.000,A,3956.1193,N,11625.4130,E,6.97,84.09,180812,,,A*57
235,
$GPRMC,064331.000,A,3956.1194,N,11625.4153,E,7.01,85.80,180812,,,A*5A
235,
$GPRMC,064332.000,A,3956.1195,N,11625.4178,E,7.07,88.79,180812,,,A*5C
235,
$GPRMC,064333.000,A,3956.1193,N,11625.4204,E,7.11,92.23,180812,,,A*50
239,
$GPRMC,064334.000,A,3956.1190,N,11625.4231,E,7.00,91.93,180812,,,A*5A
243,
$GPRMC,064335.000,A,3956.1187,N,11625.4258,E,7.13,91.62,180812,,,A*5E
245,
$GPRMC,064336.000,A,3956.1184,N,11625.4283,E,7.12,92.61,180812,,,A*59
242,
$GPRMC,064337.000,A,3956.1183,N,11625.4309,E,7.19,90.55,180812,,,A*52
239,
$GPRMC,064338.000,A,3956.1182,N,11625.4335,E,7.17,91.33,180812,,,A*5C
237,
$GPRMC,064339.000,A,3956.1183,N,11625.4361,E,7.16,88.24,180812,,,A*52
236,
$GPRMC,064340.000,A,3956.1183,N,11625.4387,E,7.23,89.95,180812,,,A*59
238,
$GPRMC,064341.000,A,3956.1183,N,11625.4413,E,7.25,90.83,180812,,,A*5B
239,
$GPRMC,064342.000,A,3956.1185,N,11625.4439,E,7.25,90.39,180812,,,A*57
239,
$GPRMC,064343.000,A,3956.1186,N,11625.4466,E,7.40,92.26,180812,,,A*50
241,
$GPRMC,064344.000,A,3956.1187,N,11625.4492,E,7.29,91.86,180812,,,A*5B
241,
$GPRMC,064345.000,A,3956.1189,N,11625.4519,E,7.40,87.16,180812,,,A*57
239,
$GPRMC,064346.000,A,3956.1193,N,11625.4545,E,7.39,86.64,180812,,,A*5C
236,
$GPRMC,064347.000,A,3956.1194,N,11625.4572,E,7.22,87.13,180812,,,A*55
234,
$GPRMC,064348.000,A,3956.1193,N,11625.4600,E,7.55,88.48,180812,,,A*5A
234,
$GPRMC,064349.000,A,3956.1191,N,11625.4628,E,7.52,91.47,180812,,,A*53
234,
$GPRMC,064350.000,A,3956.1191,N,11625.4656,E,7.56,92.23,180812,,,A*57
234,
$GPRMC,064351.000,A,3956.1192,N,11625.4683,E,7.53,92.68,180812,,,A*57
236,
$GPRMC,064352.000,A,3956.1193,N,11625.4710,E,7.52,89.48,180812,,,A*57
237,
$GPRMC,064353.000,A,3956.1193,N,11625.4738,E,7.66,89.59,180812,,,A*5B
233,
$GPRMC,064354.000,A,3956.1192,N,11625.4766,E,7.69,91.38,180812,,,A*57
235,
$GPRMC,064355.000,A,3956.1191,N,11625.4794,E,7.71,92.54,180812,,,A*58
231,
$GPRMC,064356.000,A,3956.1190,N,11625.4821,E,7.55,92.47,180812,,,A*5F
232,
$GPRMC,064357.000,A,3956.1189,N,11625.4847,E,7.58,91.11,180812,,,A*5B
229,
$GPRMC,064358.000,A,3956.1191,N,11625.4871,E,7.48,87.76,180812,,,A*5F
227,
$GPRMC,064359.000,A,3956.1193,N,11625.4897,E,7.40,88.60,180812,,,A*54
227,
$GPRMC,064400.000,A,3956.1194,N,11625.4921,E,7.27,92.07,180812,,,A*5F
227,
$GPRMC,064401.000,A,3956.1195,N,11625.4945,E,7.43,88.52,180812,,,A*54
232,
$GPRMC,064402.000,A,3956.1195,N,11625.4970,E,7.32,87.53,180812,,,A*59
233,
$GPRMC,064403.000,A,3956.1194,N,11625.4994,E,7.05,84.63,180812,,,A*57
229,
$GPRMC,064404.000,A,3956.1194,N,11625.5017,E,7.16,82.62,180812,,,A*56
228,
$GPRMC,064405.000,A,3956.1193,N,11625.5041,E,6.95,84.60,180812,,,A*5D
234,
$GPRMC,064406.000,A,3956.1191,N,11625.5063,E,6.73,90.67,180812,,,A*56
238,
$GPRMC,064407.000,A,3956.1192,N,11625.5084,E,6.54,88.56,180812,,,A*53
239,
$GPRMC,064408.000,A,3956.1194,N,11625.5104,E,6.09,90.84,180812,,,A*5D
240,
$GPRMC,064409.000,A,3956.1195,N,11625.5124,E,5.89,94.94,180812,,,A*51
244,
$GPRMC,064410.000,A,3956.1192,N,11625.5141,E,5.48,101.36,180812,,,A*65
246,
$GPRMC,064411.000,A,3956.1188,N,11625.5159,E,5.74,95.29,180812,,,A*5B
247,
$GPRMC,064412.000,A,3956.1187,N,11625.5176,E,5.76,91.60,180812,,,A*51
249,
$GPRMC,064413.000,A,3956.1187,N,11625.5193,E,5.39,88.64,180812,,,A*5C
250,
$GPRMC,064414.000,A,3956.1186,N,11625.5209,E,5.01,95.97,180812,,,A*51
248,
$GPRMC,064415.000,A,3956.1184,N,11625.5225,E,5.09,96.91,180812,,,A*51
247,
$GPRMC,064416.000,A,3956.1182,N,11625.5241,E,4.99,99.81,180812,,,A*50
247,
$GPRMC,064417.000,A,3956.1179,N,11625.5256,E,4.86,100.59,180812,,,A*69
249,
$GPRMC,064418.000,A,3956.1177,N,11625.5271,E,4.65,101.52,180812,,,A*6A
250,
$GPRMC,064419.000,A,3956.1174,N,11625.5286,E,4.38,90.42,180812,,,A*50
250,
$GPRMC,064420.000,A,3956.1175,N,11625.5299,E,3.91,71.26,180812,,,A*5C
250,
$GPRMC,064421.000,A,3956.1176,N,11625.5309,E,2.88,54.44,180812,,,A*5C
249,
$GPRMC,064422.000,A,3956.1177,N,11625.5311,E,2.22,17.66,180812,,,A*50
250,
$GPRMC,064423.000,A,3956.1176,N,11625.5310,E,0.52,344.71,180812,,,A*67
251,
$GPRMC,064424.000,A,3956.1172,N,11625.5306,E,0.51,277.41,180812,,,A*62
251,
$GPRMC,064425.000,A,3956.1168,N,11625.5302,E,0.26,318.81,180812,,,A*68
250,
$GPRMC,064426.000,A,3956.1164,N,11625.5299,E,0.13,196.40,180812,,,A*6B
250,
$GPRMC,064427.000,A,3956.1159,N,11625.5297,E,0.68,137.14,180812,,,A*6C
249,
$GPRMC,064428.000,A,3956.1155,N,11625.5298,E,0.47,133.15,180812,,,A*68
248,
$GPRMC,064429.000,A,3956.1151,N,11625.5298,E,0.37,174.70,180812,,,A*6A
247,
$GPRMC,064430.000,A,3956.1148,N,11625.5298,E,0.27,155.07,180812,,,A*68
246,
$GPRMC,064431.000,A,3956.1146,N,11625.5301,E,0.28,114.30,180812,,,A*68
246,
$GPRMC,064432.000,A,3956.1144,N,11625.5303,E,0.28,123.04,180812,,,A*68
246,
$GPRMC,064433.000,A,3956.1141,N,11625.5304,E,0.27,144.97,180812,,,A*6F
246,
$GPRMC,064434.000,A,3956.1140,N,11625.5305,E,0.15,7.24,180812,,,A*67
245,
$GPRMC,064435.000,A,3956.1139,N,11625.5306,E,0.33,310.04,180812,,,A*68
244,
$GPRMC,064436.000,A,3956.1137,N,11625.5305,E,0.29,53.37,180812,,,A*59
244,
$GPRMC,064437.000,A,3956.1135,N,11625.5304,E,0.22,161.29,180812,,,A*6F
244,
$GPRMC,064438.000,A,3956.1134,N,11625.5305,E,0.24,82.46,180812,,,A*53
243,
$GPRMC,064439.000,A,3956.1133,N,11625.5307,E,0.16,148.22,180812,,,A*63
243,
$GPRMC,064440.000,A,3956.1130,N,11625.5306,E,0.18,144.89,180812,,,A*6C
242,
$GPRMC,064441.000,A,3956.1128,N,11625.5305,E,0.20,163.83,180812,,,A*63
242,
$GPRMC,064442.000,A,3956.1126,N,11625.5304,E,0.23,200.78,180812,,,A*6E
241,
$GPRMC,064443.000,A,3956.1124,N,11625.5302,E,0.32,248.52,180812,,,A*6F
240,
$GPRMC,064444.000,A,3956.1122,N,11625.5300,E,0.25,189.53,180812,,,A*65
240,
$GPRMC,064445.000,A,3956.1120,N,11625.5299,E,0.20,170.72,180812,,,A*67
240,
$GPRMC,064446.000,A,3956.1118,N,11625.5297,E,0.16,163.36,180812,,,A*66
239,
$GPRMC,064447.000,A,3956.1115,N,11625.5294,E,0.09,151.61,180812,,,A*64
239,
$GPRMC,064448.000,A,3956.1113,N,11625.5291,E,0.18,172.36,180812,,,A*6B
238,
$GPRMC,064449.000,A,3956.1110,N,11625.5289,E,0.27,164.60,180812,,,A*68
238,
$GPRMC,064450.000,A,3956.1109,N,11625.5289,E,0.14,208.31,180812,,,A*65
237,
$GPRMC,064451.000,A,3956.1107,N,11625.5288,E,0.14,167.78,180812,,,A*6C
237,
$GPRMC,064452.000,A,3956.1106,N,11625.5287,E,0.26,189.59,180812,,,A*63
236,
$GPRMC,064453.000,A,3956.1104,N,11625.5287,E,0.32,210.41,180812,,,A*6F
234,
$GPRMC,064454.000,A,3956.1103,N,11625.5286,E,0.14,109.13,180812,,,A*66
234,
$GPRMC,064455.000,A,3956.1101,N,11625.5286,E,0.19,188.86,180812,,,A*6D
233,
$GPRMC,064456.000,A,3956.1100,N,11625.5285,E,0.13,210.85,180812,,,A*67
232,
$GPRMC,064457.000,A,3956.1098,N,11625.5284,E,0.13,165.54,180812,,,A*6A
232,
$GPRMC,064458.000,A,3956.1098,N,11625.5285,E,0.03,193.05,180812,,,A*68
231,
$GPRMC,064459.000,A,3956.1097,N,11625.5285,E,0.16,191.46,180812,,,A*67
231,
$GPRMC,064500.000,A,3956.1096,N,11625.5286,E,0.16,209.56,180812,,,A*6B
230,
$GPRMC,064501.000,A,3956.1095,N,11625.5287,E,0.32,196.84,180812,,,A*64
229,
$GPRMC,064502.000,A,3956.1095,N,11625.5289,E,0.11,120.38,180812,,,A*62
229,
$GPRMC,064503.000,A,3956.1095,N,11625.5292,E,0.20,161.04,180812,,,A*61
229,
$GPRMC,064504.000,A,3956.1094,N,11625.5293,E,0.43,181.52,180812,,,A*6E
229,
$GPRMC,064505.000,A,3956.1093,N,11625.5292,E,0.28,191.54,180812,,,A*63
230,
$GPRMC,064506.000,A,3956.1093,N,11625.5293,E,0.35,17.67,180812,,,A*52
230,
$GPRMC,064507.000,A,3956.1093,N,11625.5293,E,0.28,0.48,180812,,,A*64
229,
$GPRMC,064508.000,A,3956.1094,N,11625.5292,E,0.92,339.93,180812,,,A*63
225,
$GPRMC,064509.000,A,3956.1098,N,11625.5290,E,2.58,1.26,180812,,,A*6E
226,
$GPRMC,064510.000,A,3956.1102,N,11625.5287,E,1.84,343.16,180812,,,A*66
218,
$GPRMC,064511.000,A,3956.1107,N,11625.5281,E,3.83,344.14,180812,,,A*64
212,
$GPRMC,064512.000,A,3956.1115,N,11625.5275,E,3.31,349.99,180812,,,A*6E
207,
$GPRMC,064513.000,A,3956.1124,N,11625.5271,E,3.79,350.77,180812,,,A*6D
204,
$GPRMC,064514.000,A,3956.1134,N,11625.5267,E,4.09,352.10,180812,,,A*6F
202,
$GPRMC,064515.000,A,3956.1144,N,11625.5264,E,4.31,358.50,180812,,,A*6F
195,
$GPRMC,064516.000,A,3956.1155,N,11625.5261,E,4.61,355.11,180812,,,A*64
198,
$GPRMC,064517.000,A,3956.1165,N,11625.5254,E,4.62,329.28,180812,,,A*62
199,
$GPRMC,064518.000,A,3956.1175,N,11625.5244,E,4.97,324.66,180812,,,A*60
201,
$GPRMC,064519.000,A,3956.1186,N,11625.5232,E,5.18,330.66,180812,,,A*6F
205,
$GPRMC,064520.000,A,3956.1198,N,11625.5220,E,5.32,340.16,180812,,,A*61
206,
$GPRMC,064521.000,A,3956.1209,N,11625.5210,E,5.21,343.33,180812,,,A*6E
205,
$GPRMC,064522.000,A,3956.1222,N,11625.5202,E,5.48,346.37,180812,,,A*69
209,
$GPRMC,064523.000,A,3956.1236,N,11625.5195,E,5.67,351.74,180812,,,A*6C
210,
$GPRMC,064524.000,A,3956.1250,N,11625.5190,E,5.60,354.29,180812,,,A*64
212,
$GPRMC,064525.000,A,3956.1264,N,11625.5185,E,5.85,350.30,180812,,,A*61
212,
$GPRMC,064526.000,A,3956.1279,N,11625.5179,E,5.87,354.15,180812,,,A*6C
210,
$GPRMC,064527.000,A,3956.1293,N,11625.5174,E,5.89,354.82,180812,,,A*64
217,
$GPRMC,064528.000,A,3956.1308,N,11625.5170,E,6.21,346.66,180812,,,A*64
223,
$GPRMC,064529.000,A,3956.1325,N,11625.5167,E,6.36,358.67,180812,,,A*64
227,
$GPRMC,064530.000,A,3956.1342,N,11625.5167,E,6.26,359.95,180812,,,A*60
230,
$GPRMC,064531.000,A,3956.1360,N,11625.5169,E,6.56,0.76,180812,,,A*6A
232,
$GPRMC,064532.000,A,3956.1377,N,11625.5168,E,5.94,354.96,180812,,,A*6F
233,
$GPRMC,064533.000,A,3956.1394,N,11625.5168,E,6.56,2.14,180812,,,A*64
234,
$GPRMC,064534.000,A,3956.1412,N,11625.5167,E,6.34,353.40,180812,,,A*67
232,
$GPRMC,064535.000,A,3956.1428,N,11625.5162,E,6.37,353.36,180812,,,A*68
227,
$GPRMC,064536.000,A,3956.1446,N,11625.5158,E,6.55,350.78,180812,,,A*67
229,
$GPRMC,064537.000,A,3956.1463,N,11625.5155,E,6.64,359.63,180812,,,A*6D
231,
$GPRMC,064538.000,A,3956.1481,N,11625.5157,E,6.83,2.14,180812,,,A*68
228,
$GPRMC,064539.000,A,3956.1498,N,11625.5156,E,6.53,355.11,180812,,,A*69
227,
$GPRMC,064540.000,A,3956.1514,N,11625.5152,E,6.39,353.29,180812,,,A*67
227,
$GPRMC,064541.000,A,3956.1531,N,11625.5145,E,6.54,352.39,180812,,,A*6C
228,
$GPRMC,064542.000,A,3956.1549,N,11625.5142,E,6.20,353.53,180812,,,A*69
230,
$GPRMC,064543.000,A,3956.1567,N,11625.5143,E,6.63,356.87,180812,,,A*6E
229,
$GPRMC,064544.000,A,3956.1586,N,11625.5143,E,6.29,351.97,180812,,,A*6E
229,
$GPRMC,064545.000,A,3956.1605,N,11625.5142,E,6.62,356.82,180812,,,A*6A
225,
$GPRMC,064546.000,A,3956.1624,N,11625.5143,E,6.58,0.28,180812,,,A*62
224,
$GPRMC,064547.000,A,3956.1644,N,11625.5144,E,6.64,359.76,180812,,,A*69
224,
$GPRMC,064548.000,A,3956.1664,N,11625.5145,E,6.74,356.05,180812,,,A*6F
223,
$GPRMC,064549.000,A,3956.1684,N,11625.5145,E,6.90,354.18,180812,,,A*64
219,
$GPRMC,064550.000,A,3956.1704,N,11625.5145,E,6.87,354.13,180812,,,A*68
216,
$GPRMC,064551.000,A,3956.1724,N,11625.5143,E,6.82,357.23,180812,,,A*68
217,
$GPRMC,064552.000,A,3956.1744,N,11625.5143,E,6.90,358.08,180812,,,A*68
217,
$GPRMC,064553.000,A,3956.1765,N,11625.5144,E,6.91,356.87,180812,,,A*65
218,
$GPRMC,064554.000,A,3956.1785,N,11625.5144,E,6.89,358.04,180812,,,A*60
220,
$GPRMC,064555.000,A,3956.1805,N,11625.5144,E,6.78,359.75,180812,,,A*6F
218,
$GPRMC,064556.000,A,3956.1824,N,11625.5145,E,6.71,0.48,180812,,,A*66
215,
$GPRMC,064557.000,A,3956.1844,N,11625.5145,E,6.74,359.43,180812,,,A*60
217,
$GPRMC,064558.000,A,3956.1864,N,11625.5146,E,6.71,358.21,180812,,,A*6E
210,
$GPRMC,064559.000,A,3956.1884,N,11625.5146,E,6.78,356.16,180812,,,A*62
207,
$GPRMC,064600.000,A,3956.1903,N,11625.5146,E,6.73,356.92,180812,,,A*64
209,
$GPRMC,064601.000,A,3956.1923,N,11625.5147,E,6.76,356.42,180812,,,A*6E
210,
$GPRMC,064602.000,A,3956.1943,N,11625.5147,E,6.66,358.65,180812,,,A*61
214,
$GPRMC,064603.000,A,3956.1963,N,11625.5150,E,6.59,359.58,180812,,,A*67
220,
$GPRMC,064604.000,A,3956.1981,N,11625.5153,E,6.59,0.29,180812,,,A*66
220,
$GPRMC,064605.000,A,3956.2000,N,11625.5157,E,6.54,3.03,180812,,,A*66
223,
$GPRMC,064606.000,A,3956.2019,N,11625.5161,E,6.56,2.22,180812,,,A*68
224,
$GPRMC,064607.000,A,3956.2038,N,11625.5163,E,6.56,0.16,180812,,,A*6D
223,
$GPRMC,064608.000,A,3956.2055,N,11625.5161,E,6.48,355.03,180812,,,A*63
224,
$GPRMC,064609.000,A,3956.2072,N,11625.5156,E,6.43,351.27,180812,,,A*6A
227,
$GPRMC,064610.000,A,3956.2090,N,11625.5151,E,6.44,353.56,180812,,,A*6A
228,
$GPRMC,064611.000,A,3956.2108,N,11625.5150,E,6.47,356.57,180812,,,A*6D
229,
$GPRMC,064612.000,A,3956.2127,N,11625.5150,E,6.38,357.37,180812,,,A*6C
229,
$GPRMC,064613.000,A,3956.2145,N,11625.5149,E,6.61,355.97,180812,,,A*65
230,
$GPRMC,064614.000,A,3956.2164,N,11625.5147,E,6.61,357.60,180812,,,A*65
231,
$GPRMC,064615.000,A,3956.2184,N,11625.5147,E,6.61,355.33,180812,,,A*6E
233,
$GPRMC,064616.000,A,3956.2203,N,11625.5147,E,6.49,357.50,180812,,,A*6C
235,
$GPRMC,064617.000,A,3956.2222,N,11625.5147,E,5.88,354.97,180812,,,A*68
236,
$GPRMC,064618.000,A,3956.2237,N,11625.5147,E,4.78,355.95,180812,,,A*6E
234,
$GPRMC,064619.000,A,3956.2251,N,11625.5147,E,4.73,354.94,180812,,,A*64
234,
$GPRMC,064620.000,A,3956.2265,N,11625.5147,E,4.54,355.94,180812,,,A*6D
234,
$GPRMC,064621.000,A,3956.2279,N,11625.5147,E,5.05,1.04,180812,,,A*6F
233,
$GPRMC,064622.000,A,3956.2294,N,11625.5149,E,5.29,4.60,180812,,,A*68
230,
$GPRMC,064623.000,A,3956.2311,N,11625.5152,E,5.67,358.66,180812,,,A*69
223,
$GPRMC,064624.000,A,3956.2329,N,11625.5154,E,5.89,0.21,180812,,,A*6E
212,
$GPRMC,064625.000,A,3956.2346,N,11625.5154,E,6.04,356.85,180812,,,A*6E
208,
$GPRMC,064626.000,A,3956.2364,N,11625.5155,E,6.09,358.82,180812,,,A*68
210,
$GPRMC,064627.000,A,3956.2382,N,11625.5156,E,6.11,355.32,180812,,,A*6D
213,
$GPRMC,064628.000,A,3956.2401,N,11625.5158,E,6.24,353.58,180812,,,A*6C
218,
$GPRMC,064629.000,A,3956.2419,N,11625.5159,E,6.32,356.80,180812,,,A*62
217,
$GPRMC,064630.000,A,3956.2437,N,11625.5158,E,6.38,358.46,180812,,,A*69
223,
$GPRMC,064631.000,A,3956.2455,N,11625.5158,E,6.41,356.10,180812,,,A*6F
226,
$GPRMC,064632.000,A,3956.2473,N,11625.5155,E,6.57,353.97,180812,,,A*68
228,
$GPRMC,064633.000,A,3956.2491,N,11625.5150,E,6.41,347.72,180812,,,A*69
231,
$GPRMC,064634.000,A,3956.2509,N,11625.5145,E,6.48,355.03,180812,,,A*66
231,
$GPRMC,064635.000,A,3956.2526,N,11625.5142,E,6.59,1.28,180812,,,A*66
233,
$GPRMC,064636.000,A,3956.2544,N,11625.5138,E,6.54,355.70,180812,,,A*6E
235,
$GPRMC,064637.000,A,3956.2561,N,11625.5132,E,6.54,357.14,180812,,,A*62
235,
$GPRMC,064638.000,A,3956.2579,N,11625.5128,E,6.47,0.83,180812,,,A*62
238,
$GPRMC,064639.000,A,3956.2596,N,11625.5123,E,6.64,356.89,180812,,,A*62
238,
$GPRMC,064640.000,A,3956.2614,N,11625.5120,E,6.60,358.25,180812,,,A*6A
239,
$GPRMC,064641.000,A,3956.2633,N,11625.5119,E,6.57,357.58,180812,,,A*65
239,
$GPRMC,064642.000,A,3956.2652,N,11625.5120,E,6.58,1.03,180812,,,A*6A
239,
$GPRMC,064643.000,A,3956.2671,N,11625.5121,E,6.45,356.34,180812,,,A*62
240,
$GPRMC,064644.000,A,3956.2689,N,11625.5118,E,6.43,346.90,180812,,,A*61
239,
$GPRMC,064645.000,A,3956.2707,N,11625.5113,E,6.57,347.71,180812,,,A*67
238,
$GPRMC,064646.000,A,3956.2726,N,11625.5111,E,6.51,346.04,180812,,,A*60
237,
$GPRMC,064647.000,A,3956.2746,N,11625.5110,E,6.49,350.06,180812,,,A*6A
238,
$GPRMC,064648.000,A,3956.2766,N,11625.5111,E,6.75,347.95,180812,,,A*65
238,
$GPRMC,064649.000,A,3956.2786,N,11625.5112,E,6.33,346.30,180812,,,A*65
235,
$GPRMC,064650.000,A,3956.2805,N,11625.5113,E,6.25,345.46,180812,,,A*6D
232,
$GPRMC,064651.000,A,3956.2827,N,11625.5117,E,6.55,349.62,180812,,,A*65
231,
$GPRMC,064652.000,A,3956.2845,N,11625.5114,E,6.54,349.00,180812,,,A*64
226,
$GPRMC,064653.000,A,3956.2863,N,11625.5109,E,6.59,350.21,180812,,,A*6B
218,
$GPRMC,064654.000,A,3956.2883,N,11625.5109,E,6.60,352.58,180812,,,A*64
220,
$GPRMC,064655.000,A,3956.2900,N,11625.5107,E,6.14,353.66,180812,,,A*6E
224,
$GPRMC,064656.000,A,3956.2918,N,11625.5107,E,6.49,357.23,180812,,,A*69
227,
$GPRMC,064657.000,A,3956.2934,N,11625.5105,E,6.44,352.33,180812,,,A*6D
229,
$GPRMC,064658.000,A,3956.2952,N,11625.5102,E,6.32,349.05,180812,,,A*6B
231,
$GPRMC,064659.000,A,3956.2967,N,11625.5097,E,5.61,346.49,180812,,,A*63
232,
$GPRMC,064700.000,A,3956.2979,N,11625.5089,E,4.43,338.08,180812,,,A*63
232,
$GPRMC,064701.000,A,3956.2990,N,11625.5081,E,4.76,351.89,180812,,,A*6D
232,
$GPRMC,064702.000,A,3956.3004,N,11625.5079,E,4.90,3.52,180812,,,A*66
230,
$GPRMC,064703.000,A,3956.3017,N,11625.5081,E,5.00,2.91,180812,,,A*64
229,
$GPRMC,064704.000,A,3956.3031,N,11625.5083,E,5.00,359.53,180812,,,A*66
227,
$GPRMC,064705.000,A,3956.3044,N,11625.5084,E,5.17,1.99,180812,,,A*6C
228,
$GPRMC,064706.000,A,3956.3058,N,11625.5086,E,4.83,354.34,180812,,,A*68
229,
$GPRMC,064707.000,A,3956.3071,N,11625.5086,E,5.06,354.59,180812,,,A*65
229,
$GPRMC,064708.000,A,3956.3083,N,11625.5086,E,4.81,353.08,180812,,,A*6A
228,
$GPRMC,064709.000,A,3956.3094,N,11625.5086,E,4.33,348.59,180812,,,A*6A
229,
$GPRMC,064710.000,A,3956.3105,N,11625.5087,E,4.42,350.98,180812,,,A*68
230,
$GPRMC,064711.000,A,3956.3116,N,11625.5089,E,3.85,356.04,180812,,,A*6A
230,
$GPRMC,064712.000,A,3956.3125,N,11625.5090,E,3.36,357.99,180812,,,A*6C
231,
$GPRMC,064713.000,A,3956.3131,N,11625.5090,E,3.34,6.39,180812,,,A*67
231,
$GPRMC,064714.000,A,3956.3138,N,11625.5094,E,3.30,10.82,180812,,,A*5E
231,
$GPRMC,064715.000,A,3956.3146,N,11625.5094,E,3.10,2.23,180812,,,A*6C
230,
$GPRMC,064716.000,A,3956.3153,N,11625.5100,E,2.64,40.09,180812,,,A*5B
230,
$GPRMC,064717.000,A,3956.3161,N,11625.5108,E,2.25,9.41,180812,,,A*67
230,
$GPRMC,064718.000,A,3956.3167,N,11625.5113,E,1.44,10.73,180812,,,A*59
230,
$GPRMC,064719.000,A,3956.3172,N,11625.5118,E,0.87,34.75,180812,,,A*59
230,
$GPRMC,064720.000,A,3956.3175,N,11625.5124,E,0.84,10.21,180812,,,A*5F
230,
$GPRMC,064721.000,A,3956.3177,N,11625.5130,E,0.68,77.33,180812,,,A*59
229,
$GPRMC,064722.000,A,3956.3177,N,11625.5138,E,1.03,131.30,180812,,,A*6E
227,
$GPRMC,064723.000,A,3956.3175,N,11625.5146,E,0.49,165.38,180812,,,A*62
227,
$GPRMC,064724.000,A,3956.3174,N,11625.5151,E,0.32,154.63,180812,,,A*62
226,
$GPRMC,064725.000,A,3956.3173,N,11625.5157,E,0.22,140.45,180812,,,A*62
226,
$GPRMC,064726.000,A,3956.3173,N,11625.5162,E,0.17,96.95,180812,,,A*56
226,
$GPRMC,064727.000,A,3956.3174,N,11625.5167,E,0.02,257.38,180812,,,A*69
225,
$GPRMC,064728.000,A,3956.3175,N,11625.5171,E,0.09,93.04,180812,,,A*5E
225,
$GPRMC,064729.000,A,3956.3174,N,11625.5173,E,0.26,196.54,180812,,,A*60
223,
$GPRMC,064730.000,A,3956.3174,N,11625.5175,E,0.26,216.33,180812,,,A*64
221,
$GPRMC,064731.000,A,3956.3173,N,11625.5176,E,0.73,178.16,180812,,,A*6D
223,
$GPRMC,064732.000,A,3956.3172,N,11625.5178,E,0.12,200.17,180812,,,A*6B
223,
$GPRMC,064733.000,A,3956.3173,N,11625.5181,E,0.12,151.52,180812,,,A*6B
221,
$GPRMC,064734.000,A,3956.3174,N,11625.5183,E,0.15,141.89,180812,,,A*69
219,
$GPRMC,064735.000,A,3956.3175,N,11625.5184,E,0.14,146.88,180812,,,A*69
217,
$GPRMC,064736.000,A,3956.3175,N,11625.5186,E,0.27,163.11,180812,,,A*6F
217,
$GPRMC,064737.000,A,3956.3176,N,11625.5187,E,0.17,148.03,180812,,,A*65
217,
$GPRMC,064738.000,A,3956.3176,N,11625.5188,E,0.15,157.48,180812,,,A*66
217,
$GPRMC,064739.000,A,3956.3177,N,11625.5188,E,0.12,164.41,180812,,,A*68
217,
$GPRMC,064740.000,A,3956.3177,N,11625.5189,E,0.25,163.59,180812,,,A*6D
218,
$GPRMC,064741.000,A,3956.3178,N,11625.5189,E,0.13,161.91,180812,,,A*60
218,
$GPRMC,064742.000,A,3956.3179,N,11625.5190,E,0.09,155.99,180812,,,A*6E
219,
$GPRMC,064743.000,A,3956.3180,N,11625.5189,E,0.11,169.68,180812,,,A*69
220,
$GPRMC,064744.000,A,3956.3182,N,11625.5188,E,0.10,175.92,180812,,,A*64
221,
$GPRMC,064745.000,A,3956.3184,N,11625.5187,E,0.09,185.49,180812,,,A*6D
222,
$GPRMC,064746.000,A,3956.3187,N,11625.5186,E,0.05,189.71,180812,,,A*67
223,
$GPRMC,064747.000,A,3956.3189,N,11625.5185,E,0.05,326.49,180812,,,A*67
223,
$GPRMC,064748.000,A,3956.3190,N,11625.5184,E,0.03,297.22,180812,,,A*61
223,
$GPRMC,064749.000,A,3956.3188,N,11625.5186,E,0.07,100.93,180812,,,A*68
224,
$GPRMC,064750.000,A,3956.3189,N,11625.5185,E,0.12,299.89,180812,,,A*6E
224,
$GPRMC,064751.000,A,3956.3189,N,11625.5185,E,0.13,165.72,180812,,,A*6A
223,
$GPRMC,064752.000,A,3956.3189,N,11625.5185,E,0.40,160.72,180812,,,A*6A
223,
$GPRMC,064753.000,A,3956.3184,N,11625.5187,E,0.33,169.94,180812,,,A*61
224,
$GPRMC,064754.000,A,3956.3184,N,11625.5188,E,0.60,357.60,180812,,,A*6B
224,
$GPRMC,064755.000,A,3956.3187,N,11625.5187,E,1.83,345.39,180812,,,A*65
224,
$GPRMC,064756.000,A,3956.3190,N,11625.5187,E,0.19,90.39,180812,,,A*59
224,
$GPRMC,064757.000,A,3956.3189,N,11625.5188,E,0.42,207.75,180812,,,A*65
224,
$GPRMC,064758.000,A,3956.3188,N,11625.5188,E,0.33,186.53,180812,,,A*63
224,
$GPRMC,064759.000,A,3956.3189,N,11625.5187,E,0.69,10.01,180812,,,A*5A
224,
$GPRMC,064800.000,A,3956.3189,N,11625.5188,E,0.35,139.20,180812,,,A*66
225,
$GPRMC,064801.000,A,3956.3189,N,11625.5187,E,0.27,179.58,180812,,,A*60
225,
$GPRMC,064802.000,A,3956.3188,N,11625.5187,E,0.10,168.09,180812,,,A*62
225,
$GPRMC,064803.000,A,3956.3186,N,11625.5188,E,0.08,222.28,180812,,,A*65
224,
$GPRMC,064804.000,A,3956.3185,N,11625.5189,E,0.10,206.85,180812,,,A*68
224,
$GPRMC,064805.000,A,3956.3182,N,11625.5191,E,0.16,171.14,180812,,,A*6A
224,
$GPRMC,064806.000,A,3956.3179,N,11625.5193,E,0.27,161.22,180812,,,A*69
224,
$GPRMC,064807.000,A,3956.3176,N,11625.5196,E,0.22,163.68,180812,,,A*6B
224,
$GPRMC,064808.000,A,3956.3173,N,11625.5198,E,0.19,165.10,180812,,,A*6E
224,
$GPRMC,064809.000,A,3956.3171,N,11625.5199,E,0.15,151.64,180812,,,A*64
223,
$GPRMC,064810.000,A,3956.3169,N,11625.5200,E,0.16,171.70,180812,,,A*62
223,
$GPRMC,064811.000,A,3956.3167,N,11625.5201,E,0.17,135.24,180812,,,A*6C
223,
$GPRMC,064812.000,A,3956.3166,N,11625.5202,E,0.14,165.48,180812,,,A*61
223,
$GPRMC,064813.000,A,3956.3165,N,11625.5202,E,0.17,169.72,180812,,,A*65
223,
$GPRMC,064814.000,A,3956.3164,N,11625.5202,E,0.15,167.39,180812,,,A*60
223,
$GPRMC,064815.000,A,3956.3163,N,11625.5202,E,0.17,162.15,180812,,,A*6F
223,
$GPRMC,064816.000,A,3956.3162,N,11625.5203,E,0.17,140.62,180812,,,A*6C
223,
$GPRMC,064817.000,A,3956.3162,N,11625.5204,E,0.11,195.63,180812,,,A*65
223,
$GPRMC,064818.000,A,3956.3161,N,11625.5205,E,0.23,119.38,180812,,,A*63
222,
$GPRMC,064819.000,A,3956.3161,N,11625.5208,E,0.13,165.59,180812,,,A*60
222,
$GPRMC,064820.000,A,3956.3160,N,11625.5209,E,0.13,262.26,180812,,,A*66
221,
$GPRMC,064821.000,A,3956.3160,N,11625.5211,E,0.33,125.45,180812,,,A*69
221,
$GPRMC,064822.000,A,3956.3159,N,11625.5214,E,0.28,126.02,180812,,,A*6F
220,
$GPRMC,064823.000,A,3956.3159,N,11625.5215,E,0.16,216.27,180812,,,A*65
219,
$GPRMC,064824.000,A,3956.3160,N,11625.5215,E,0.21,194.46,180812,,,A*62
219,
$GPRMC,064825.000,A,3956.3160,N,11625.5217,E,0.37,164.30,180812,,,A*68
218,
$GPRMC,064826.000,A,3956.3160,N,11625.5219,E,0.15,57.55,180812,,,A*57
218,
$GPRMC,064827.000,A,3956.3162,N,11625.5220,E,0.56,152.93,180812,,,A*67
218,
$GPRMC,064828.000,A,3956.3162,N,11625.5220,E,0.21,19.44,180812,,,A*5C
218,
$GPRMC,064829.000,A,3956.3164,N,11625.5215,E,1.90,342.08,180812,,,A*63
218,
$GPRMC,064830.000,A,3956.3167,N,11625.5208,E,2.61,295.02,180812,,,A*68
217,
$GPRMC,064831.000,A,3956.3170,N,11625.5196,E,2.27,315.83,180812,,,A*69
217,
$GPRMC,064832.000,A,3956.3170,N,11625.5190,E,0.44,305.53,180812,,,A*67
217,
$GPRMC,064833.000,A,3956.3169,N,11625.5185,E,0.20,238.38,180812,,,A*6A
217,
$GPRMC,064834.000,A,3956.3170,N,11625.5181,E,0.10,213.49,180812,,,A*6D
216,
$GPRMC,064835.000,A,3956.3172,N,11625.5177,E,0.10,257.53,180812,,,A*6C
216,
$GPRMC,064836.000,A,3956.3174,N,11625.5174,E,0.23,225.58,180812,,,A*64
216,
$GPRMC,064837.000,A,3956.3177,N,11625.5172,E,0.25,22.01,180812,,,A*5F
216,
$GPRMC,064838.000,A,3956.3181,N,11625.5172,E,0.11,113.11,180812,,,A*6C
216,
$GPRMC,064839.000,A,3956.3184,N,11625.5172,E,0.09,142.96,180812,,,A*6A
216,
$GPRMC,064840.000,A,3956.3185,N,11625.5171,E,0.23,165.42,180812,,,A*62
216,
$GPRMC,064841.000,A,3956.3186,N,11625.5171,E,0.14,177.93,180812,,,A*6B
216,
$GPRMC,064842.000,A,3956.3189,N,11625.5170,E,0.10,164.36,180812,,,A*6F
216,
$GPRMC,064843.000,A,3956.3192,N,11625.5169,E,0.04,338.69,180812,,,A*68
216,
$GPRMC,064844.000,A,3956.3195,N,11625.5167,E,0.11,337.67,180812,,,A*63
216,
$GPRMC,064845.000,A,3956.3199,N,11625.5166,E,0.24,344.76,180812,,,A*6D
216,
$GPRMC,064846.000,A,3956.3202,N,11625.5164,E,0.15,192.44,180812,,,A*67
216,
$GPRMC,064847.000,A,3956.3203,N,11625.5164,E,0.08,185.95,180812,,,A*61
217,
$GPRMC,064848.000,A,3956.3203,N,11625.5163,E,0.18,171.84,180812,,,A*63
216,
$GPRMC,064849.000,A,3956.3205,N,11625.5164,E,0.14,182.74,180812,,,A*6C
216,
$GPRMC,064850.000,A,3956.3206,N,11625.5164,E,0.19,191.37,180812,,,A*6F
216,
$GPRMC,064851.000,A,3956.3208,N,11625.5165,E,0.16,177.93,180812,,,A*68
215,
$GPRMC,064852.000,A,3956.3209,N,11625.5165,E,0.17,204.97,180812,,,A*68
215,
$GPRMC,064853.000,A,3956.3211,N,11625.5165,E,0.19,177.39,180812,,,A*6D
215,
$GPRMC,064854.000,A,3956.3212,N,11625.5167,E,0.09,149.55,180812,,,A*6D
215,
$GPRMC,064855.000,A,3956.3213,N,11625.5166,E,0.88,278.69,180812,,,A*6B
215,
$GPRMC,064856.000,A,3956.3214,N,11625.5165,E,0.41,109.68,180812,,,A*6D
214,
$GPRMC,064857.000,A,3956.3214,N,11625.5166,E,0.30,117.36,180812,,,A*6D
211,
$GPRMC,064858.000,A,3956.3214,N,11625.5168,E,0.52,150.59,180812,,,A*62
209,
$GPRMC,064859.000,A,3956.3214,N,11625.5170,E,0.16,190.49,180812,,,A*67
206,
$GPRMC,064900.000,A,3956.3215,N,11625.5172,E,0.34,173.57,180812,,,A*6B
205,
$GPRMC,064901.000,A,3956.3216,N,11625.5174,E,0.07,221.35,180812,,,A*6F
205,
$GPRMC,064902.000,A,3956.3215,N,11625.5175,E,0.24,313.67,180812,,,A*68
206,
$GPRMC,064903.000,A,3956.3214,N,11625.5176,E,0.09,225.71,180812,,,A*67
206,
$GPRMC,064904.000,A,3956.3212,N,11625.5177,E,0.15,198.40,180812,,,A*6D
206,
$GPRMC,064905.000,A,3956.3212,N,11625.5179,E,0.05,359.96,180812,,,A*67
205,
$GPRMC,064906.000,A,3956.3211,N,11625.5181,E,0.07,173.09,180812,,,A*6E
205,
$GPRMC,064907.000,A,3956.3211,N,11625.5183,E,0.20,171.45,180812,,,A*62
205,
$GPRMC,064908.000,A,3956.3214,N,11625.5183,E,0.23,352.40,180812,,,A*6D
207,
$GPRMC,064909.000,A,3956.3215,N,11625.5183,E,0.34,352.65,180812,,,A*6C
207,
$GPRMC,064910.000,A,3956.3215,N,11625.5184,E,0.13,214.89,180812,,,A*67
208,
$GPRMC,064911.000,A,3956.3214,N,11625.5185,E,0.12,202.11,180812,,,A*61
208,
$GPRMC,064912.000,A,3956.3213,N,11625.5186,E,0.13,210.21,180812,,,A*67
207,
$GPRMC,064913.000,A,3956.3210,N,11625.5187,E,0.13,197.19,180812,,,A*63
208,
$GPRMC,064914.000,A,3956.3209,N,11625.5188,E,0.13,184.83,180812,,,A*62
209,
$GPRMC,064915.000,A,3956.3208,N,11625.5188,E,0.17,205.68,180812,,,A*69
210,
$GPRMC,064916.000,A,3956.3208,N,11625.5189,E,0.11,191.22,180812,,,A*6D
211,
$GPRMC,064917.000,A,3956.3208,N,11625.5190,E,0.13,205.24,180812,,,A*6E
211,
$GPRMC,064918.000,A,3956.3208,N,11625.5189,E,0.20,221.99,180812,,,A*69
212,
$GPRMC,064919.000,A,3956.3208,N,11625.5189,E,0.14,168.35,180812,,,A*67
213,
$GPRMC,064920.000,A,3956.3208,N,11625.5189,E,0.18,195.16,180812,,,A*62
215,
$GPRMC,064921.000,A,3956.3208,N,11625.5188,E,0.18,195.22,180812,,,A*65
216,
$GPRMC,064922.000,A,3956.3207,N,11625.5187,E,0.16,149.66,180812,,,A*69
216,
$GPRMC,064923.000,A,3956.3207,N,11625.5186,E,0.14,144.80,180812,,,A*6E
215,
$GPRMC,064924.000,A,3956.3207,N,11625.5186,E,0.15,159.46,180812,,,A*6E
215,
$GPRMC,064925.000,A,3956.3206,N,11625.5185,E,0.16,165.26,180812,,,A*67
216,
$GPRMC,064926.000,A,3956.3206,N,11625.5185,E,0.18,195.10,180812,,,A*60
217,
$GPRMC,064927.000,A,3956.3205,N,11625.5184,E,0.16,199.82,180812,,,A*6A
217,
$GPRMC,064928.000,A,3956.3205,N,11625.5184,E,0.12,165.81,180812,,,A*61
217,
$GPRMC,064929.000,A,3956.3205,N,11625.5184,E,0.14,176.31,180812,,,A*6F
217,
$GPRMC,064930.000,A,3956.3204,N,11625.5184,E,0.14,182.74,180812,,,A*6C
217,
$GPRMC,064931.000,A,3956.3204,N,11625.5184,E,0.18,183.78,180812,,,A*6C
217,
$GPRMC,064932.000,A,3956.3204,N,11625.5183,E,0.05,0.51,180812,,,A*65
217,
$GPRMC,064933.000,A,3956.3204,N,11625.5181,E,0.21,241.79,180812,,,A*6D
217,
$GPRMC,064934.000,A,3956.3203,N,11625.5180,E,0.16,160.39,180812,,,A*6C
217,
$GPRMC,064935.000,A,3956.3203,N,11625.5179,E,0.22,185.03,180812,,,A*6E
216,
$GPRMC,064936.000,A,3956.3202,N,11625.5179,E,0.65,128.30,180812,,,A*68
215,
$GPRMC,064937.000,A,3956.3201,N,11625.5177,E,0.19,187.37,180812,,,A*6D
215,
$GPRMC,064938.000,A,3956.3200,N,11625.5175,E,0.28,209.42,180812,,,A*64
214,
$GPRMC,064939.000,A,3956.3199,N,11625.5169,E,0.19,222.21,180812,,,A*65
213,
$GPRMC,064940.000,A,3956.3198,N,11625.5166,E,0.17,168.20,180812,,,A*67
212,
$GPRMC,064941.000,A,3956.3196,N,11625.5162,E,0.24,225.68,180812,,,A*6A
211,
$GPRMC,064942.000,A,3956.3193,N,11625.5157,E,0.38,269.98,180812,,,A*60
211,
$GPRMC,064943.000,A,3956.3190,N,11625.5152,E,0.34,217.70,180812,,,A*64
212,
$GPRMC,064944.000,A,3956.3186,N,11625.5148,E,0.23,212.97,180812,,,A*65
213,
$GPRMC,064945.000,A,3956.3184,N,11625.5146,E,0.22,208.90,180812,,,A*65
214,
$GPRMC,064946.000,A,3956.3182,N,11625.5146,E,0.20,207.78,180812,,,A*6B
214,
$GPRMC,064947.000,A,3956.3180,N,11625.5146,E,0.14,183.87,180812,,,A*60
214,
$GPRMC,064948.000,A,3956.3179,N,11625.5147,E,0.14,194.44,180812,,,A*61
214,
$GPRMC,064949.000,A,3956.3178,N,11625.5147,E,0.20,211.23,180812,,,A*69
217,
$GPRMC,064950.000,A,3956.3177,N,11625.5148,E,0.16,195.30,180812,,,A*69
217,
$GPRMC,064951.000,A,3956.3178,N,11625.5150,E,0.11,161.35,180812,,,A*67
217,
$GPRMC,064952.000,A,3956.3178,N,11625.5152,E,0.16,162.27,180812,,,A*61
216,
$GPRMC,064953.000,A,3956.3179,N,11625.5154,E,0.15,193.99,180812,,,A*6F
215,
$GPRMC,064954.000,A,3956.3179,N,11625.5155,E,0.22,225.74,180812,,,A*60
214,
$GPRMC,064955.000,A,3956.3180,N,11625.5159,E,0.14,134.53,180812,,,A*68
214,
$GPRMC,064956.000,A,3956.3182,N,11625.5165,E,0.33,75.31,180812,,,A*53
214,
$GPRMC,064957.000,A,3956.3184,N,11625.5170,E,0.28,88.86,180812,,,A*54
214,
