$GPRMC,075307.000,A,3955.8920,N,11622.0208,E,0.13,159.62,180812,,,A*64
228,
$GPRMC,075308.000,A,3955.8907,N,11622.0214,E,0.36,244.89,180812,,,A*6E
229,
$GPRMC,075309.000,A,3955.8903,N,11622.0225,E,0.26,46.53,180812,,,A*5F
230,
$GPRMC,075310.000,A,3955.8899,N,11622.0231,E,0.40,127.98,180812,,,A*61
230,
$GPRMC,075311.000,A,3955.8890,N,11622.0235,E,0.73,165.69,180812,,,A*65
231,
$GPRMC,075312.000,A,3955.8891,N,11622.0238,E,0.41,188.17,180812,,,A*61
231,
$GPRMC,075313.000,A,3955.8891,N,11622.0237,E,0.14,329.78,180812,,,A*6F
231,
$GPRMC,075314.000,A,3955.8896,N,11622.0236,E,0.20,32.91,180812,,,A*57
231,
$GPRMC,075315.000,A,3955.8898,N,11622.0236,E,0.37,166.76,180812,,,A*67
231,
$GPRMC,075316.000,A,3955.8898,N,11622.0238,E,0.35,188.27,180812,,,A*6C
231,
$GPRMC,075317.000,A,3955.8899,N,11622.0240,E,0.32,194.50,180812,,,A*69
230,
$GPRMC,075318.000,A,3955.8900,N,11622.0242,E,0.38,182.08,180812,,,A*65
230,
$GPRMC,075319.000,A,3955.8900,N,11622.0241,E,0.12,217.70,180812,,,A*6F
230,
$GPRMC,075320.000,A,3955.8901,N,11622.0240,E,0.19,279.17,180812,,,A*67
230,
$GPRMC,075321.000,A,3955.8903,N,11622.0238,E,0.90,248.66,180812,,,A*6E
230,
$GPRMC,075322.000,A,3955.8903,N,11622.0232,E,1.95,278.88,180812,,,A*60
229,
$GPRMC,075323.000,A,3955.8904,N,11622.0226,E,2.05,261.90,180812,,,A*68
230,
$GPRMC,075324.000,A,3955.8901,N,11622.0216,E,2.71,248.71,180812,,,A*6E
230,
$GPRMC,075325.000,A,3955.8900,N,11622.0206,E,2.99,267.77,180812,,,A*62
230,
$GPRMC,075326.000,A,3955.8901,N,11622.0196,E,3.00,295.93,180812,,,A*6C
232,
$GPRMC,075327.000,A,3955.8904,N,11622.0187,E,3.03,303.22,180812,,,A*6F
231,
$GPRMC,075328.000,A,3955.8910,N,11622.0176,E,3.33,302.27,180812,,,A*6C
231,
$GPRMC,075329.000,A,3955.8916,N,11622.0169,E,3.21,327.84,180812,,,A*68
230,
$GPRMC,075330.000,A,3955.8925,N,11622.0162,E,2.93,328.92,180812,,,A*6B
230,
$GPRMC,075331.000,A,3955.8937,N,11622.0157,E,4.06,341.12,180812,,,A*62
232,
$GPRMC,075332.000,A,3955.8949,N,11622.0154,E,4.48,350.26,180812,,,A*66
232,
$GPRMC,075333.000,A,3955.8962,N,11622.0152,E,4.83,356.34,180812,,,A*6A
233,
$GPRMC,075334.000,A,3955.8976,N,11622.0151,E,4.88,0.23,180812,,,A*66
235,
$GPRMC,075335.000,A,3955.8993,N,11622.0149,E,5.36,357.56,180812,,,A*62
234,
$GPRMC,075336.000,A,3955.9008,N,11622.0146,E,5.51,353.46,180812,,,A*60
236,
$GPRMC,075337.000,A,3955.9024,N,11622.0144,E,5.57,356.65,180812,,,A*6F
237,
$GPRMC,075338.000,A,3955.9039,N,11622.0144,E,5.50,355.11,180812,,,A*6B
238,
$GPRMC,075339.000,A,3955.9054,N,11622.0142,E,5.39,1.16,180812,,,A*6D
240,
$GPRMC,075340.000,A,3955.9067,N,11622.0141,E,4.41,359.72,180812,,,A*62
241,
$GPRMC,075341.000,A,3955.9081,N,11622.0141,E,5.02,355.19,180812,,,A*6C
243,
$GPRMC,075342.000,A,3955.9095,N,11622.0139,E,4.66,355.79,180812,,,A*60
243,
$GPRMC,075343.000,A,3955.9111,N,11622.0140,E,5.10,0.76,180812,,,A*6E
243,
$GPRMC,075344.000,A,3955.9126,N,11622.0141,E,5.07,358.40,180812,,,A*61
244,
$GPRMC,075345.000,A,3955.9143,N,11622.0141,E,5.52,357.87,180812,,,A*67
244,
$GPRMC,075346.000,A,3955.9162,N,11622.0141,E,5.44,3.61,180812,,,A*6A
243,
$GPRMC,075347.000,A,3955.9177,N,11622.0141,E,5.27,3.21,180812,,,A*6E
244,
$GPRMC,075348.000,A,3955.9190,N,11622.0142,E,4.75,3.13,180812,,,A*6C
244,
$GPRMC,075349.000,A,3955.9204,N,11622.0141,E,5.19,0.29,180812,,,A*61
243,
$GPRMC,075350.000,A,3955.9219,N,11622.0141,E,4.96,7.33,180812,,,A*6F
244,
$GPRMC,075351.000,A,3955.9234,N,11622.0144,E,5.02,10.24,180812,,,A*58
243,
$GPRMC,075352.000,A,3955.9249,N,11622.0148,E,5.01,8.50,180812,,,A*64
243,
$GPRMC,075353.000,A,3955.9265,N,11622.0151,E,5.59,10.01,180812,,,A*53
242,
$GPRMC,075354.000,A,3955.9279,N,11622.0154,E,4.91,8.29,180812,,,A*6A
242,
$GPRMC,075355.000,A,3955.9294,N,11622.0155,E,4.65,8.85,180812,,,A*64
242,
$GPRMC,075356.000,A,3955.9308,N,11622.0155,E,5.00,2.89,180812,,,A*67
242,
$GPRMC,075357.000,A,3955.9321,N,11622.0150,E,4.57,350.39,180812,,,A*64
241,
$GPRMC,075358.000,A,3955.9333,N,11622.0142,E,3.62,334.43,180812,,,A*65
240,
$GPRMC,075359.000,A,3955.9343,N,11622.0135,E,3.98,349.36,180812,,,A*6E
240,
$GPRMC,075400.000,A,3955.9355,N,11622.0132,E,4.16,353.10,180812,,,A*6B
239,
$GPRMC,075401.000,A,3955.9366,N,11622.0131,E,3.14,16.27,180812,,,A*5A
239,
$GPRMC,075402.000,A,3955.9383,N,11622.0129,E,4.58,356.39,180812,,,A*6C
238,
$GPRMC,075403.000,A,3955.9398,N,11622.0127,E,4.72,348.47,180812,,,A*67
238,
$GPRMC,075404.000,A,3955.9413,N,11622.0122,E,5.07,354.33,180812,,,A*6C
238,
$GPRMC,075405.000,A,3955.9429,N,11622.0122,E,4.58,353.83,180812,,,A*63
237,
$GPRMC,075406.000,A,3955.9443,N,11622.0122,E,4.45,2.58,180812,,,A*61
237,
$GPRMC,075407.000,A,3955.9458,N,11622.0123,E,4.44,355.56,180812,,,A*65
237,
$GPRMC,075408.000,A,3955.9471,N,11622.0124,E,4.32,6.98,180812,,,A*60
237,
$GPRMC,075409.000,A,3955.9488,N,11622.0124,E,4.61,0.87,180812,,,A*69
237,
$GPRMC,075410.000,A,3955.9503,N,11622.0122,E,4.55,354.08,180812,,,A*67
237,
$GPRMC,075411.000,A,3955.9523,N,11622.0120,E,5.23,359.77,180812,,,A*63
237,
$GPRMC,075412.000,A,3955.9543,N,11622.0119,E,5.34,357.25,180812,,,A*63
237,
$GPRMC,075413.000,A,3955.9557,N,11622.0118,E,4.38,350.98,180812,,,A*6A
236,
$GPRMC,075414.000,A,3955.9574,N,11622.0118,E,5.30,359.77,180812,,,A*6D
237,
$GPRMC,075415.000,A,3955.9588,N,11622.0119,E,4.44,356.87,180812,,,A*6C
237,
$GPRMC,075416.000,A,3955.9604,N,11622.0115,E,5.13,351.70,180812,,,A*68
237,
$GPRMC,075417.000,A,3955.9621,N,11622.0116,E,5.25,6.87,180812,,,A*61
238,
$GPRMC,075418.000,A,3955.9637,N,11622.0121,E,5.81,13.89,180812,,,A*59
238,
$GPRMC,075419.000,A,3955.9654,N,11622.0124,E,5.57,1.98,180812,,,A*60
238,
$GPRMC,075420.000,A,3955.9672,N,11622.0123,E,5.69,356.15,180812,,,A*60
238,
$GPRMC,075421.000,A,3955.9689,N,11622.0123,E,5.50,0.00,180812,,,A*6B
238,
$GPRMC,075422.000,A,3955.9706,N,11622.0124,E,5.70,359.07,180812,,,A*63
238,
$GPRMC,075423.000,A,3955.9724,N,11622.0123,E,5.92,356.78,180812,,,A*6E
237,
$GPRMC,075424.000,A,3955.9741,N,11622.0122,E,5.92,357.92,180812,,,A*6E
237,
$GPRMC,075425.000,A,3955.9760,N,11622.0122,E,5.79,4.98,180812,,,A*66
237,
$GPRMC,075426.000,A,3955.9779,N,11622.0122,E,5.58,358.02,180812,,,A*67
236,
$GPRMC,075427.000,A,3955.9796,N,11622.0119,E,5.67,356.70,180812,,,A*68
235,
$GPRMC,075428.000,A,3955.9813,N,11622.0115,E,5.04,351.63,180812,,,A*69
235,
$GPRMC,075429.000,A,3955.9830,N,11622.0113,E,5.29,1.61,180812,,,A*64
234,
$GPRMC,075430.000,A,3955.9847,N,11622.0112,E,5.09,355.40,180812,,,A*6E
234,
$GPRMC,075431.000,A,3955.9863,N,11622.0110,E,4.57,358.71,180812,,,A*6E
234,
$GPRMC,075432.000,A,3955.9876,N,11622.0111,E,4.45,354.12,180812,,,A*62
234,
$GPRMC,075433.000,A,3955.9890,N,11622.0110,E,4.32,356.26,180812,,,A*6F
234,
$GPRMC,075434.000,A,3955.9905,N,11622.0110,E,4.03,354.95,180812,,,A*6D
233,
$GPRMC,075435.000,A,3955.9921,N,11622.0108,E,4.43,357.87,180812,,,A*67
235,
$GPRMC,075436.000,A,3955.9934,N,11622.0107,E,4.14,351.48,180812,,,A*68
239,
$GPRMC,075437.000,A,3955.9948,N,11622.0104,E,4.63,348.58,180812,,,A*68
241,
$GPRMC,075438.000,A,3955.9965,N,11622.0101,E,4.97,350.63,180812,,,A*67
244,
$GPRMC,075439.000,A,3955.9979,N,11622.0098,E,4.79,355.38,180812,,,A*61
246,
$GPRMC,075440.000,A,3955.9992,N,11622.0097,E,4.28,358.20,180812,,,A*65
245,
$GPRMC,075441.000,A,3956.0006,N,11622.0096,E,4.62,358.98,180812,,,A*66
245,
$GPRMC,075442.000,A,3956.0020,N,11622.0098,E,3.86,4.41,180812,,,A*6C
244,
$GPRMC,075443.000,A,3956.0034,N,11622.0100,E,3.92,7.48,180812,,,A*67
243,
$GPRMC,075444.000,A,3956.0048,N,11622.0103,E,3.63,17.34,180812,,,A*5C
243,
$GPRMC,075445.000,A,3956.0060,N,11622.0109,E,2.62,72.94,180812,,,A*54
242,
$GPRMC,075446.000,A,3956.0067,N,11622.0118,E,3.41,76.75,180812,,,A*5B
242,
$GPRMC,075447.000,A,3956.0072,N,11622.0130,E,3.82,81.05,180812,,,A*54
241,
$GPRMC,075448.000,A,3956.0078,N,11622.0142,E,3.68,86.73,180812,,,A*56
241,
$GPRMC,075449.000,A,3956.0082,N,11622.0155,E,3.89,88.95,180812,,,A*5D
240,
$GPRMC,075450.000,A,3956.0086,N,11622.0168,E,3.83,96.36,180812,,,A*53
240,
$GPRMC,075451.000,A,3956.0091,N,11622.0182,E,3.78,93.60,180812,,,A*52
240,
$GPRMC,075452.000,A,3956.0094,N,11622.0196,E,3.62,92.24,180812,,,A*5B
241,
$GPRMC,075453.000,A,3956.0095,N,11622.0209,E,3.56,101.82,180812,,,A*6E
241,
$GPRMC,075454.000,A,3956.0100,N,11622.0222,E,3.85,81.69,180812,,,A*5F
241,
$GPRMC,075455.000,A,3956.0107,N,11622.0237,E,3.76,84.93,180812,,,A*51
241,
$GPRMC,075456.000,A,3956.0114,N,11622.0251,E,3.79,90.20,180812,,,A*52
241,
$GPRMC,075457.000,A,3956.0119,N,11622.0266,E,4.02,85.53,180812,,,A*51
240,
$GPRMC,075458.000,A,3956.0126,N,11622.0279,E,4.08,85.12,180812,,,A*53
240,
$GPRMC,075459.000,A,3956.0131,N,11622.0295,E,4.07,83.05,180812,,,A*59
240,
$GPRMC,075500.000,A,3956.0138,N,11622.0308,E,4.18,80.34,180812,,,A*57
239,
$GPRMC,075501.000,A,3956.0142,N,11622.0324,E,4.35,85.85,180812,,,A*55
239,
$GPRMC,075502.000,A,3956.0148,N,11622.0339,E,4.52,82.23,180812,,,A*5A
239,
$GPRMC,075503.000,A,3956.0152,N,11622.0356,E,4.32,80.36,180812,,,A*59
238,
$GPRMC,075504.000,A,3956.0155,N,11622.0373,E,4.46,87.57,180812,,,A*5D
238,
$GPRMC,075505.000,A,3956.0157,N,11622.0392,E,4.72,78.46,180812,,,A*56
238,
$GPRMC,075506.000,A,3956.0161,N,11622.0407,E,4.10,78.65,180812,,,A*5E
238,
$GPRMC,075507.000,A,3956.0159,N,11622.0426,E,4.13,90.60,180812,,,A*57
237,
$GPRMC,075508.000,A,3956.0162,N,11622.0444,E,4.21,80.83,180812,,,A*59
237,
$GPRMC,075509.000,A,3956.0164,N,11622.0464,E,4.38,81.64,180812,,,A*5C
237,
$GPRMC,075510.000,A,3956.0168,N,11622.0485,E,4.29,83.53,180812,,,A*51
237,
$GPRMC,075511.000,A,3956.0170,N,11622.0504,E,4.07,88.36,180812,,,A*55
236,
$GPRMC,075512.000,A,3956.0172,N,11622.0522,E,3.94,81.98,180812,,,A*50
236,
$GPRMC,075513.000,A,3956.0176,N,11622.0539,E,3.69,82.46,180812,,,A*5D
236,
$GPRMC,075514.000,A,3956.0180,N,11622.0554,E,3.70,77.58,180812,,,A*55
235,
$GPRMC,075515.000,A,3956.0183,N,11622.0571,E,4.05,90.30,180812,,,A*52
235,
$GPRMC,075516.000,A,3956.0184,N,11622.0589,E,4.32,88.50,180812,,,A*5A
235,
$GPRMC,075517.000,A,3956.0184,N,11622.0607,E,4.34,88.23,180812,,,A*5C
235,
$GPRMC,075518.000,A,3956.0185,N,11622.0624,E,4.30,89.02,180812,,,A*55
235,
$GPRMC,075519.000,A,3956.0188,N,11622.0640,E,4.37,88.78,180812,,,A*50
235,
$GPRMC,075520.000,A,3956.0191,N,11622.0656,E,4.13,94.88,180812,,,A*51
234,
$GPRMC,075521.000,A,3956.0191,N,11622.0673,E,3.90,95.64,180812,,,A*58
234,
$GPRMC,075522.000,A,3956.0190,N,11622.0687,E,3.62,92.25,180812,,,A*5E
234,
$GPRMC,075523.000,A,3956.0190,N,11622.0703,E,4.15,93.29,180812,,,A*58
233,
$GPRMC,075524.000,A,3956.0191,N,11622.0719,E,3.89,85.00,180812,,,A*5B
233,
$GPRMC,075525.000,A,3956.0192,N,11622.0734,E,4.10,85.37,180812,,,A*55
233,
$GPRMC,075526.000,A,3956.0194,N,11622.0749,E,4.04,75.11,180812,,,A*54
233,
$GPRMC,075527.000,A,3956.0192,N,11622.0763,E,3.46,73.12,180812,,,A*5F
233,
$GPRMC,075528.000,A,3956.0192,N,11622.0777,E,2.51,80.21,180812,,,A*5E
232,
$GPRMC,075529.000,A,3956.0191,N,11622.0789,E,2.49,82.35,180812,,,A*53
232,
$GPRMC,075530.000,A,3956.0191,N,11622.0802,E,3.28,90.27,180812,,,A*51
231,
$GPRMC,075531.000,A,3956.0189,N,11622.0818,E,4.08,94.40,180812,,,A*52
231,
$GPRMC,075532.000,A,3956.0189,N,11622.0836,E,4.78,85.43,180812,,,A*59
231,
$GPRMC,075533.000,A,3956.0188,N,11622.0855,E,4.94,90.28,180812,,,A*57
231,
$GPRMC,075534.000,A,3956.0187,N,11622.0875,E,5.19,89.07,180812,,,A*5C
230,
$GPRMC,075535.000,A,3956.0187,N,11622.0895,E,5.50,88.58,180812,,,A*55
230,
$GPRMC,075536.000,A,3956.0186,N,11622.0915,E,5.52,85.55,180812,,,A*5C
230,
$GPRMC,075537.000,A,3956.0186,N,11622.0935,E,5.06,88.30,180812,,,A*50
230,
$GPRMC,075538.000,A,3956.0185,N,11622.0952,E,4.67,87.40,180812,,,A*53
230,
$GPRMC,075539.000,A,3956.0184,N,11622.0969,E,4.75,89.98,180812,,,A*53
230,
$GPRMC,075540.000,A,3956.0182,N,11622.0986,E,4.83,89.94,180812,,,A*5F
230,
$GPRMC,075541.000,A,3956.0181,N,11622.1003,E,4.79,85.20,180812,,,A*5E
232,
$GPRMC,075542.000,A,3956.0180,N,11622.1020,E,4.87,87.36,180812,,,A*59
233,
$GPRMC,075543.000,A,3956.0179,N,11622.1036,E,4.92,87.56,180812,,,A*5B
232,
$GPRMC,075544.000,A,3956.0178,N,11622.1054,E,5.01,86.32,180812,,,A*51
232,
$GPRMC,075545.000,A,3956.0178,N,11622.1072,E,5.04,88.28,180812,,,A*54
231,
$GPRMC,075546.000,A,3956.0177,N,11622.1089,E,5.05,87.64,180812,,,A*5A
230,
$GPRMC,075547.000,A,3956.0178,N,11622.1107,E,5.04,81.09,180812,,,A*5F
229,
$GPRMC,075548.000,A,3956.0180,N,11622.1125,E,5.05,83.86,180812,,,A*53
229,
$GPRMC,075549.000,A,3956.0181,N,11622.1143,E,4.93,83.72,180812,,,A*56
228,
$GPRMC,075550.000,A,3956.0182,N,11622.1160,E,4.97,81.93,180812,,,A*55
227,
$GPRMC,075551.000,A,3956.0183,N,11622.1178,E,5.03,83.71,180812,,,A*5E
227,
$GPRMC,075552.000,A,3956.0184,N,11622.1196,E,4.98,84.53,180812,,,A*5E
226,
$GPRMC,075553.000,A,3956.0185,N,11622.1214,E,5.01,83.11,180812,,,A*57
225,
$GPRMC,075554.000,A,3956.0186,N,11622.1232,E,5.13,84.41,180812,,,A*56
225,
$GPRMC,075555.000,A,3956.0187,N,11622.1250,E,4.94,82.31,180812,,,A*5D
225,
$GPRMC,075556.000,A,3956.0189,N,11622.1267,E,4.97,82.95,180812,,,A*59
225,
$GPRMC,075557.000,A,3956.0188,N,11622.1285,E,4.93,85.43,180812,,,A*5D
225,
$GPRMC,075558.000,A,3956.0190,N,11622.1302,E,5.02,80.69,180812,,,A*51
224,
$GPRMC,075559.000,A,3956.0191,N,11622.1321,E,5.19,85.12,180812,,,A*53
224,
$GPRMC,075600.000,A,3956.0192,N,11622.1339,E,5.26,85.30,180812,,,A*5A
225,
$GPRMC,075601.000,A,3956.0193,N,11622.1358,E,5.26,84.03,180812,,,A*5C
225,
$GPRMC,075602.000,A,3956.0196,N,11622.1377,E,4.86,85.11,180812,,,A*5E
225,
$GPRMC,075603.000,A,3956.0199,N,11622.1395,E,5.02,83.05,180812,,,A*52
225,
$GPRMC,075604.000,A,3956.0201,N,11622.1414,E,4.95,87.75,180812,,,A*55
225,
$GPRMC,075605.000,A,3956.0202,N,11622.1434,E,5.29,89.59,180812,,,A*53
225,
$GPRMC,075606.000,A,3956.0203,N,11622.1453,E,5.02,88.26,180812,,,A*50
225,
$GPRMC,075607.000,A,3956.0205,N,11622.1471,E,4.90,87.11,180812,,,A*56
225,
$GPRMC,075608.000,A,3956.0205,N,11622.1488,E,4.71,91.37,180812,,,A*53
225,
$GPRMC,075609.000,A,3956.0205,N,11622.1503,E,4.32,83.68,180812,,,A*5E
225,
$GPRMC,075610.000,A,3956.0204,N,11622.1519,E,4.21,92.28,180812,,,A*5A
225,
$GPRMC,075611.000,A,3956.0206,N,11622.1535,E,4.24,89.50,180812,,,A*57
225,
$GPRMC,075612.000,A,3956.0209,N,11622.1549,E,4.12,78.51,180812,,,A*5A
225,
$GPRMC,075613.000,A,3956.0211,N,11622.1564,E,4.36,85.54,180812,,,A*5C
225,
$GPRMC,075614.000,A,3956.0214,N,11622.1582,E,4.22,88.31,180812,,,A*5D
225,
$GPRMC,075615.000,A,3956.0217,N,11622.1600,E,4.72,87.27,180812,,,A*5B
224,
$GPRMC,075616.000,A,3956.0218,N,11622.1617,E,5.08,90.84,180812,,,A*52
224,
$GPRMC,075617.000,A,3956.0221,N,11622.1636,E,5.07,83.97,180812,,,A*55
224,
$GPRMC,075618.000,A,3956.0221,N,11622.1657,E,4.79,85.66,180812,,,A*5D
224,
$GPRMC,075619.000,A,3956.0219,N,11622.1675,E,4.96,96.75,180812,,,A*56
224,
$GPRMC,075620.000,A,3956.0217,N,11622.1693,E,5.05,94.26,180812,,,A*55
223,
$GPRMC,075621.000,A,3956.0214,N,11622.1711,E,5.19,97.17,180812,,,A*50
223,
$GPRMC,075622.000,A,3956.0211,N,11622.1729,E,4.78,94.61,180812,,,A*59
223,
$GPRMC,075623.000,A,3956.0212,N,11622.1746,E,4.94,84.20,180812,,,A*54
223,
$GPRMC,075624.000,A,3956.0214,N,11622.1765,E,5.11,82.55,180812,,,A*5C
223,
$GPRMC,075625.000,A,3956.0216,N,11622.1783,E,5.21,82.73,180812,,,A*50
223,
$GPRMC,075626.000,A,3956.0220,N,11622.1801,E,5.12,78.12,180812,,,A*51
224,
$GPRMC,075627.000,A,3956.0223,N,11622.1819,E,5.46,80.21,180812,,,A*5C
224,
$GPRMC,075628.000,A,3956.0226,N,11622.1839,E,5.54,79.80,180812,,,A*5A
224,
$GPRMC,075629.000,A,3956.0228,N,11622.1858,E,5.41,84.42,180812,,,A*5A
224,
$GPRMC,075630.000,A,3956.0229,N,11622.1878,E,5.53,89.41,180812,,,A*5C
224,
$GPRMC,075631.000,A,3956.0230,N,11622.1897,E,5.55,92.08,180812,,,A*55
224,
$GPRMC,075632.000,A,3956.0230,N,11622.1917,E,5.61,89.81,180812,,,A*53
224,
$GPRMC,075633.000,A,3956.0229,N,11622.1937,E,5.76,89.50,180812,,,A*52
224,
$GPRMC,075634.000,A,3956.0230,N,11622.1958,E,5.65,82.71,180812,,,A*5E
224,
$GPRMC,075635.000,A,3956.0233,N,11622.1979,E,5.40,84.28,180812,,,A*52
224,
$GPRMC,075636.000,A,3956.0235,N,11622.1998,E,5.09,84.39,180812,,,A*55
224,
$GPRMC,075637.000,A,3956.0236,N,11622.2017,E,4.91,87.41,180812,,,A*56
224,
$GPRMC,075638.000,A,3956.0236,N,11622.2034,E,4.72,91.21,180812,,,A*54
224,
$GPRMC,075639.000,A,3956.0237,N,11622.2051,E,4.50,83.11,180812,,,A*57
224,
$GPRMC,075640.000,A,3956.0239,N,11622.2068,E,4.48,87.48,180812,,,A*5C
224,
$GPRMC,075641.000,A,3956.0239,N,11622.2083,E,4.13,88.34,180812,,,A*52
223,
$GPRMC,075642.000,A,3956.0241,N,11622.2098,E,3.93,84.02,180812,,,A*52
223,
$GPRMC,075643.000,A,3956.0242,N,11622.2112,E,3.77,93.92,180812,,,A*56
223,
$GPRMC,075644.000,A,3956.0243,N,11622.2127,E,4.06,90.73,180812,,,A*5B
223,
$GPRMC,075645.000,A,3956.0243,N,11622.2142,E,4.47,91.16,180812,,,A*5E
223,
$GPRMC,075646.000,A,3956.0243,N,11622.2160,E,4.46,93.89,180812,,,A*58
223,
$GPRMC,075647.000,A,3956.0243,N,11622.2176,E,4.28,88.29,180812,,,A*56
223,
$GPRMC,075648.000,A,3956.0243,N,11622.2191,E,4.33,88.04,180812,,,A*55
222,
$GPRMC,075649.000,A,3956.0244,N,11622.2207,E,4.23,88.30,180812,,,A*59
222,
$GPRMC,075650.000,A,3956.0246,N,11622.2221,E,3.90,82.14,180812,,,A*54
222,
$GPRMC,075651.000,A,3956.0246,N,11622.2236,E,4.01,81.75,180812,,,A*58
222,
$GPRMC,075652.000,A,3956.0249,N,11622.2251,E,4.31,72.80,180812,,,A*50
222,
$GPRMC,075653.000,A,3956.0251,N,11622.2266,E,4.33,81.77,180812,,,A*5A
222,
$GPRMC,075654.000,A,3956.0252,N,11622.2282,E,4.57,89.16,180812,,,A*59
222,
$GPRMC,075655.000,A,3956.0251,N,11622.2300,E,4.85,97.20,180812,,,A*55
222,
$GPRMC,075656.000,A,3956.0251,N,11622.2318,E,5.10,90.08,180812,,,A*5F
222,
$GPRMC,075657.000,A,3956.0253,N,11622.2338,E,4.99,90.87,180812,,,A*59
222,
$GPRMC,075658.000,A,3956.0256,N,11622.2356,E,4.19,85.65,180812,,,A*5B
222,
$GPRMC,075659.000,A,3956.0259,N,11622.2372,E,3.88,85.05,180812,,,A*5A
222,
$GPRMC,075700.000,A,3956.0263,N,11622.2386,E,4.06,72.72,180812,,,A*5C
222,
$GPRMC,075701.000,A,3956.0268,N,11622.2402,E,4.47,68.82,180812,,,A*5C
222,
$GPRMC,075702.000,A,3956.0273,N,11622.2415,E,3.71,70.23,180812,,,A*53
222,
$GPRMC,075703.000,A,3956.0278,N,11622.2427,E,3.56,75.14,180812,,,A*5C
222,
$GPRMC,075704.000,A,3956.0280,N,11622.2442,E,4.14,81.52,180812,,,A*57
222,
$GPRMC,075705.000,A,3956.0281,N,11622.2459,E,4.67,85.26,180812,,,A*5E
221,
$GPRMC,075706.000,A,3956.0283,N,11622.2476,E,4.79,85.41,180812,,,A*5C
221,
$GPRMC,075707.000,A,3956.0284,N,11622.2495,E,4.99,86.02,180812,,,A*5D
221,
$GPRMC,075708.000,A,3956.0286,N,11622.2514,E,5.34,88.00,180812,,,A*52
221,
$GPRMC,075709.000,A,3956.0288,N,11622.2535,E,5.92,88.73,180812,,,A*56
221,
$GPRMC,075710.000,A,3956.0287,N,11622.2557,E,6.18,92.71,180812,,,A*5D
221,
$GPRMC,075711.000,A,3956.0286,N,11622.2579,E,6.24,92.96,180812,,,A*57
220,
$GPRMC,075712.000,A,3956.0285,N,11622.2601,E,6.10,89.13,180812,,,A*5B
220,
$GPRMC,075713.000,A,3956.0284,N,11622.2623,E,5.93,91.58,180812,,,A*55
220,
$GPRMC,075714.000,A,3956.0282,N,11622.2644,E,5.90,93.41,180812,,,A*5C
220,
$GPRMC,075715.000,A,3956.0281,N,11622.2665,E,5.99,88.63,180812,,,A*5E
220,
$GPRMC,075716.000,A,3956.0281,N,11622.2686,E,6.05,82.93,180812,,,A*53
220,
$GPRMC,075717.000,A,3956.0283,N,11622.2708,E,6.04,84.62,180812,,,A*5E
220,
$GPRMC,075718.000,A,3956.0286,N,11622.2730,E,5.84,87.37,180812,,,A*57
220,
$GPRMC,075719.000,A,3956.0285,N,11622.2750,E,5.68,90.42,180812,,,A*55
220,
$GPRMC,075720.000,A,3956.0285,N,11622.2770,E,5.14,86.46,180812,,,A*55
220,
$GPRMC,075721.000,A,3956.0284,N,11622.2788,E,4.57,92.06,180812,,,A*55
220,
$GPRMC,075722.000,A,3956.0283,N,11622.2805,E,4.89,86.72,180812,,,A*5E
220,
$GPRMC,075723.000,A,3956.0285,N,11622.2822,E,4.77,83.46,180812,,,A*5F
220,
$GPRMC,075724.000,A,3956.0288,N,11622.2840,E,4.83,80.48,180812,,,A*57
220,
$GPRMC,075725.000,A,3956.0288,N,11622.2859,E,4.67,85.85,180812,,,A*50
220,
$GPRMC,075726.000,A,3956.0288,N,11622.2877,E,4.29,90.54,180812,,,A*5D
220,
$GPRMC,075727.000,A,3956.0289,N,11622.2894,E,4.30,91.32,180812,,,A*59
220,
$GPRMC,075728.000,A,3956.0289,N,11622.2911,E,4.22,91.90,180812,,,A*51
220,
$GPRMC,075729.000,A,3956.0288,N,11622.2926,E,4.03,89.40,180812,,,A*52
220,
$GPRMC,075730.000,A,3956.0292,N,11622.2940,E,3.81,61.57,180812,,,A*5C
220,
$GPRMC,075731.000,A,3956.0298,N,11622.2953,E,3.57,66.43,180812,,,A*5C
219,
$GPRMC,075732.000,A,3956.0305,N,11622.2960,E,2.60,13.40,180812,,,A*5E
219,
$GPRMC,075733.000,A,3956.0311,N,11622.2959,E,1.75,334.21,180812,,,A*66
219,
$GPRMC,075734.000,A,3956.0314,N,11622.2957,E,0.87,343.54,180812,,,A*64
219,
$GPRMC,075735.000,A,3956.0316,N,11622.2956,E,0.28,345.50,180812,,,A*61
220,
$GPRMC,075736.000,A,3956.0317,N,11622.2956,E,0.16,7.26,180812,,,A*6A
219,
$GPRMC,075737.000,A,3956.0317,N,11622.2956,E,0.09,293.01,180812,,,A*6F
219,
$GPRMC,075738.000,A,3956.0318,N,11622.2956,E,0.27,357.78,180812,,,A*64
219,
$GPRMC,075739.000,A,3956.0318,N,11622.2956,E,0.23,204.02,180812,,,A*6B
220,
$GPRMC,075740.000,A,3956.0317,N,11622.2955,E,0.19,122.55,180812,,,A*65
220,
$GPRMC,075741.000,A,3956.0316,N,11622.2955,E,0.09,131.44,180812,,,A*66
220,
$GPRMC,075742.000,A,3956.0315,N,11622.2956,E,0.09,159.92,180812,,,A*60
220,
$GPRMC,075743.000,A,3956.0314,N,11622.2956,E,0.07,199.45,180812,,,A*68
220,
$GPRMC,075744.000,A,3956.0313,N,11622.2957,E,0.48,161.45,180812,,,A*65
220,
$GPRMC,075745.000,A,3956.0311,N,11622.2957,E,0.37,168.86,180812,,,A*68
219,
$GPRMC,075746.000,A,3956.0310,N,11622.2957,E,0.13,145.83,180812,,,A*66
219,
$GPRMC,075747.000,A,3956.0308,N,11622.2958,E,0.22,126.33,180812,,,A*6D
219,
$GPRMC,075748.000,A,3956.0306,N,11622.2959,E,0.11,47.06,180812,,,A*5D
220,
$GPRMC,075749.000,A,3956.0305,N,11622.2959,E,0.16,231.37,180812,,,A*69
220,
$GPRMC,075750.000,A,3956.0306,N,11622.2958,E,0.13,323.22,180812,,,A*60
219,
