$GPRMC,071128.990,A,3956.3443,N,11623.9492,E,1.82,216.34,180812,,,A*60
170,
$GPRMC,071129.991,A,3956.3487,N,11623.9423,E,1.88,211.50,180812,,,A*6D
179,
$GPRMC,071130.990,A,3956.3514,N,11623.9377,E,1.65,250.50,180812,,,A*6F
186,
$GPRMC,071131.991,A,3956.3529,N,11623.9361,E,0.92,205.04,180812,,,A*6E
192,
$GPRMC,071132.991,A,3956.3527,N,11623.9360,E,0.92,205.04,180812,,,E*66
196,
$GPRMC,071133.991,A,3956.3519,N,11623.9362,E,2.02,324.87,180812,,,A*6E
197,
$GPRMC,071134.991,A,3956.3514,N,11623.9337,E,1.54,296.07,180812,,,A*64
200,
$GPRMC,071135.991,A,3956.3501,N,11623.9322,E,1.65,198.73,180812,,,A*69
201,
$GPRMC,071136.991,A,3956.3501,N,11623.9325,E,2.08,196.55,180812,,,A*6F
203,
$GPRMC,071147.061,A,3956.3415,N,11623.9365,E,1.53,135.25,180812,,,A*6C
205,
$GPRMC,071148.061,A,3956.3420,N,11623.9452,E,1.03,191.51,180812,,,A*6E
204,
$GPRMC,071149.061,A,3956.3409,N,11623.9406,E,1.01,237.79,180812,,,A*62
202,
$GPRMC,071150.061,A,3956.3431,N,11623.9399,E,1.23,199.74,180812,,,A*6A
202,
$GPRMC,071151.061,A,3956.3420,N,11623.9394,E,1.95,125.38,180812,,,A*64
202,
$GPRMC,071152.061,A,3956.3422,N,11623.9356,E,1.46,106.24,180812,,,A*69
203,
$GPRMC,071153.061,A,3956.3423,N,11623.9347,E,1.77,47.63,180812,,,A*5C
204,
$GPRMC,071154.061,A,3956.3402,N,11623.9375,E,0.48,124.02,180812,,,A*67
204,
$GPRMC,071155.061,A,3956.3397,N,11623.9389,E,1.82,245.15,180812,,,A*6B
204,
$GPRMC,071156.061,A,3956.3397,N,11623.9387,E,2.75,293.33,180812,,,A*62
205,
$GPRMC,071157.061,A,3956.3396,N,11623.9390,E,0.50,288.65,180812,,,A*68
205,
$GPRMC,071158.061,A,3956.3393,N,11623.9393,E,0.41,161.58,180812,,,A*6B
205,
$GPRMC,071159.061,A,3956.3375,N,11623.9395,E,1.19,98.69,180812,,,A*5D
204,
$GPRMC,071200.000,A,3956.3363,N,11623.9407,E,2.35,132.63,180812,,,A*68
204,
$GPRMC,071201.000,A,3956.3357,N,11623.9412,E,1.75,127.66,180812,,,A*6C
205,
$GPRMC,071202.000,A,3956.3344,N,11623.9415,E,2.17,152.56,180812,,,A*6C
205,
$GPRMC,071203.000,A,3956.3334,N,11623.9420,E,2.24,146.29,180812,,,A*61
204,
$GPRMC,071204.000,A,3956.3326,N,11623.9421,E,2.36,120.11,180812,,,A*6C
204,
$GPRMC,071205.000,A,3956.3326,N,11623.9428,E,2.09,112.29,180812,,,A*62
204,
$GPRMC,071206.000,A,3956.3327,N,11623.9435,E,1.37,123.24,180812,,,A*6D
204,
$GPRMC,071207.000,A,3956.3327,N,11623.9442,E,1.49,82.48,180812,,,A*55
204,
$GPRMC,071208.000,A,3956.3326,N,11623.9447,E,1.58,99.40,180812,,,A*5C
203,
$GPRMC,071209.000,A,3956.3322,N,11623.9453,E,1.77,107.22,180812,,,A*63
203,
$GPRMC,071210.000,A,3956.3317,N,11623.9459,E,1.85,130.35,180812,,,A*68
202,
$GPRMC,071211.000,A,3956.3312,N,11623.9467,E,2.02,99.05,180812,,,A*5C
202,
$GPRMC,071212.000,A,3956.3311,N,11623.9474,E,1.65,93.63,180812,,,A*56
201,
$GPRMC,071213.000,A,3956.3309,N,11623.9479,E,1.26,111.40,180812,,,A*6E
201,
$GPRMC,071214.000,A,3956.3303,N,11623.9485,E,1.96,114.73,180812,,,A*6E
201,
$GPRMC,071215.000,A,3956.3299,N,11623.9492,E,1.64,128.63,180812,,,A*68
201,
$GPRMC,071216.000,A,3956.3294,N,11623.9497,E,2.03,142.46,180812,,,A*6A
201,
$GPRMC,071217.000,A,3956.3288,N,11623.9500,E,2.61,171.09,180812,,,A*66
201,
$GPRMC,071218.000,A,3956.3278,N,11623.9501,E,3.94,178.39,180812,,,A*66
200,
$GPRMC,071219.000,A,3956.3271,N,11623.9503,E,1.83,168.38,180812,,,A*68
200,
$GPRMC,071220.000,A,3956.3267,N,11623.9506,E,1.10,141.44,180812,,,A*6A
200,
$GPRMC,071221.000,A,3956.3264,N,11623.9508,E,1.39,152.64,180812,,,A*6D
200,
$GPRMC,071222.000,A,3956.3261,N,11623.9513,E,1.95,135.87,180812,,,A*6B
200,
$GPRMC,071223.000,A,3956.3256,N,11623.9517,E,1.92,131.06,180812,,,A*60
200,
$GPRMC,071224.000,A,3956.3250,N,11623.9521,E,1.70,150.53,180812,,,A*6F
200,
$GPRMC,071225.000,A,3956.3246,N,11623.9526,E,0.75,155.39,180812,,,A*63
200,
$GPRMC,071226.000,A,3956.3244,N,11623.9533,E,1.17,126.30,180812,,,A*6E
200,
$GPRMC,071227.000,A,3956.3239,N,11623.9540,E,1.32,124.72,180812,,,A*62
200,
$GPRMC,071228.000,A,3956.3236,N,11623.9548,E,2.21,123.98,180812,,,A*68
200,
$GPRMC,071229.000,A,3956.3229,N,11623.9561,E,3.89,116.94,180812,,,A*65
200,
$GPRMC,071230.000,A,3956.3220,N,11623.9573,E,4.38,117.03,180812,,,A*65
199,
$GPRMC,071231.000,A,3956.3211,N,11623.9583,E,2.76,119.50,180812,,,A*6D
199,
$GPRMC,071232.000,A,3956.3204,N,11623.9591,E,2.23,115.48,180812,,,A*6C
198,
