$GPRMC,074731.000,A,3955.9005,N,11622.4566,E,0.21,193.66,180812,,,A*63
233,
$GPRMC,074732.000,A,3955.9040,N,11622.4536,E,2.12,313.49,180812,,,A*61
233,
$GPRMC,074733.000,A,3955.9058,N,11622.4530,E,1.15,316.96,180812,,,A*6C
232,
$GPRMC,074734.000,A,3955.9058,N,11622.4526,E,0.16,40.31,180812,,,A*53
231,
$GPRMC,074735.000,A,3955.9057,N,11622.4527,E,0.34,306.94,180812,,,A*62
231,
$GPRMC,074736.000,A,3955.9065,N,11622.4522,E,0.14,283.77,180812,,,A*66
231,
$GPRMC,074737.000,A,3955.9064,N,11622.4517,E,0.95,27.52,180812,,,A*52
231,
$GPRMC,074738.000,A,3955.9057,N,11622.4516,E,0.30,218.23,180812,,,A*6B
233,
$GPRMC,074739.000,A,3955.9054,N,11622.4519,E,0.60,102.78,180812,,,A*65
233,
$GPRMC,074740.000,A,3955.9049,N,11622.4524,E,0.36,62.89,180812,,,A*53
233,
$GPRMC,074741.000,A,3955.9045,N,11622.4527,E,0.25,338.37,180812,,,A*66
233,
$GPRMC,074742.000,A,3955.9045,N,11622.4530,E,0.16,71.31,180812,,,A*5B
232,
$GPRMC,074743.000,A,3955.9048,N,11622.4530,E,0.16,295.49,180812,,,A*60
232,
$GPRMC,074744.000,A,3955.9044,N,11622.4533,E,0.46,149.35,180812,,,A*64
232,
$GPRMC,074745.000,A,3955.9043,N,11622.4532,E,0.50,150.88,180812,,,A*6A
233,
$GPRMC,074746.000,A,3955.9038,N,11622.4535,E,0.48,263.57,180812,,,A*6A
233,
$GPRMC,074747.000,A,3955.9038,N,11622.4535,E,0.13,122.16,180812,,,A*66
232,
$GPRMC,074748.000,A,3955.9039,N,11622.4535,E,0.09,130.67,180812,,,A*66
232,
$GPRMC,074749.000,A,3955.9040,N,11622.4534,E,0.06,259.01,180812,,,A*6B
231,
$GPRMC,074750.000,A,3955.9043,N,11622.4532,E,0.14,57.58,180812,,,A*55
231,
$GPRMC,074751.000,A,3955.9044,N,11622.4533,E,0.17,86.22,180812,,,A*50
231,
$GPRMC,074752.000,A,3955.9047,N,11622.4532,E,0.31,314.84,180812,,,A*61
231,
$GPRMC,074753.000,A,3955.9049,N,11622.4530,E,0.58,264.37,180812,,,A*6D
230,
$GPRMC,074754.000,A,3955.9052,N,11622.4525,E,1.40,282.88,180812,,,A*60
230,
$GPRMC,074755.000,A,3955.9052,N,11622.4517,E,1.78,270.90,180812,,,A*6F
230,
$GPRMC,074756.000,A,3955.9053,N,11622.4509,E,1.55,270.90,180812,,,A*6D
230,
$GPRMC,074757.000,A,3955.9054,N,11622.4503,E,1.18,282.18,180812,,,A*65
229,
$GPRMC,074758.000,A,3955.9054,N,11622.4498,E,0.91,283.27,180812,,,A*64
229,
$GPRMC,074759.000,A,3955.9055,N,11622.4495,E,0.60,256.16,180812,,,A*6D
229,
$GPRMC,074800.000,A,3955.9056,N,11622.4493,E,0.17,315.25,180812,,,A*6D
229,
$GPRMC,074801.000,A,3955.9056,N,11622.4491,E,0.26,248.43,180812,,,A*65
229,
$GPRMC,074802.000,A,3955.9057,N,11622.4490,E,0.14,281.17,180812,,,A*63
229,
$GPRMC,074803.000,A,3955.9057,N,11622.4489,E,0.03,51.47,180812,,,A*56
229,
$GPRMC,074804.000,A,3955.9057,N,11622.4488,E,0.10,69.51,180812,,,A*5E
229,
$GPRMC,074805.000,A,3955.9057,N,11622.4488,E,0.12,164.77,180812,,,A*65
229,
$GPRMC,074806.000,A,3955.9056,N,11622.4487,E,0.18,158.45,180812,,,A*6C
229,
$GPRMC,074807.000,A,3955.9055,N,11622.4486,E,0.15,185.05,180812,,,A*66
229,
$GPRMC,074808.000,A,3955.9054,N,11622.4485,E,0.19,161.11,180812,,,A*68
229,
$GPRMC,074809.000,A,3955.9053,N,11622.4485,E,0.19,175.16,180812,,,A*6C
229,
$GPRMC,074810.000,A,3955.9052,N,11622.4485,E,0.25,183.88,180812,,,A*64
229,
$GPRMC,074811.000,A,3955.9051,N,11622.4485,E,0.25,175.49,180812,,,A*62
228,
$GPRMC,074812.000,A,3955.9051,N,11622.4485,E,0.20,183.20,180812,,,A*62
228,
$GPRMC,074813.000,A,3955.9050,N,11622.4485,E,0.23,185.92,180812,,,A*6E
228,
$GPRMC,074814.000,A,3955.9051,N,11622.4485,E,0.16,148.65,180812,,,A*67
228,
$GPRMC,074815.000,A,3955.9051,N,11622.4485,E,0.14,39.48,180812,,,A*5C
228,
$GPRMC,074816.000,A,3955.9051,N,11622.4485,E,0.06,58.61,180812,,,A*50
228,
$GPRMC,074817.000,A,3955.9051,N,11622.4485,E,0.14,41.36,180812,,,A*58
228,
$GPRMC,074818.000,A,3955.9052,N,11622.4485,E,0.04,75.62,180812,,,A*53
228,
$GPRMC,074819.000,A,3955.9052,N,11622.4485,E,0.09,135.71,180812,,,A*68
228,
$GPRMC,074820.000,A,3955.9052,N,11622.4485,E,0.09,156.26,180812,,,A*65
228,
$GPRMC,074821.000,A,3955.9052,N,11622.4485,E,0.07,158.93,180812,,,A*6A
229,
$GPRMC,074822.000,A,3955.9052,N,11622.4484,E,0.08,313.01,180812,,,A*61
229,
$GPRMC,074823.000,A,3955.9051,N,11622.4483,E,0.05,41.91,180812,,,A*54
229,
$GPRMC,074824.000,A,3955.9050,N,11622.4482,E,0.09,228.85,180812,,,A*67
229,
$GPRMC,074825.000,A,3955.9049,N,11622.4481,E,0.05,194.25,180812,,,A*6F
229,
$GPRMC,074826.000,A,3955.9049,N,11622.4481,E,0.14,190.10,180812,,,A*6E
230,
$GPRMC,074827.000,A,3955.9048,N,11622.4480,E,0.13,181.59,180812,,,A*65
230,
$GPRMC,074828.000,A,3955.9048,N,11622.4480,E,0.13,172.88,180812,,,A*6A
230,
$GPRMC,074829.000,A,3955.9048,N,11622.4479,E,0.14,176.87,180812,,,A*61
230,
$GPRMC,074830.000,A,3955.9048,N,11622.4479,E,0.13,160.36,180812,,,A*63
230,
$GPRMC,074831.000,A,3955.9048,N,11622.4479,E,0.10,114.88,180812,,,A*67
229,
$GPRMC,074832.000,A,3955.9048,N,11622.4478,E,0.07,92.60,180812,,,A*5A
229,
$GPRMC,074833.000,A,3955.9048,N,11622.4478,E,0.02,203.45,180812,,,A*63
229,
$GPRMC,074834.000,A,3955.9048,N,11622.4478,E,0.07,117.23,180812,,,A*67
229,
$GPRMC,074835.000,A,3955.9048,N,11622.4478,E,0.06,123.35,180812,,,A*67
229,
$GPRMC,074836.000,A,3955.9048,N,11622.4478,E,0.05,155.48,180812,,,A*6C
229,
$GPRMC,074837.000,A,3955.9047,N,11622.4477,E,0.09,140.49,180812,,,A*64
229,
$GPRMC,074838.000,A,3955.9047,N,11622.4477,E,0.07,158.97,180812,,,A*6F
229,
$GPRMC,074839.000,A,3955.9047,N,11622.4476,E,0.10,151.30,180812,,,A*6D
229,
$GPRMC,074840.000,A,3955.9047,N,11622.4476,E,0.09,168.89,180812,,,A*63
229,
$GPRMC,074841.000,A,3955.9047,N,11622.4476,E,0.17,156.45,180812,,,A*60
230,
$GPRMC,074842.000,A,3955.9047,N,11622.4476,E,0.16,157.07,180812,,,A*65
230,
$GPRMC,074843.000,A,3955.9046,N,11622.4476,E,0.16,152.22,180812,,,A*67
230,
$GPRMC,074844.000,A,3955.9046,N,11622.4476,E,0.14,159.71,180812,,,A*6F
230,
$GPRMC,074845.000,A,3955.9046,N,11622.4475,E,0.10,145.78,180812,,,A*6D
229,
$GPRMC,074846.000,A,3955.9046,N,11622.4475,E,0.09,164.35,180812,,,A*6C
229,
$GPRMC,074847.000,A,3955.9045,N,11622.4474,E,0.10,166.88,180812,,,A*63
229,
$GPRMC,074848.000,A,3955.9045,N,11622.4474,E,0.12,151.18,180812,,,A*63
229,
$GPRMC,074849.000,A,3955.9045,N,11622.4474,E,0.11,143.35,180812,,,A*6D
229,
$GPRMC,074850.000,A,3955.9045,N,11622.4473,E,0.11,153.07,180812,,,A*62
229,
$GPRMC,074851.000,A,3955.9044,N,11622.4473,E,0.10,169.73,180812,,,A*69
229,
$GPRMC,074852.000,A,3955.9044,N,11622.4472,E,0.14,158.03,180812,,,A*6A
229,
$GPRMC,074853.000,A,3955.9044,N,11622.4472,E,0.12,142.63,180812,,,A*60
229,
$GPRMC,074854.000,A,3955.9043,N,11622.4471,E,0.10,181.67,180812,,,A*6A
229,
$GPRMC,074855.000,A,3955.9043,N,11622.4471,E,0.13,157.87,180812,,,A*6D
229,
$GPRMC,074856.000,A,3955.9043,N,11622.4471,E,0.11,172.25,180812,,,A*63
230,
$GPRMC,074857.000,A,3955.9042,N,11622.4470,E,0.12,166.09,180812,,,A*6A
231,
$GPRMC,074858.000,A,3955.9042,N,11622.4470,E,0.16,161.30,180812,,,A*6C
231,
$GPRMC,074859.000,A,3955.9042,N,11622.4469,E,0.11,173.09,180812,,,A*6B
231,
$GPRMC,074900.000,A,3955.9042,N,11622.4469,E,0.12,189.11,180812,,,A*69
230,
$GPRMC,074901.000,A,3955.9041,N,11622.4468,E,0.11,186.14,180812,,,A*63
230,
$GPRMC,074902.000,A,3955.9041,N,11622.4468,E,0.13,170.07,180812,,,A*69
230,
$GPRMC,074903.000,A,3955.9041,N,11622.4468,E,0.14,175.97,180812,,,A*63
230,
$GPRMC,074904.000,A,3955.9042,N,11622.4466,E,0.77,252.30,180812,,,A*67
230,
$GPRMC,074905.000,A,3955.9042,N,11622.4462,E,1.71,254.98,180812,,,A*61
229,
$GPRMC,074906.000,A,3955.9040,N,11622.4455,E,1.98,246.08,180812,,,A*69
229,
$GPRMC,074907.000,A,3955.9039,N,11622.4448,E,2.39,264.93,180812,,,A*60
229,
$GPRMC,074908.000,A,3955.9040,N,11622.4438,E,2.93,271.15,180812,,,A*6C
228,
$GPRMC,074909.000,A,3955.9040,N,11622.4427,E,3.37,267.04,180812,,,A*6B
228,
$GPRMC,074910.000,A,3955.9042,N,11622.4414,E,3.68,282.89,180812,,,A*65
228,
$GPRMC,074911.000,A,3955.9044,N,11622.4400,E,3.89,277.08,180812,,,A*6B
228,
$GPRMC,074912.000,A,3955.9045,N,11622.4385,E,4.44,268.59,180812,,,A*6F
229,
$GPRMC,074913.000,A,3955.9045,N,11622.4368,E,4.90,271.62,180812,,,A*64
228,
$GPRMC,074914.000,A,3955.9046,N,11622.4350,E,4.89,269.99,180812,,,A*6E
228,
$GPRMC,074915.000,A,3955.9047,N,11622.4332,E,4.95,271.99,180812,,,A*6E
227,
$GPRMC,074916.000,A,3955.9047,N,11622.4314,E,5.00,270.41,180812,,,A*60
227,
$GPRMC,074917.000,A,3955.9047,N,11622.4295,E,5.06,266.44,180812,,,A*6D
227,
$GPRMC,074918.000,A,3955.9046,N,11622.4277,E,5.13,263.77,180812,,,A*6E
227,
$GPRMC,074919.000,A,3955.9045,N,11622.4258,E,5.11,269.20,180812,,,A*6B
227,
$GPRMC,074920.000,A,3955.9045,N,11622.4239,E,5.09,265.59,180812,,,A*6D
227,
$GPRMC,074921.000,A,3955.9043,N,11622.4220,E,5.23,266.41,180812,,,A*60
227,
$GPRMC,074922.000,A,3955.9044,N,11622.4200,E,5.28,272.49,180812,,,A*60
228,
$GPRMC,074923.000,A,3955.9044,N,11622.4181,E,5.38,271.10,180812,,,A*65
228,
$GPRMC,074924.000,A,3955.9044,N,11622.4161,E,5.49,270.33,180812,,,A*6A
228,
$GPRMC,074925.000,A,3955.9043,N,11622.4139,E,5.85,267.05,180812,,,A*62
228,
$GPRMC,074926.000,A,3955.9042,N,11622.4117,E,6.06,267.49,180812,,,A*6C
228,
$GPRMC,074927.000,A,3955.9041,N,11622.4095,E,6.18,269.20,180812,,,A*6B
228,
$GPRMC,074928.000,A,3955.9040,N,11622.4072,E,6.29,270.44,180812,,,A*64
227,
$GPRMC,074929.000,A,3955.9039,N,11622.4049,E,6.41,268.24,180812,,,A*62
227,
$GPRMC,074930.000,A,3955.9038,N,11622.4026,E,6.46,265.06,180812,,,A*68
227,
$GPRMC,074931.000,A,3955.9036,N,11622.4001,E,6.48,266.68,180812,,,A*67
227,
$GPRMC,074932.000,A,3955.9035,N,11622.3977,E,6.47,266.28,180812,,,A*63
227,
$GPRMC,074933.000,A,3955.9034,N,11622.3954,E,6.55,267.01,180812,,,A*6B
227,
$GPRMC,074934.000,A,3955.9032,N,11622.3930,E,6.58,265.96,180812,,,A*69
226,
$GPRMC,074935.000,A,3955.9030,N,11622.3906,E,6.68,266.39,180812,,,A*6A
226,
$GPRMC,074936.000,A,3955.9030,N,11622.3881,E,6.65,268.80,180812,,,A*66
226,
$GPRMC,074937.000,A,3955.9028,N,11622.3857,E,6.81,266.20,180812,,,A*6B
226,
$GPRMC,074938.000,A,3955.9027,N,11622.3832,E,6.82,267.66,180812,,,A*68
226,
$GPRMC,074939.000,A,3955.9026,N,11622.3807,E,6.79,266.39,180812,,,A*61
226,
$GPRMC,074940.000,A,3955.9024,N,11622.3782,E,6.79,264.49,180812,,,A*6A
226,
$GPRMC,074941.000,A,3955.9023,N,11622.3757,E,6.73,265.70,180812,,,A*65
227,
$GPRMC,074942.000,A,3955.9021,N,11622.3732,E,6.48,265.27,180812,,,A*6D
227,
$GPRMC,074943.000,A,3955.9020,N,11622.3708,E,6.62,265.96,180812,,,A*66
227,
$GPRMC,074944.000,A,3955.9019,N,11622.3684,E,6.74,268.11,180812,,,A*6B
227,
$GPRMC,074945.000,A,3955.9018,N,11622.3658,E,6.68,264.82,180812,,,A*61
227,
$GPRMC,074946.000,A,3955.9016,N,11622.3634,E,6.72,265.86,180812,,,A*68
226,
$GPRMC,074947.000,A,3955.9015,N,11622.3609,E,6.65,265.60,180812,,,A*6A
226,
$GPRMC,074948.000,A,3955.9014,N,11622.3584,E,6.42,267.27,180812,,,A*66
226,
$GPRMC,074949.000,A,3955.9013,N,11622.3561,E,6.38,268.38,180812,,,A*67
227,
$GPRMC,074950.000,A,3955.9011,N,11622.3537,E,6.33,263.97,180812,,,A*6B
227,
$GPRMC,074951.000,A,3955.9008,N,11622.3514,E,6.32,260.07,180812,,,A*68
228,
$GPRMC,074952.000,A,3955.9004,N,11622.3492,E,6.08,257.89,180812,,,A*63
228,
$GPRMC,074953.000,A,3955.9001,N,11622.3470,E,5.99,258.78,180812,,,A*61
228,
$GPRMC,074954.000,A,3955.8997,N,11622.3448,E,5.97,261.47,180812,,,A*62
229,
$GPRMC,074955.000,A,3955.8995,N,11622.3426,E,6.11,264.43,180812,,,A*65
230,
$GPRMC,074956.000,A,3955.8995,N,11622.3404,E,6.12,275.32,180812,,,A*63
231,
$GPRMC,074957.000,A,3955.8996,N,11622.3380,E,6.32,274.30,180812,,,A*6B
232,
$GPRMC,074958.000,A,3955.8998,N,11622.3358,E,6.27,272.69,180812,,,A*61
233,
$GPRMC,074959.000,A,3955.8998,N,11622.3335,E,6.14,271.25,180812,,,A*60
233,
$GPRMC,075000.000,A,3955.8997,N,11622.3313,E,6.02,269.05,180812,,,A*63
233,
$GPRMC,075001.000,A,3955.8996,N,11622.3292,E,5.83,267.19,180812,,,A*62
234,
$GPRMC,075002.000,A,3955.8996,N,11622.3271,E,5.68,268.62,180812,,,A*6A
233,
$GPRMC,075003.000,A,3955.8994,N,11622.3252,E,4.93,266.16,180812,,,A*60
233,
$GPRMC,075004.000,A,3955.8993,N,11622.3236,E,4.01,262.98,180812,,,A*6B
233,
$GPRMC,075005.000,A,3955.8992,N,11622.3223,E,2.99,262.82,180812,,,A*63
233,
$GPRMC,075006.000,A,3955.8990,N,11622.3214,E,2.49,254.48,180812,,,A*68
234,
$GPRMC,075007.000,A,3955.8988,N,11622.3206,E,2.15,255.06,180812,,,A*61
234,
$GPRMC,075008.000,A,3955.8986,N,11622.3198,E,3.02,245.91,180812,,,A*6C
234,
$GPRMC,075009.000,A,3955.8985,N,11622.3186,E,3.69,275.87,180812,,,A*68
235,
$GPRMC,075010.000,A,3955.8986,N,11622.3172,E,4.13,284.67,180812,,,A*62
234,
$GPRMC,075011.000,A,3955.8988,N,11622.3157,E,4.54,276.75,180812,,,A*67
235,
$GPRMC,075012.000,A,3955.8990,N,11622.3140,E,4.62,275.07,180812,,,A*68
237,
$GPRMC,075013.000,A,3955.8991,N,11622.3124,E,4.59,276.45,180812,,,A*67
237,
$GPRMC,075014.000,A,3955.8991,N,11622.3106,E,5.06,271.11,180812,,,A*6D
237,
$GPRMC,075015.000,A,3955.8991,N,11622.3087,E,5.27,269.28,180812,,,A*64
238,
$GPRMC,075016.000,A,3955.8991,N,11622.3066,E,5.39,272.26,180812,,,A*63
237,
$GPRMC,075017.000,A,3955.8992,N,11622.3047,E,5.07,273.45,180812,,,A*6B
237,
$GPRMC,075018.000,A,3955.8992,N,11622.3027,E,5.48,272.58,180812,,,A*64
237,
$GPRMC,075019.000,A,3955.8991,N,11622.3007,E,5.65,265.68,180812,,,A*6E
237,
$GPRMC,075020.000,A,3955.8989,N,11622.2986,E,5.65,266.89,180812,,,A*60
237,
$GPRMC,075021.000,A,3955.8988,N,11622.2965,E,5.78,266.40,180812,,,A*64
237,
$GPRMC,075022.000,A,3955.8986,N,11622.2943,E,5.82,265.39,180812,,,A*65
236,
$GPRMC,075023.000,A,3955.8983,N,11622.2921,E,5.89,266.19,180812,,,A*6F
236,
$GPRMC,075024.000,A,3955.8982,N,11622.2899,E,5.92,271.89,180812,,,A*6E
236,
$GPRMC,075025.000,A,3955.8982,N,11622.2877,E,5.98,271.35,180812,,,A*62
236,
$GPRMC,075026.000,A,3955.8982,N,11622.2854,E,5.92,271.75,180812,,,A*6E
235,
$GPRMC,075027.000,A,3955.8982,N,11622.2831,E,5.98,270.04,180812,,,A*61
235,
$GPRMC,075028.000,A,3955.8981,N,11622.2809,E,5.91,265.79,180812,,,A*61
235,
$GPRMC,075029.000,A,3955.8979,N,11622.2787,E,6.17,268.92,180812,,,A*6B
234,
$GPRMC,075030.000,A,3955.8978,N,11622.2764,E,6.16,265.51,180812,,,A*6C
235,
$GPRMC,075031.000,A,3955.8976,N,11622.2742,E,5.86,269.70,180812,,,A*62
235,
$GPRMC,075032.000,A,3955.8976,N,11622.2721,E,5.15,280.38,180812,,,A*65
235,
$GPRMC,075033.000,A,3955.8975,N,11622.2700,E,6.02,262.02,180812,,,A*64
235,
$GPRMC,075034.000,A,3955.8973,N,11622.2677,E,6.00,268.59,180812,,,A*62
235,
$GPRMC,075035.000,A,3955.8971,N,11622.2654,E,6.38,268.30,180812,,,A*64
234,
$GPRMC,075036.000,A,3955.8970,N,11622.2630,E,6.20,271.17,180812,,,A*60
234,
$GPRMC,075037.000,A,3955.8970,N,11622.2607,E,6.00,272.95,180812,,,A*6E
234,
$GPRMC,075038.000,A,3955.8969,N,11622.2585,E,5.89,271.24,180812,,,A*6B
234,
$GPRMC,075039.000,A,3955.8968,N,11622.2562,E,5.98,270.54,180812,,,A*64
235,
$GPRMC,075040.000,A,3955.8967,N,11622.2539,E,6.00,269.41,180812,,,A*65
235,
$GPRMC,075041.000,A,3955.8967,N,11622.2517,E,5.89,275.28,180812,,,A*68
235,
$GPRMC,075042.000,A,3955.8967,N,11622.2494,E,6.00,272.16,180812,,,A*69
235,
$GPRMC,075043.000,A,3955.8966,N,11622.2471,E,6.11,272.61,180812,,,A*62
235,
$GPRMC,075044.000,A,3955.8965,N,11622.2449,E,6.09,268.52,180812,,,A*6F
235,
$GPRMC,075045.000,A,3955.8964,N,11622.2426,E,6.21,269.95,180812,,,A*66
236,
$GPRMC,075046.000,A,3955.8963,N,11622.2403,E,6.28,269.14,180812,,,A*65
237,
$GPRMC,075047.000,A,3955.8961,N,11622.2379,E,6.46,267.65,180812,,,A*6C
236,
$GPRMC,075048.000,A,3955.8960,N,11622.2355,E,6.62,268.43,180812,,,A*61
236,
$GPRMC,075049.000,A,3955.8958,N,11622.2330,E,6.70,268.11,180812,,,A*6C
237,
$GPRMC,075050.000,A,3955.8956,N,11622.2305,E,6.68,265.15,180812,,,A*6C
238,
$GPRMC,075051.000,A,3955.8953,N,11622.2281,E,6.52,265.26,180812,,,A*6C
240,
$GPRMC,075052.000,A,3955.8951,N,11622.2257,E,6.50,266.96,180812,,,A*6C
239,
$GPRMC,075053.000,A,3955.8949,N,11622.2233,E,6.52,265.41,180812,,,A*6D
240,
$GPRMC,075054.000,A,3955.8946,N,11622.2209,E,6.24,267.53,180812,,,A*6C
238,
$GPRMC,075055.000,A,3955.8945,N,11622.2186,E,6.42,266.06,180812,,,A*6B
238,
$GPRMC,075056.000,A,3955.8943,N,11622.2162,E,6.38,266.87,180812,,,A*60
239,
$GPRMC,075057.000,A,3955.8940,N,11622.2139,E,6.17,266.27,180812,,,A*6B
239,
$GPRMC,075058.000,A,3955.8938,N,11622.2116,E,6.15,264.26,180812,,,A*67
239,
$GPRMC,075059.000,A,3955.8936,N,11622.2092,E,6.27,265.23,180812,,,A*60
239,
$GPRMC,075100.000,A,3955.8933,N,11622.2068,E,6.41,265.09,180812,,,A*65
237,
$GPRMC,075101.000,A,3955.8931,N,11622.2044,E,6.48,271.38,180812,,,A*66
236,
$GPRMC,075102.000,A,3955.8932,N,11622.2020,E,6.39,273.74,180812,,,A*68
233,
$GPRMC,075103.000,A,3955.8932,N,11622.1996,E,6.77,268.24,180812,,,A*6B
231,
$GPRMC,075104.000,A,3955.8931,N,11622.1971,E,6.41,269.51,180812,,,A*60
228,
$GPRMC,075105.000,A,3955.8932,N,11622.1946,E,6.54,273.65,180812,,,A*6E
228,
$GPRMC,075106.000,A,3955.8933,N,11622.1920,E,6.55,277.31,180812,,,A*68
229,
$GPRMC,075107.000,A,3955.8933,N,11622.1897,E,6.36,273.30,180812,,,A*64
230,
$GPRMC,075108.000,A,3955.8934,N,11622.1873,E,6.23,275.02,180812,,,A*65
231,
$GPRMC,075109.000,A,3955.8933,N,11622.1850,E,6.39,272.19,180812,,,A*64
232,
$GPRMC,075110.000,A,3955.8933,N,11622.1827,E,5.91,274.63,180812,,,A*66
233,
$GPRMC,075111.000,A,3955.8932,N,11622.1806,E,5.62,270.21,180812,,,A*6B
233,
$GPRMC,075112.000,A,3955.8931,N,11622.1783,E,6.35,270.15,180812,,,A*6F
233,
$GPRMC,075113.000,A,3955.8930,N,11622.1759,E,6.11,270.13,180812,,,A*68
233,
$GPRMC,075114.000,A,3955.8928,N,11622.1737,E,6.06,272.42,180812,,,A*6E
234,
$GPRMC,075115.000,A,3955.8927,N,11622.1714,E,6.14,271.83,180812,,,A*6C
234,
$GPRMC,075116.000,A,3955.8926,N,11622.1691,E,6.10,269.39,180812,,,A*6E
235,
$GPRMC,075117.000,A,3955.8925,N,11622.1668,E,6.15,269.13,180812,,,A*67
235,
$GPRMC,075118.000,A,3955.8923,N,11622.1645,E,6.26,266.16,180812,,,A*6B
236,
$GPRMC,075119.000,A,3955.8920,N,11622.1622,E,6.17,265.45,180812,,,A*6F
236,
$GPRMC,075120.000,A,3955.8918,N,11622.1599,E,5.96,263.45,180812,,,A*61
236,
$GPRMC,075121.000,A,3955.8916,N,11622.1577,E,5.84,266.09,180812,,,A*60
236,
$GPRMC,075122.000,A,3955.8914,N,11622.1555,E,5.87,263.50,180812,,,A*6B
236,
$GPRMC,075123.000,A,3955.8910,N,11622.1533,E,6.07,261.16,180812,,,A*65
236,
$GPRMC,075124.000,A,3955.8908,N,11622.1511,E,6.09,269.65,180812,,,A*69
237,
$GPRMC,075125.000,A,3955.8907,N,11622.1488,E,5.98,275.08,180812,,,A*6B
237,
$GPRMC,075126.000,A,3955.8910,N,11622.1466,E,6.02,280.42,180812,,,A*6A
237,
$GPRMC,075127.000,A,3955.8912,N,11622.1444,E,5.70,277.04,180812,,,A*65
236,
$GPRMC,075128.000,A,3955.8913,N,11622.1421,E,6.23,269.58,180812,,,A*6B
236,
$GPRMC,075129.000,A,3955.8912,N,11622.1398,E,6.04,269.86,180812,,,A*68
235,
$GPRMC,075130.000,A,3955.8909,N,11622.1376,E,6.14,265.73,180812,,,A*6D
235,
$GPRMC,075131.000,A,3955.8907,N,11622.1353,E,6.18,268.11,180812,,,A*60
235,
$GPRMC,075132.000,A,3955.8904,N,11622.1330,E,6.00,265.14,180812,,,A*64
235,
$GPRMC,075133.000,A,3955.8901,N,11622.1308,E,5.78,266.82,180812,,,A*6B
236,
$GPRMC,075134.000,A,3955.8899,N,11622.1286,E,5.56,267.74,180812,,,A*6F
236,
$GPRMC,075135.000,A,3955.8898,N,11622.1266,E,5.26,276.72,180812,,,A*60
236,
$GPRMC,075136.000,A,3955.8898,N,11622.1246,E,5.37,273.80,180812,,,A*69
235,
$GPRMC,075137.000,A,3955.8898,N,11622.1225,E,5.69,272.71,180812,,,A*69
235,
$GPRMC,075138.000,A,3955.8898,N,11622.1204,E,5.71,272.72,180812,,,A*6F
235,
$GPRMC,075139.000,A,3955.8897,N,11622.1183,E,5.63,267.97,180812,,,A*61
235,
$GPRMC,075140.000,A,3955.8897,N,11622.1164,E,5.03,275.49,180812,,,A*60
235,
$GPRMC,075141.000,A,3955.8896,N,11622.1146,E,4.88,269.92,180812,,,A*69
236,
$GPRMC,075142.000,A,3955.8895,N,11622.1127,E,5.13,272.17,180812,,,A*6A
237,
$GPRMC,075143.000,A,3955.8895,N,11622.1108,E,4.68,272.15,180812,,,A*69
237,
$GPRMC,075144.000,A,3955.8895,N,11622.1090,E,4.43,276.43,180812,,,A*60
237,
$GPRMC,075145.000,A,3955.8895,N,11622.1073,E,4.56,270.72,180812,,,A*6C
236,
$GPRMC,075146.000,A,3955.8895,N,11622.1055,E,4.85,270.82,180812,,,A*6A
236,
$GPRMC,075147.000,A,3955.8894,N,11622.1036,E,4.79,262.64,180812,,,A*67
237,
$GPRMC,075148.000,A,3955.8893,N,11622.1018,E,5.04,271.38,180812,,,A*63
240,
$GPRMC,075149.000,A,3955.8891,N,11622.0998,E,5.50,266.10,180812,,,A*6D
241,
$GPRMC,075150.000,A,3955.8890,N,11622.0977,E,5.81,275.64,180812,,,A*68
241,
$GPRMC,075151.000,A,3955.8889,N,11622.0956,E,6.05,265.37,180812,,,A*6A
240,
$GPRMC,075152.000,A,3955.8887,N,11622.0933,E,6.04,270.13,180812,,,A*67
239,
$GPRMC,075153.000,A,3955.8886,N,11622.0910,E,6.20,266.38,180812,,,A*6E
238,
$GPRMC,075154.000,A,3955.8885,N,11622.0887,E,6.31,271.59,180812,,,A*64
238,
$GPRMC,075155.000,A,3955.8885,N,11622.0863,E,6.44,272.34,180812,,,A*65
238,
$GPRMC,075156.000,A,3955.8887,N,11622.0840,E,6.00,283.07,180812,,,A*6B
238,
$GPRMC,075157.000,A,3955.8890,N,11622.0817,E,6.24,279.72,180812,,,A*6F
238,
$GPRMC,075158.000,A,3955.8892,N,11622.0794,E,6.39,278.27,180812,,,A*6B
238,
$GPRMC,075159.000,A,3955.8894,N,11622.0770,E,6.38,278.34,180812,,,A*65
238,
$GPRMC,075200.000,A,3955.8896,N,11622.0746,E,6.61,276.77,180812,,,A*68
238,
$GPRMC,075201.000,A,3955.8897,N,11622.0721,E,6.69,274.47,180812,,,A*60
238,
$GPRMC,075202.000,A,3955.8897,N,11622.0696,E,6.70,272.92,180812,,,A*68
238,
$GPRMC,075203.000,A,3955.8897,N,11622.0672,E,6.66,274.50,180812,,,A*6C
238,
$GPRMC,075204.000,A,3955.8898,N,11622.0647,E,6.55,276.09,180812,,,A*6C
238,
$GPRMC,075205.000,A,3955.8899,N,11622.0623,E,6.53,274.82,180812,,,A*69
238,
$GPRMC,075206.000,A,3955.8901,N,11622.0600,E,6.47,278.72,180812,,,A*6D
238,
$GPRMC,075207.000,A,3955.8903,N,11622.0576,E,6.31,278.63,180812,,,A*6D
237,
$GPRMC,075208.000,A,3955.8905,N,11622.0553,E,6.31,278.58,180812,,,A*6B
237,
$GPRMC,075209.000,A,3955.8907,N,11622.0531,E,6.12,276.91,180812,,,A*66
237,
$GPRMC,075210.000,A,3955.8907,N,11622.0508,E,6.22,271.64,180812,,,A*6A
237,
$GPRMC,075211.000,A,3955.8906,N,11622.0485,E,6.07,265.17,180812,,,A*68
237,
$GPRMC,075212.000,A,3955.8906,N,11622.0463,E,5.64,275.39,180812,,,A*68
237,
$GPRMC,075213.000,A,3955.8907,N,11622.0442,E,5.42,276.58,180812,,,A*6B
237,
$GPRMC,075214.000,A,3955.8909,N,11622.0423,E,5.12,277.13,180812,,,A*6E
236,
$GPRMC,075215.000,A,3955.8909,N,11622.0404,E,5.13,271.95,180812,,,A*63
236,
$GPRMC,075216.000,A,3955.8909,N,11622.0386,E,4.79,267.21,180812,,,A*68
235,
$GPRMC,075217.000,A,3955.8908,N,11622.0369,E,4.44,270.06,180812,,,A*64
235,
$GPRMC,075218.000,A,3955.8906,N,11622.0353,E,4.19,267.92,180812,,,A*6F
235,
$GPRMC,075219.000,A,3955.8906,N,11622.0339,E,3.84,275.90,180812,,,A*60
235,
$GPRMC,075220.000,A,3955.8905,N,11622.0324,E,3.70,268.56,180812,,,A*68
235,
$GPRMC,075221.000,A,3955.8905,N,11622.0312,E,3.13,276.29,180812,,,A*6E
235,
$GPRMC,075222.000,A,3955.8905,N,11622.0302,E,2.33,280.40,180812,,,A*69
235,
$GPRMC,075223.000,A,3955.8904,N,11622.0294,E,2.48,279.51,180812,,,A*6D
235,
$GPRMC,075224.000,A,3955.8905,N,11622.0286,E,2.30,285.68,180812,,,A*6E
235,
$GPRMC,075225.000,A,3955.8905,N,11622.0278,E,2.22,275.36,180812,,,A*69
235,
$GPRMC,075226.000,A,3955.8907,N,11622.0271,E,2.02,288.21,180812,,,A*67
235,
$GPRMC,075227.000,A,3955.8909,N,11622.0265,E,1.60,285.66,180812,,,A*64
234,
$GPRMC,075228.000,A,3955.8910,N,11622.0259,E,1.58,284.91,180812,,,A*6E
234,
$GPRMC,075229.000,A,3955.8910,N,11622.0254,E,0.92,303.30,180812,,,A*60
234,
$GPRMC,075230.000,A,3955.8909,N,11622.0252,E,0.02,15.55,180812,,,A*58
234,
$GPRMC,075231.000,A,3955.8907,N,11622.0251,E,0.18,30.22,180812,,,A*58
234,
$GPRMC,075232.000,A,3955.8906,N,11622.0250,E,0.10,42.71,180812,,,A*50
234,
$GPRMC,075233.000,A,3955.8905,N,11622.0250,E,0.10,18.27,180812,,,A*5E
233,
$GPRMC,075234.000,A,3955.8904,N,11622.0249,E,0.01,75.35,180812,,,A*58
233,
$GPRMC,075235.000,A,3955.8903,N,11622.0248,E,0.04,213.97,180812,,,A*60
233,
$GPRMC,075236.000,A,3955.8902,N,11622.0247,E,0.03,116.41,180812,,,A*67
233,
$GPRMC,075237.000,A,3955.8901,N,11622.0246,E,0.06,240.55,180812,,,A*64
232,
$GPRMC,075238.000,A,3955.8900,N,11622.0245,E,0.13,234.02,180812,,,A*6C
232,
$GPRMC,075239.000,A,3955.8899,N,11622.0243,E,0.32,204.59,180812,,,A*64
232,
$GPRMC,075240.000,A,3955.8899,N,11622.0242,E,0.17,242.63,180812,,,A*67
232,
$GPRMC,075241.000,A,3955.8899,N,11622.0240,E,0.79,273.01,180812,,,A*6A
233,
$GPRMC,075242.000,A,3955.8900,N,11622.0236,E,0.20,331.44,180812,,,A*63
233,
$GPRMC,075243.000,A,3955.8898,N,11622.0235,E,0.31,15.92,180812,,,A*5F
233,
$GPRMC,075244.000,A,3955.8895,N,11622.0233,E,0.16,174.08,180812,,,A*63
233,
$GPRMC,075245.000,A,3955.8890,N,11622.0232,E,0.10,140.24,180812,,,A*69
233,
$GPRMC,075246.000,A,3955.8886,N,11622.0230,E,0.24,157.30,180812,,,A*6B
231,
$GPRMC,075247.000,A,3955.8883,N,11622.0229,E,0.21,190.90,180812,,,A*63
231,
$GPRMC,075248.000,A,3955.8880,N,11622.0229,E,0.19,158.29,180812,,,A*62
231,
$GPRMC,075249.000,A,3955.8878,N,11622.0229,E,0.35,191.42,180812,,,A*62
232,
$GPRMC,075250.000,A,3955.8876,N,11622.0230,E,0.65,155.30,180812,,,A*64
230,
$GPRMC,075251.000,A,3955.8873,N,11622.0231,E,1.08,147.28,180812,,,A*61
231,
$GPRMC,075252.000,A,3955.8871,N,11622.0232,E,0.29,148.57,180812,,,A*66
231,
$GPRMC,075253.000,A,3955.8870,N,11622.0232,E,0.36,238.68,180812,,,A*60
230,
