$PSRFTXT,Version:GSW3.5.0_3.5.00.00-SDK-3EP2.01 *46
465,
$GPRMC,170728.899,V,,,,,,,100812,,,N*44
465,
$GPRMC,170729.899,V,,,,,,,100812,,,N*45
465,
$GPRMC,170730.899,V,,,,,,,100812,,,N*4D
464,
$GPRMC,170731.899,V,,,,,,,100812,,,N*4C
464,
$GPRMC,170732.895,V,,,,,,,100812,,,N*43
464,
$GPRMC,170733.898,V,,,,,,,100812,,,N*4F
464,
$GPRMC,170734.898,V,,,,,,,100812,,,N*48
464,
$GPRMC,170735.898,V,,,,,,,100812,,,N*49
464,
$GPRMC,170736.895,V,,,,,,,100812,,,N*47
463,
$GPRMC,170737.898,V,,,,,,,100812,,,N*4B
463,
$GPRMC,170738.898,V,,,,,,,100812,,,N*44
463,
$GPRMC,170739.898,V,,,,,,,100812,,,N*45
463,
$GPRMC,170740.895,V,,,,,,,100812,,,N*46
463,
$GPRMC,170741.898,V,,,,,,,100812,,,N*4A
463,
$GPRMC,170742.898,V,,,,,,,100812,,,N*49
463,
$GPRMC,170743.898,V,,,,,,,100812,,,N*48
463,
$GPRMC,170744.895,V,,,,,,,100812,,,N*42
463,
$GPRMC,170745.898,V,,,,,,,100812,,,N*4E
463,
$GPRMC,170746.898,V,,,,,,,100812,,,N*4D
463,
$GPRMC,170747.898,V,,,,,,,100812,,,N*4C
463,
$GPRMC,170748.895,V,,,,,,,100812,,,N*4E
463,
$GPRMC,170749.898,V,,,,,,,100812,,,N*42
463,
$GPRMC,170750.898,V,,,,,,,100812,,,N*4A
463,
$GPRMC,170751.898,V,,,,,,,100812,,,N*4B
463,
$GPRMC,170752.895,V,,,,,,,100812,,,N*45
463,
$GPRMC,170753.899,V,,,,,,,100812,,,N*48
463,
$GPRMC,170754.899,A,3956.3195,N,11623.9431,E,7.02,161.94,100812,,,A*6D
463,
$GPRMC,170755.899,A,3956.3213,N,11623.9421,E,4.68,153.83,100812,,,A*68
462,
$GPRMC,170756.895,A,3956.3046,N,11623.9483,E,2.51,175.78,100812,,,A*61
463,
$GPRMC,170757.899,A,3956.3166,N,11623.9526,E,0.47,220.09,100812,,,A*61
463,
$GPRMC,170758.899,V,,,,,,,100812,,,N*43
463,
$GPRMC,170759.899,V,,,,,,,100812,,,N*42
463,
$GPRMC,170800.895,V,,,,,,,100812,,,N*4D
463,
$GPRMC,170801.899,V,,,,,,,100812,,,N*40
463,
$GPRMC,170802.899,V,,,,,,,100812,,,N*43
462,
$GPRMC,170803.899,V,,,,,,,100812,,,N*42
462,
$GPRMC,170804.895,V,,,,,,,100812,,,N*49
462,
$GPRMC,170805.899,V,,,,,,,100812,,,N*44
462,
$GPRMC,170806.899,V,,,,,,,100812,,,N*47
462,
$GPRMC,170807.899,V,,,,,,,100812,,,N*46
462,
$GPRMC,170808.895,V,,,,,,,100812,,,N*45
462,
$GPRMC,170809.899,A,3956.3302,N,11623.9421,E,4.49,188.61,100812,,,A*66
463,
$GPRMC,170810.899,A,3956.3279,N,11623.9380,E,6.43,184.01,100812,,,A*6D
463,
$GPRMC,170811.899,A,3956.3436,N,11623.9261,E,7.32,182.47,100812,,,A*6C
463,
$GPRMC,170812.895,A,3956.3609,N,11623.9246,E,7.36,171.26,100812,,,A*67
463,
$GPRMC,170813.899,V,,,,,,,100812,,,N*43
463,
$GPRMC,170814.899,V,,,,,,,100812,,,N*44
463,
$GPRMC,170815.899,V,,,,,,,100812,,,N*45
463,
$GPRMC,170816.895,V,,,,,,,100812,,,N*4A
463,
$GPRMC,170817.899,A,3956.3719,N,11623.9257,E,5.78,176.83,100812,,,A*6E
463,
$GPRMC,170818.899,V,,,,,,,100812,,,N*48
463,
$GPRMC,170819.899,V,,,,,,,100812,,,N*49
463,
$GPRMC,170820.895,V,,,,,,,100812,,,N*4F
463,
$GPRMC,170821.899,V,,,,,,,100812,,,N*42
463,
$GPRMC,170822.899,V,,,,,,,100812,,,N*41
463,
$GPRMC,170823.899,V,,,,,,,100812,,,N*40
463,
$GPRMC,170824.895,V,,,,,,,100812,,,N*4B
463,
$GPRMC,170825.899,V,,,,,,,100812,,,N*46
463,
$GPRMC,170826.899,V,,,,,,,100812,,,N*45
463,
$GPRMC,170827.899,V,,,,,,,100812,,,N*44
463,
$GPRMC,170828.895,V,,,,,,,100812,,,N*47
463,
$GPRMC,170829.899,V,,,,,,,100812,,,N*4A
463,
$GPRMC,170830.899,V,,,,,,,100812,,,N*42
463,
$GPRMC,170831.899,V,,,,,,,100812,,,N*43
463,
$GPRMC,170832.895,V,,,,,,,100812,,,N*4C
463,
$GPRMC,170833.896,V,,,,,,,100812,,,N*4E
463,
$GPRMC,170834.896,V,,,,,,,100812,,,N*49
463,
$GPRMC,170835.896,V,,,,,,,100812,,,N*48
463,
$GPRMC,170836.896,V,,,,,,,100812,,,N*4B
463,
$GPRMC,170837.896,V,,,,,,,100812,,,N*4A
463,
$GPRMC,170838.896,V,,,,,,,100812,,,N*45
462,
$GPRMC,170839.896,V,,,,,,,100812,,,N*44
463,
$GPRMC,170840.896,A,3956.3655,N,11623.9427,E,0.60,89.61,100812,,,A*5A
463,
$GPRMC,170841.896,V,,,,,,,100812,,,N*4B
463,
$GPRMC,170842.896,A,3956.3615,N,11623.9306,E,2.31,334.72,100812,,,A*69
463,
$GPRMC,170843.896,A,3956.3511,N,11623.9358,E,1.04,346.17,100812,,,A*67
463,
$GPRMC,170844.896,A,3956.3573,N,11623.9264,E,3.15,166.02,100812,,,A*6C
462,
$GPRMC,170845.896,A,3956.3443,N,11623.9288,E,6.04,181.13,100812,,,A*61
462,
$GPRMC,170846.896,A,3956.3587,N,11623.9278,E,9.66,177.58,100812,,,A*69
462,
$GPRMC,170847.896,V,,,,,,,100812,,,N*4D
463,
$GPRMC,170848.896,V,,,,,,,100812,,,N*42
463,
$GPRMC,170849.896,V,,,,,,,100812,,,N*43
462,
$GPRMC,170850.896,V,,,,,,,100812,,,N*4B
462,
$GPRMC,170851.896,V,,,,,,,100812,,,N*4A
463,
$GPRMC,170852.896,V,,,,,,,100812,,,N*49
463,
$GPRMC,170853.896,V,,,,,,,100812,,,N*48
463,
$GPRMC,170854.896,V,,,,,,,100812,,,N*4F
462,
$GPRMC,170855.896,V,,,,,,,100812,,,N*4E
462,
$GPRMC,170856.896,V,,,,,,,100812,,,N*4D
463,
$GPRMC,170857.896,V,,,,,,,100812,,,N*4C
463,
$GPRMC,170858.896,V,,,,,,,100812,,,N*43
463,
$GPRMC,170859.896,V,,,,,,,100812,,,N*42
463,
$GPRMC,170900.896,V,,,,,,,100812,,,N*4F
463,
$GPRMC,170901.896,V,,,,,,,100812,,,N*4E
463,
$GPRMC,170902.896,V,,,,,,,100812,,,N*4D
463,
$GPRMC,170903.896,V,,,,,,,100812,,,N*4C
463,
$GPRMC,170904.896,V,,,,,,,100812,,,N*4B
463,
$GPRMC,170905.896,V,,,,,,,100812,,,N*4A
462,
$GPRMC,170906.896,V,,,,,,,100812,,,N*49
463,
$GPRMC,170907.896,V,,,,,,,100812,,,N*48
462,
$GPRMC,170908.896,V,,,,,,,100812,,,N*47
462,
$GPRMC,170909.896,V,,,,,,,100812,,,N*46
463,
$GPRMC,170910.896,V,,,,,,,100812,,,N*4E
463,
$GPRMC,170911.896,V,,,,,,,100812,,,N*4F
462,
$GPRMC,170912.896,V,,,,,,,100812,,,N*4C
462,
$GPRMC,170913.896,V,,,,,,,100812,,,N*4D
462,
$GPRMC,170914.896,V,,,,,,,100812,,,N*4A
463,
$GPRMC,170915.896,V,,,,,,,100812,,,N*4B
463,
$GPRMC,170916.896,V,,,,,,,100812,,,N*48
462,
$GPRMC,170917.896,V,,,,,,,100812,,,N*49
462,
$GPRMC,170918.896,V,,,,,,,100812,,,N*46
462,
$GPRMC,170919.896,V,,,,,,,100812,,,N*47
462,
$GPRMC,170920.896,V,,,,,,,100812,,,N*4D
462,
$GPRMC,170921.896,V,,,,,,,100812,,,N*4C
462,
$GPRMC,170922.896,V,,,,,,,100812,,,N*4F
462,
$GPRMC,170923.896,V,,,,,,,100812,,,N*4E
462,
$GPRMC,170924.896,V,,,,,,,100812,,,N*49
462,
$GPRMC,170925.896,V,,,,,,,100812,,,N*48
463,
$GPRMC,170926.896,V,,,,,,,100812,,,N*4B
462,
$GPRMC,170927.896,V,,,,,,,100812,,,N*4A
462,
$GPRMC,170928.896,V,,,,,,,100812,,,N*45
463,
$GPRMC,170929.896,V,,,,,,,100812,,,N*44
463,
$GPRMC,170930.896,V,,,,,,,100812,,,N*4C
463,
$GPRMC,170931.896,V,,,,,,,100812,,,N*4D
463,
$GPRMC,170932.896,V,,,,,,,100812,,,N*4E
463,
$GPRMC,170933.896,V,,,,,,,100812,,,N*4F
463,
$GPRMC,170934.896,V,,,,,,,100812,,,N*48
463,
$GPRMC,170935.896,V,,,,,,,100812,,,N*49
463,
$GPRMC,170936.896,V,,,,,,,100812,,,N*4A
463,
$GPRMC,170937.896,V,,,,,,,100812,,,N*4B
463,
$GPRMC,170938.896,V,,,,,,,100812,,,N*44
463,
$GPRMC,170939.896,V,,,,,,,100812,,,N*45
463,
$GPRMC,170940.896,V,,,,,,,100812,,,N*4B
463,
$GPRMC,170941.896,V,,,,,,,100812,,,N*4A
463,
$GPRMC,170942.896,V,,,,,,,100812,,,N*49
463,
$GPRMC,170943.896,V,,,,,,,100812,,,N*48
463,
$GPRMC,170944.896,V,,,,,,,100812,,,N*4F
463,
$GPRMC,170945.896,V,,,,,,,100812,,,N*4E
463,
$GPRMC,170946.896,V,,,,,,,100812,,,N*4D
463,
$GPRMC,170947.896,V,,,,,,,100812,,,N*4C
463,
$GPRMC,170948.896,V,,,,,,,100812,,,N*43
463,
$GPRMC,170949.896,V,,,,,,,100812,,,N*42
463,
$GPRMC,170950.896,V,,,,,,,100812,,,N*4A
462,
$GPRMC,170951.896,V,,,,,,,100812,,,N*4B
462,
$GPRMC,170952.896,V,,,,,,,100812,,,N*48
463,
$GPRMC,170953.896,V,,,,,,,100812,,,N*49
463,
$GPRMC,170954.896,V,,,,,,,100812,,,N*4E
462,
$GPRMC,170955.896,V,,,,,,,100812,,,N*4F
462,
$GPRMC,170956.896,V,,,,,,,100812,,,N*4C
462,
$GPRMC,170957.896,V,,,,,,,100812,,,N*4D
462,
$GPRMC,170958.896,V,,,,,,,100812,,,N*42
462,
$GPRMC,170959.896,V,,,,,,,100812,,,N*43
462,
$GPRMC,171000.896,V,,,,,,,100812,,,N*47
462,
$GPRMC,171001.896,V,,,,,,,100812,,,N*46
462,
$GPRMC,171002.896,V,,,,,,,100812,,,N*45
462,
$GPRMC,171003.896,V,,,,,,,100812,,,N*44
462,
$GPRMC,171004.896,V,,,,,,,100812,,,N*43
462,
$GPRMC,171005.896,V,,,,,,,100812,,,N*42
462,
$GPRMC,171006.896,V,,,,,,,100812,,,N*41
462,
$GPRMC,171007.896,V,,,,,,,100812,,,N*40
462,
$GPRMC,171008.896,V,,,,,,,100812,,,N*4F
462,
$GPRMC,171009.896,V,,,,,,,100812,,,N*4E
462,
$GPRMC,171010.896,V,,,,,,,100812,,,N*46
462,
$GPRMC,171011.896,V,,,,,,,100812,,,N*47
462,
$GPRMC,171012.896,V,,,,,,,100812,,,N*44
462,
$GPRMC,171013.896,V,,,,,,,100812,,,N*45
462,
$GPRMC,171014.896,V,,,,,,,100812,,,N*42
462,
$GPRMC,171015.896,V,,,,,,,100812,,,N*43
462,
$GPRMC,171016.896,V,,,,,,,100812,,,N*40
462,
$GPRMC,171017.896,V,,,,,,,100812,,,N*41
462,
$GPRMC,171018.896,V,,,,,,,100812,,,N*4E
462,
$GPRMC,171019.896,V,,,,,,,100812,,,N*4F
462,
$GPRMC,171020.896,V,,,,,,,100812,,,N*45
462,
$GPRMC,171021.895,V,,,,,,,100812,,,N*47
462,
$GPRMC,171022.895,V,,,,,,,100812,,,N*44
462,
$GPRMC,171023.895,V,,,,,,,100812,,,N*45
462,
$GPRMC,171024.895,V,,,,,,,100812,,,N*42
462,
$GPRMC,171025.895,V,,,,,,,100812,,,N*43
462,
$GPRMC,171026.895,V,,,,,,,100812,,,N*40
462,
$GPRMC,171027.895,V,,,,,,,100812,,,N*41
462,
$GPRMC,171028.895,V,,,,,,,100812,,,N*4E
462,
$GPRMC,171029.895,V,,,,,,,100812,,,N*4F
462,
$GPRMC,171030.895,V,,,,,,,100812,,,N*47
462,
$GPRMC,171031.895,V,,,,,,,100812,,,N*46
462,
$GPRMC,171032.895,V,,,,,,,100812,,,N*45
462,
$GPRMC,171033.895,V,,,,,,,100812,,,N*44
462,
$GPRMC,171034.895,V,,,,,,,100812,,,N*43
463,
$GPRMC,171035.895,V,,,,,,,100812,,,N*42
463,
$GPRMC,171036.895,V,,,,,,,100812,,,N*41
463,
$GPRMC,171037.895,V,,,,,,,100812,,,N*40
463,
$GPRMC,171038.895,V,,,,,,,100812,,,N*4F
462,
$GPRMC,171039.895,V,,,,,,,100812,,,N*4E
462,
$GPRMC,171040.895,V,,,,,,,100812,,,N*40
463,
$GPRMC,171041.895,V,,,,,,,100812,,,N*41
462,
$GPRMC,171042.895,V,,,,,,,100812,,,N*42
462,
$GPRMC,171043.895,V,,,,,,,100812,,,N*43
462,
$GPRMC,171044.895,V,,,,,,,100812,,,N*44
462,
$GPRMC,171045.895,V,,,,,,,100812,,,N*45
462,
$GPRMC,171046.895,V,,,,,,,100812,,,N*46
462,
$GPRMC,171047.895,V,,,,,,,100812,,,N*47
462,
$GPRMC,171048.895,V,,,,,,,100812,,,N*48
462,
$GPRMC,171049.895,V,,,,,,,100812,,,N*49
462,
$GPRMC,171050.895,V,,,,,,,100812,,,N*41
462,
$GPRMC,171051.895,V,,,,,,,100812,,,N*40
462,
$GPRMC,171052.895,V,,,,,,,100812,,,N*43
462,
$GPRMC,171053.895,V,,,,,,,100812,,,N*42
462,
$GPRMC,171054.895,V,,,,,,,100812,,,N*45
462,
$GPRMC,171055.895,V,,,,,,,100812,,,N*44
462,
$GPRMC,171056.895,V,,,,,,,100812,,,N*47
462,
$GPRMC,171057.895,V,,,,,,,100812,,,N*46
462,
$GPRMC,171058.899,V,,,,,,,100812,,,N*45
462,
$GPRMC,171059.895,V,,,,,,,100812,,,N*48
462,
$GPRMC,171100.899,V,,,,,,,100812,,,N*49
462,
$GPRMC,171101.895,V,,,,,,,100812,,,N*44
462,
$GPRMC,171102.895,V,,,,,,,100812,,,N*47
462,
$GPRMC,171103.895,V,,,,,,,100812,,,N*46
462,
$GPRMC,171104.895,V,,,,,,,100812,,,N*41
462,
$GPRMC,171105.895,V,,,,,,,100812,,,N*40
462,
$GPRMC,171106.895,V,,,,,,,100812,,,N*43
462,
$GPRMC,171107.895,V,,,,,,,100812,,,N*42
462,
$GPRMC,171108.895,V,,,,,,,100812,,,N*4D
462,
$GPRMC,171109.895,V,,,,,,,100812,,,N*4C
462,
$GPRMC,171110.895,V,,,,,,,100812,,,N*44
462,
$GPRMC,171111.895,V,,,,,,,100812,,,N*45
462,
$GPRMC,171112.895,V,,,,,,,100812,,,N*46
462,
$GPRMC,171113.895,V,,,,,,,100812,,,N*47
462,
$GPRMC,171114.895,V,,,,,,,100812,,,N*40
462,
$GPRMC,171115.895,V,,,,,,,100812,,,N*41
462,
$GPRMC,171116.895,V,,,,,,,100812,,,N*42
462,
$GPRMC,171117.895,V,,,,,,,100812,,,N*43
462,
$GPRMC,171118.895,V,,,,,,,100812,,,N*4C
462,
$GPRMC,171119.895,V,,,,,,,100812,,,N*4D
462,
$GPRMC,171120.895,V,,,,,,,100812,,,N*47
462,
$GPRMC,171121.895,V,,,,,,,100812,,,N*46
462,
$GPRMC,171122.895,V,,,,,,,100812,,,N*45
462,
$GPRMC,171123.895,V,,,,,,,100812,,,N*44
462,
$GPRMC,171124.895,V,,,,,,,100812,,,N*43
462,
$GPRMC,171125.895,V,,,,,,,100812,,,N*42
462,
$GPRMC,171126.895,V,,,,,,,100812,,,N*41
462,
$GPRMC,171127.895,V,,,,,,,100812,,,N*40
462,
$GPRMC,171128.895,V,,,,,,,100812,,,N*4F
462,
$GPRMC,171129.895,V,,,,,,,100812,,,N*4E
462,
$GPRMC,171130.895,V,,,,,,,100812,,,N*46
462,
$GPRMC,171131.895,V,,,,,,,100812,,,N*47
462,
$GPRMC,171132.895,V,,,,,,,100812,,,N*44
462,
$GPRMC,171133.895,V,,,,,,,100812,,,N*45
462,
$GPRMC,171134.895,V,,,,,,,100812,,,N*42
462,
$GPRMC,171135.895,V,,,,,,,100812,,,N*43
462,
$GPRMC,171136.895,V,,,,,,,100812,,,N*40
462,
$GPRMC,171137.895,V,,,,,,,100812,,,N*41
462,
$GPRMC,171138.895,V,,,,,,,100812,,,N*4E
462,
$GPRMC,171139.895,V,,,,,,,100812,,,N*4F
462,
$GPRMC,171140.895,V,,,,,,,100812,,,N*41
462,
$GPRMC,171141.895,V,,,,,,,100812,,,N*40
462,
$GPRMC,171142.895,V,,,,,,,100812,,,N*43
462,
$GPRMC,171143.895,V,,,,,,,100812,,,N*42
462,
$GPRMC,171144.895,V,,,,,,,100812,,,N*45
462,
$GPRMC,171145.895,V,,,,,,,100812,,,N*44
462,
$GPRMC,171146.895,V,,,,,,,100812,,,N*47
462,
$GPRMC,171147.895,V,,,,,,,100812,,,N*46
462,
$GPRMC,171148.895,V,,,,,,,100812,,,N*49
462,
$GPRMC,171149.895,V,,,,,,,100812,,,N*48
462,
$GPRMC,171150.895,V,,,,,,,100812,,,N*40
462,
$GPRMC,171151.895,V,,,,,,,100812,,,N*41
462,
$GPRMC,171152.895,V,,,,,,,100812,,,N*42
462,
$GPRMC,171153.895,V,,,,,,,100812,,,N*43
462,
$GPRMC,171154.895,V,,,,,,,100812,,,N*44
462,
$GPRMC,171155.895,V,,,,,,,100812,,,N*45
462,
$GPRMC,171156.895,V,,,,,,,100812,,,N*46
462,
$GPRMC,171157.895,V,,,,,,,100812,,,N*47
462,
$GPRMC,171158.895,V,,,,,,,100812,,,N*48
462,
$GPRMC,171159.895,V,,,,,,,100812,,,N*49
462,
$GPRMC,171200.895,V,,,,,,,100812,,,N*46
462,
$GPRMC,171201.895,V,,,,,,,100812,,,N*47
462,
$GPRMC,171202.895,V,,,,,,,100812,,,N*44
462,
$GPRMC,171203.895,V,,,,,,,100812,,,N*45
462,
$GPRMC,171204.895,V,,,,,,,100812,,,N*42
462,
$GPRMC,171205.895,V,,,,,,,100812,,,N*43
462,
$GPRMC,171206.895,V,,,,,,,100812,,,N*40
462,
$GPRMC,171207.895,V,,,,,,,100812,,,N*41
462,
$GPRMC,171208.895,V,,,,,,,100812,,,N*4E
462,
$GPRMC,171209.895,V,,,,,,,100812,,,N*4F
462,
$GPRMC,171210.895,V,,,,,,,100812,,,N*47
462,
$GPRMC,171211.895,V,,,,,,,100812,,,N*46
462,
$GPRMC,171212.895,V,,,,,,,100812,,,N*45
462,
$GPRMC,171213.895,V,,,,,,,100812,,,N*44
462,
$GPRMC,171214.895,V,,,,,,,100812,,,N*43
462,
$GPRMC,171215.895,V,,,,,,,100812,,,N*42
462,
$GPRMC,171216.895,V,,,,,,,100812,,,N*41
462,
$GPRMC,171217.895,V,,,,,,,100812,,,N*40
462,
$GPRMC,171218.895,V,,,,,,,100812,,,N*4F
462,
$GPRMC,171219.895,V,,,,,,,100812,,,N*4E
462,
$GPRMC,171220.895,V,,,,,,,100812,,,N*44
462,
$GPRMC,171221.895,V,,,,,,,100812,,,N*45
462,
$GPRMC,171222.895,V,,,,,,,100812,,,N*46
462,
$GPRMC,171223.895,V,,,,,,,100812,,,N*47
462,
$GPRMC,171224.895,V,,,,,,,100812,,,N*40
462,
$GPRMC,171225.895,V,,,,,,,100812,,,N*41
462,
$GPRMC,171226.895,V,,,,,,,100812,,,N*42
462,
$GPRMC,171227.895,V,,,,,,,100812,,,N*43
462,
$GPRMC,171228.895,V,,,,,,,100812,,,N*4C
462,
$GPRMC,171229.895,V,,,,,,,100812,,,N*4D
462,
$GPRMC,171230.895,V,,,,,,,100812,,,N*45
462,
$GPRMC,171231.895,V,,,,,,,100812,,,N*44
462,
$GPRMC,171232.895,V,,,,,,,100812,,,N*47
462,
$GPRMC,171233.895,V,,,,,,,100812,,,N*46
462,
$GPRMC,171234.895,V,,,,,,,100812,,,N*41
462,
$GPRMC,171235.895,V,,,,,,,100812,,,N*40
462,
$GPRMC,171236.898,V,,,,,,,100812,,,N*4E
462,
$GPRMC,171237.895,V,,,,,,,100812,,,N*42
462,
$GPRMC,171238.895,V,,,,,,,100812,,,N*4D
462,
$GPRMC,171239.895,V,,,,,,,100812,,,N*4C
462,
$GPRMC,171240.895,V,,,,,,,100812,,,N*42
462,
$GPRMC,171241.895,V,,,,,,,100812,,,N*43
462,
$GPRMC,171242.895,V,,,,,,,100812,,,N*40
462,
$GPRMC,171243.895,V,,,,,,,100812,,,N*41
462,
$GPRMC,171244.895,V,,,,,,,100812,,,N*46
462,
$GPRMC,171245.895,V,,,,,,,100812,,,N*47
462,
$GPRMC,171246.895,V,,,,,,,100812,,,N*44
462,
$GPRMC,171247.895,V,,,,,,,100812,,,N*45
462,
$GPRMC,171248.895,V,,,,,,,100812,,,N*4A
462,
$GPRMC,171249.895,V,,,,,,,100812,,,N*4B
462,
$GPRMC,171250.895,V,,,,,,,100812,,,N*43
462,
$GPRMC,171251.895,V,,,,,,,100812,,,N*42
462,
$GPRMC,171252.895,V,,,,,,,100812,,,N*41
462,
$GPRMC,171253.895,V,,,,,,,100812,,,N*40
462,
$GPRMC,171254.895,V,,,,,,,100812,,,N*47
462,
$GPRMC,171255.895,V,,,,,,,100812,,,N*46
462,
$GPRMC,171256.895,V,,,,,,,100812,,,N*45
462,
$GPRMC,171257.895,V,,,,,,,100812,,,N*44
462,
$GPRMC,171258.895,V,,,,,,,100812,,,N*4B
462,
$GPRMC,171259.895,V,,,,,,,100812,,,N*4A
462,
$GPRMC,171300.895,V,,,,,,,100812,,,N*47
462,
$GPRMC,171301.895,V,,,,,,,100812,,,N*46
462,
$GPRMC,171302.895,V,,,,,,,100812,,,N*45
462,
$GPRMC,171303.895,V,,,,,,,100812,,,N*44
462,
$GPRMC,171304.895,V,,,,,,,100812,,,N*43
462,
$GPRMC,171305.895,V,,,,,,,100812,,,N*42
462,
$GPRMC,171306.895,V,,,,,,,100812,,,N*41
462,
$GPRMC,171307.895,V,,,,,,,100812,,,N*40
462,
$GPRMC,171308.895,V,,,,,,,100812,,,N*4F
462,
$GPRMC,171309.895,A,3956.3570,N,11623.9548,E,2.88,97.92,100812,,,A*55
462,
$GPRMC,171310.895,A,3956.3691,N,11623.9457,E,2.90,104.89,100812,,,A*66
462,
$GPRMC,171311.895,A,3956.3608,N,11623.9365,E,5.45,145.31,100812,,,A*68
462,
$GPRMC,171312.895,A,3956.3431,N,11623.9458,E,6.21,152.52,100812,,,A*68
462,
$GPRMC,171313.895,A,3956.3507,N,11623.9349,E,6.00,156.87,100812,,,A*65
462,
$GPRMC,171314.895,A,3956.3651,N,11623.9316,E,3.54,136.20,100812,,,A*67
462,
$GPRMC,171315.895,A,3956.3716,N,11623.9308,E,1.76,110.21,100812,,,A*6C
462,
$GPRMC,171316.895,A,3956.3686,N,11623.9307,E,3.43,7.06,100812,,,A*6E
462,
$GPRMC,171317.895,A,3956.3707,N,11623.9290,E,5.97,345.41,100812,,,A*61
462,
$GPRMC,171318.895,A,3956.3734,N,11623.9270,E,6.28,336.51,100812,,,A*62
462,
$GPRMC,171319.895,A,3956.3629,N,11623.9234,E,5.09,332.45,100812,,,A*6F
462,
$GPRMC,171320.895,A,3956.3698,N,11623.9227,E,3.29,345.75,100812,,,A*6A
462,
$GPRMC,171321.895,A,3956.3754,N,11623.9214,E,2.45,149.44,100812,,,A*6D
462,
$GPRMC,171322.895,A,3956.3520,N,11623.9310,E,4.53,145.96,100812,,,A*68
462,
$GPRMC,171323.895,A,3956.3496,N,11623.9353,E,6.39,146.72,100812,,,A*65
462,
$GPRMC,171324.895,A,3956.3567,N,11623.9311,E,9.03,151.73,100812,,,A*6A
462,
$GPRMC,171325.895,A,3956.3476,N,11623.9299,E,8.11,146.96,100812,,,A*64
462,
$GPRMC,171326.895,A,3956.3489,N,11623.9267,E,4.91,137.94,100812,,,A*66
462,
$GPRMC,171327.895,A,3956.3563,N,11623.9294,E,1.22,118.61,100812,,,A*64
462,
$GPRMC,171328.895,A,3956.3529,N,11623.9295,E,0.89,76.50,100812,,,A*5F
462,
$GPRMC,171329.895,A,3956.3646,N,11623.9265,E,1.19,37.07,100812,,,A*54
462,
$GPRMC,171330.895,A,3956.3631,N,11623.9280,E,2.29,33.53,100812,,,A*52
462,
$GPRMC,171331.895,A,3956.3689,N,11623.9200,E,3.15,14.42,100812,,,A*53
462,
$GPRMC,171332.895,A,3956.3647,N,11623.9163,E,1.98,45.64,100812,,,A*53
462,
$GPRMC,171333.895,A,3956.3685,N,11623.9276,E,2.92,113.46,100812,,,A*60
462,
$GPRMC,171334.895,A,3956.3586,N,11623.9298,E,4.63,133.18,100812,,,A*66
462,
$GPRMC,171335.895,A,3956.3775,N,11623.9185,E,3.07,115.51,100812,,,A*6A
462,
$GPRMC,171336.895,A,3956.3963,N,11623.9184,E,1.96,35.76,100812,,,A*5D
462,
$GPRMC,171337.895,A,3956.3851,N,11623.9214,E,4.34,354.77,100812,,,A*6E
462,
$GPRMC,171338.895,A,3956.3650,N,11623.9228,E,4.57,341.30,100812,,,A*63
462,
$GPRMC,171339.895,A,3956.3495,N,11623.9286,E,2.26,309.33,100812,,,A*62
462,
$GPRMC,171340.895,A,3956.3403,N,11623.9271,E,0.92,234.88,100812,,,A*69
462,
$GPRMC,171341.895,A,3956.3374,N,11623.9225,E,1.06,178.79,100812,,,A*67
462,
$GPRMC,171342.895,A,3956.3272,N,11623.9238,E,3.47,177.99,100812,,,A*69
462,
$GPRMC,171343.895,A,3956.3270,N,11623.9281,E,5.48,176.73,100812,,,A*64
462,
$GPRMC,171344.895,A,3956.3493,N,11623.9234,E,6.21,174.75,100812,,,A*6E
462,
$GPRMC,171345.895,A,3956.3359,N,11623.9304,E,7.37,169.00,100812,,,A*64
462,
$GPRMC,171346.895,A,3956.3343,N,11623.9271,E,6.90,165.93,100812,,,A*65
462,
$GPRMC,171347.895,A,3956.3332,N,11623.9286,E,4.65,152.69,100812,,,A*63
462,
$GPRMC,171348.895,A,3956.3219,N,11623.9320,E,2.46,104.83,100812,,,A*69
462,
$GPRMC,171349.895,A,3956.3404,N,11623.9384,E,3.75,115.57,100812,,,A*64
462,
$GPRMC,171350.895,A,3956.3405,N,11623.9357,E,3.51,41.40,100812,,,A*53
462,
$GPRMC,171351.895,A,3956.3556,N,11623.9357,E,3.51,52.13,100812,,,A*51
462,
$GPRMC,171352.895,A,3956.3538,N,11623.9339,E,3.22,39.41,100812,,,A*5C
462,
$GPRMC,171353.895,A,3956.3550,N,11623.9307,E,4.41,19.28,100812,,,A*51
462,
$GPRMC,171354.895,A,3956.3523,N,11623.9300,E,4.92,12.28,100812,,,A*50
462,
$GPRMC,171355.895,A,3956.3561,N,11623.9321,E,2.55,41.47,100812,,,A*56
462,
$GPRMC,171356.895,A,3956.3688,N,11623.9360,E,1.84,110.66,100812,,,A*6D
462,
$GPRMC,171357.895,A,3956.3672,N,11623.9326,E,5.03,162.73,100812,,,A*61
462,
$GPRMC,171358.895,A,3956.3548,N,11623.9294,E,7.31,169.70,100812,,,A*67
462,
$GPRMC,171359.895,A,3956.3641,N,11623.9257,E,8.27,165.27,100812,,,A*65
462,
$GPRMC,171400.895,A,3956.3805,N,11623.9263,E,7.66,165.17,100812,,,A*6E
462,
$GPRMC,171401.895,A,3956.3652,N,11623.9370,E,5.76,168.76,100812,,,A*69
462,
$GPRMC,171402.895,A,3956.3583,N,11623.9329,E,3.57,162.56,100812,,,A*64
462,
$GPRMC,171403.895,A,3956.3661,N,11623.9301,E,1.39,95.92,100812,,,A*5B
462,
$GPRMC,171404.895,A,3956.3486,N,11623.9363,E,2.15,98.42,100812,,,A*5E
462,
$GPRMC,171405.895,A,3956.3479,N,11623.9408,E,2.03,90.00,100812,,,A*5C
462,
$GPRMC,171406.895,A,3956.3518,N,11623.9365,E,3.08,134.66,100812,,,A*60
462,
$GPRMC,171407.895,A,3956.3566,N,11623.9371,E,6.14,146.54,100812,,,A*61
462,
$GPRMC,171408.895,A,3956.3597,N,11623.9348,E,5.98,135.76,100812,,,A*69
462,
$GPRMC,171409.895,A,3956.3599,N,11623.9359,E,5.94,143.90,100812,,,A*63
462,
$GPRMC,171410.895,A,3956.3545,N,11623.9360,E,4.49,152.18,100812,,,A*61
462,
$GPRMC,171411.895,A,3956.3496,N,11623.9429,E,3.39,155.75,100812,,,A*69
463,
$GPRMC,171412.895,A,3956.3438,N,11623.9462,E,2.67,141.74,100812,,,A*6F
462,
$GPRMC,171413.895,A,3956.3379,N,11623.9337,E,0.99,114.56,100812,,,A*68
462,
$GPRMC,171414.895,A,3956.3230,N,11623.9397,E,0.40,6.01,100812,,,A*6D
462,
$GPRMC,171415.895,A,3956.3380,N,11623.9308,E,2.07,329.62,100812,,,A*6A
463,
$GPRMC,171416.895,A,3956.3697,N,11623.9221,E,4.94,338.48,100812,,,A*64
463,
$GPRMC,171417.895,A,3956.3681,N,11623.9260,E,6.28,325.95,100812,,,A*6E
463,
$GPRMC,171418.895,A,3956.3602,N,11623.9332,E,5.92,325.80,100812,,,A*6A
463,
$GPRMC,171419.895,A,3956.3764,N,11623.9258,E,4.29,336.69,100812,,,A*63
463,
$GPRMC,171420.895,A,3956.3712,N,11623.9199,E,1.62,327.89,100812,,,A*62
463,
$GPRMC,171421.895,A,3956.3752,N,11623.9158,E,0.83,158.72,100812,,,A*6A
463,
$GPRMC,171422.895,A,3956.3887,N,11623.9149,E,3.41,140.77,100812,,,A*6F
463,
$GPRMC,171423.895,A,3956.3881,N,11623.9203,E,5.59,140.86,100812,,,A*64
463,
$GPRMC,171424.895,A,3956.3645,N,11623.9324,E,3.04,129.67,100812,,,A*6F
463,
$GPRMC,171425.895,A,3956.3522,N,11623.9354,E,2.64,123.11,100812,,,A*67
463,
$GPRMC,171426.895,A,3956.3673,N,11623.9234,E,2.09,100.50,100812,,,A*6B
463,
$GPRMC,171427.895,A,3956.3555,N,11623.9283,E,2.52,53.37,100812,,,A*59
463,
$GPRMC,171428.895,A,3956.3535,N,11623.9374,E,3.74,64.68,100812,,,A*52
463,
$GPRMC,171429.895,A,3956.3417,N,11623.9484,E,4.58,65.98,100812,,,A*5D
463,
$GPRMC,171430.895,A,3956.3451,N,11623.9472,E,4.32,56.79,100812,,,A*5D
463,
$GPRMC,171431.895,A,3956.3539,N,11623.9390,E,2.86,58.03,100812,,,A*52
463,
$GPRMC,171432.895,A,3956.3587,N,11623.9402,E,2.13,81.69,100812,,,A*5C
463,
$GPRMC,171433.895,A,3956.3542,N,11623.9385,E,3.33,152.02,100812,,,A*6D
464,
$GPRMC,171434.895,A,3956.3553,N,11623.9362,E,5.62,170.85,100812,,,A*6E
464,
$GPRMC,171435.895,A,3956.3465,N,11623.9412,E,6.04,170.76,100812,,,A*64
464,
$GPRMC,171436.895,A,3956.3471,N,11623.9381,E,3.94,168.80,100812,,,A*63
464,
$GPRMC,171437.895,A,3956.3557,N,11623.9361,E,3.22,168.68,100812,,,A*62
464,
$GPRMC,171438.895,A,3956.3507,N,11623.9316,E,3.73,171.81,100812,,,A*63
463,
$GPRMC,171439.895,A,3956.3476,N,11623.9286,E,0.00,,100812,,,A*7A
463,
$GPRMC,171440.895,A,3956.3566,N,11623.9285,E,4.72,163.55,100812,,,A*6C
463,
$GPRMC,171441.895,A,3956.3781,N,11623.9200,E,5.03,165.78,100812,,,A*65
463,
$GPRMC,171442.895,A,3956.3634,N,11623.9248,E,3.58,149.81,100812,,,A*65
463,
$GPRMC,171443.895,A,3956.3662,N,11623.9249,E,1.81,112.93,100812,,,A*6D
463,
$GPRMC,171444.895,A,3956.3564,N,11623.9327,E,0.00,,100812,,,A*78
463,
$GPRMC,171445.895,V,,,,,,,100812,,,N*41
463,
$GPRMC,171446.895,V,,,,,,,100812,,,N*42
463,
$GPRMC,171447.895,V,,,,,,,100812,,,N*43
463,
$GPRMC,171448.895,V,,,,,,,100812,,,N*4C
463,
$GPRMC,171449.895,V,,,,,,,100812,,,N*4D
463,
$GPRMC,171450.895,V,,,,,,,100812,,,N*45
463,
$GPRMC,171451.895,V,,,,,,,100812,,,N*44
463,
$GPRMC,171452.895,V,,,,,,,100812,,,N*47
463,
$GPRMC,171453.895,V,,,,,,,100812,,,N*46
463,
$GPRMC,171454.895,V,,,,,,,100812,,,N*41
463,
$GPRMC,171455.895,V,,,,,,,100812,,,N*40
463,
$GPRMC,171456.895,V,,,,,,,100812,,,N*43
463,
$GPRMC,171457.895,V,,,,,,,100812,,,N*42
463,
$GPRMC,171458.895,V,,,,,,,100812,,,N*4D
463,
$GPRMC,171459.895,V,,,,,,,100812,,,N*4C
463,
$GPRMC,171500.895,V,,,,,,,100812,,,N*41
463,
$GPRMC,171501.895,V,,,,,,,100812,,,N*40
463,
$GPRMC,171502.895,V,,,,,,,100812,,,N*43
463,
$GPRMC,171503.895,V,,,,,,,100812,,,N*42
463,
$GPRMC,171504.895,V,,,,,,,100812,,,N*45
463,
$GPRMC,171505.895,V,,,,,,,100812,,,N*44
463,
$GPRMC,171506.895,V,,,,,,,100812,,,N*47
463,
$GPRMC,171507.895,V,,,,,,,100812,,,N*46
463,
$GPRMC,171508.895,V,,,,,,,100812,,,N*49
463,
$GPRMC,171509.895,V,,,,,,,100812,,,N*48
463,
$GPRMC,171510.895,V,,,,,,,100812,,,N*40
463,
$GPRMC,171511.895,V,,,,,,,100812,,,N*41
463,
$GPRMC,171512.895,V,,,,,,,100812,,,N*42
463,
$GPRMC,171513.895,V,,,,,,,100812,,,N*43
463,
$GPRMC,171514.895,V,,,,,,,100812,,,N*44
463,
$GPRMC,171515.895,V,,,,,,,100812,,,N*45
463,
$GPRMC,171516.895,V,,,,,,,100812,,,N*46
463,
$GPRMC,171517.895,V,,,,,,,100812,,,N*47
463,
$GPRMC,171518.895,V,,,,,,,100812,,,N*48
463,
$GPRMC,171519.895,V,,,,,,,100812,,,N*49
463,
$GPRMC,171520.895,V,,,,,,,100812,,,N*43
463,
$GPRMC,171521.895,V,,,,,,,100812,,,N*42
463,
$GPRMC,171522.895,V,,,,,,,100812,,,N*41
463,
$GPRMC,171523.895,V,,,,,,,100812,,,N*40
463,
$GPRMC,171524.895,V,,,,,,,100812,,,N*47
463,
$GPRMC,171525.895,V,,,,,,,100812,,,N*46
463,
$GPRMC,171526.895,V,,,,,,,100812,,,N*45
463,
$GPRMC,171527.895,V,,,,,,,100812,,,N*44
463,
$GPRMC,171528.895,V,,,,,,,100812,,,N*4B
463,
$GPRMC,171529.895,V,,,,,,,100812,,,N*4A
463,
$GPRMC,171530.895,V,,,,,,,100812,,,N*42
463,
$GPRMC,171531.895,V,,,,,,,100812,,,N*43
463,
$GPRMC,171532.895,V,,,,,,,100812,,,N*40
463,
$GPRMC,171533.895,V,,,,,,,100812,,,N*41
463,
$GPRMC,171534.895,V,,,,,,,100812,,,N*46
463,
$GPRMC,171535.895,V,,,,,,,100812,,,N*47
463,
$GPRMC,171536.895,V,,,,,,,100812,,,N*44
463,
$GPRMC,171537.895,V,,,,,,,100812,,,N*45
463,
$GPRMC,171538.895,V,,,,,,,100812,,,N*4A
463,
$GPRMC,171539.895,V,,,,,,,100812,,,N*4B
463,
$GPRMC,171540.895,V,,,,,,,100812,,,N*45
463,
$GPRMC,171541.895,V,,,,,,,100812,,,N*44
463,
$GPRMC,171542.895,V,,,,,,,100812,,,N*47
463,
$GPRMC,171543.895,V,,,,,,,100812,,,N*46
463,
$GPRMC,171544.895,V,,,,,,,100812,,,N*41
463,
$GPRMC,171545.895,V,,,,,,,100812,,,N*40
463,
$GPRMC,171546.895,V,,,,,,,100812,,,N*43
463,
$GPRMC,171547.895,V,,,,,,,100812,,,N*42
463,
$GPRMC,171548.895,V,,,,,,,100812,,,N*4D
463,
$GPRMC,171549.895,V,,,,,,,100812,,,N*4C
463,
$GPRMC,171550.895,V,,,,,,,100812,,,N*44
463,
$GPRMC,171551.895,V,,,,,,,100812,,,N*45
463,
$GPRMC,171552.895,V,,,,,,,100812,,,N*46
463,
$GPRMC,171553.895,V,,,,,,,100812,,,N*47
463,
$GPRMC,171554.895,V,,,,,,,100812,,,N*40
463,
$GPRMC,171555.895,V,,,,,,,100812,,,N*41
463,
$GPRMC,171556.895,V,,,,,,,100812,,,N*42
463,
$GPRMC,171557.895,V,,,,,,,100812,,,N*43
463,
$GPRMC,171558.895,V,,,,,,,100812,,,N*4C
463,
$GPRMC,171559.895,V,,,,,,,100812,,,N*4D
463,
$GPRMC,171600.895,V,,,,,,,100812,,,N*42
463,
$GPRMC,171601.895,V,,,,,,,100812,,,N*43
463,
$GPRMC,171602.895,V,,,,,,,100812,,,N*40
463,
$GPRMC,171603.895,V,,,,,,,100812,,,N*41
463,
$GPRMC,171604.895,V,,,,,,,100812,,,N*46
463,
$GPRMC,171605.895,V,,,,,,,100812,,,N*47
463,
$GPRMC,171606.895,V,,,,,,,100812,,,N*44
463,
$GPRMC,171607.895,V,,,,,,,100812,,,N*45
463,
$GPRMC,171608.895,V,,,,,,,100812,,,N*4A
463,
$GPRMC,171609.895,V,,,,,,,100812,,,N*4B
463,
$GPRMC,171610.895,V,,,,,,,100812,,,N*43
463,
$GPRMC,171611.895,V,,,,,,,100812,,,N*42
463,
$GPRMC,171612.895,V,,,,,,,100812,,,N*41
463,
$GPRMC,171613.895,V,,,,,,,100812,,,N*40
463,
$GPRMC,171614.895,V,,,,,,,100812,,,N*47
463,
$GPRMC,171615.895,V,,,,,,,100812,,,N*46
463,
$GPRMC,171616.895,V,,,,,,,100812,,,N*45
463,
$GPRMC,171617.895,V,,,,,,,100812,,,N*44
463,
$GPRMC,171618.895,V,,,,,,,100812,,,N*4B
463,
$GPRMC,171619.895,V,,,,,,,100812,,,N*4A
463,
$GPRMC,171620.895,V,,,,,,,100812,,,N*40
463,
$GPRMC,171621.895,V,,,,,,,100812,,,N*41
463,
$GPRMC,171622.895,V,,,,,,,100812,,,N*42
463,
$GPRMC,171623.895,V,,,,,,,100812,,,N*43
463,
$GPRMC,171624.895,V,,,,,,,100812,,,N*44
463,
$GPRMC,171625.895,V,,,,,,,100812,,,N*45
463,
$GPRMC,171626.895,V,,,,,,,100812,,,N*46
463,
$GPRMC,171627.895,V,,,,,,,100812,,,N*47
463,
$GPRMC,171628.895,V,,,,,,,100812,,,N*48
463,
$GPRMC,171629.895,V,,,,,,,100812,,,N*49
463,
$GPRMC,171630.895,V,,,,,,,100812,,,N*41
463,
$GPRMC,171631.895,V,,,,,,,100812,,,N*40
463,
$GPRMC,171632.895,V,,,,,,,100812,,,N*43
463,
$GPRMC,171633.895,V,,,,,,,100812,,,N*42
463,
$GPRMC,171634.895,V,,,,,,,100812,,,N*45
463,
$GPRMC,171635.895,V,,,,,,,100812,,,N*44
463,
$GPRMC,171636.895,V,,,,,,,100812,,,N*47
463,
$GPRMC,171637.895,V,,,,,,,100812,,,N*46
463,
$GPRMC,171638.895,V,,,,,,,100812,,,N*49
463,
$GPRMC,171639.895,V,,,,,,,100812,,,N*48
463,
$GPRMC,171640.895,V,,,,,,,100812,,,N*46
463,
$GPRMC,171641.895,V,,,,,,,100812,,,N*47
463,
$GPRMC,171642.895,V,,,,,,,100812,,,N*44
463,
$GPRMC,171643.895,V,,,,,,,100812,,,N*45
463,
$GPRMC,171644.895,V,,,,,,,100812,,,N*42
463,
$GPRMC,171645.895,V,,,,,,,100812,,,N*43
463,
$GPRMC,171646.895,V,,,,,,,100812,,,N*40
463,
$GPRMC,171647.895,V,,,,,,,100812,,,N*41
463,
$GPRMC,171648.895,V,,,,,,,100812,,,N*4E
463,
$GPRMC,171649.895,V,,,,,,,100812,,,N*4F
463,
$GPRMC,171650.895,V,,,,,,,100812,,,N*47
463,
$GPRMC,171651.895,V,,,,,,,100812,,,N*46
463,
$GPRMC,171652.895,V,,,,,,,100812,,,N*45
463,
$GPRMC,171653.895,V,,,,,,,100812,,,N*44
463,
$GPRMC,171654.895,V,,,,,,,100812,,,N*43
463,
$GPRMC,171655.895,V,,,,,,,100812,,,N*42
463,
$GPRMC,171656.895,V,,,,,,,100812,,,N*41
463,
$GPRMC,171657.895,V,,,,,,,100812,,,N*40
463,
$GPRMC,171658.895,V,,,,,,,100812,,,N*4F
463,
$GPRMC,171659.895,V,,,,,,,100812,,,N*4E
463,
$GPRMC,171700.895,V,,,,,,,100812,,,N*43
463,
$GPRMC,171701.895,V,,,,,,,100812,,,N*42
463,
$GPRMC,171702.895,V,,,,,,,100812,,,N*41
463,
$GPRMC,171703.895,V,,,,,,,100812,,,N*40
463,
$GPRMC,171704.895,V,,,,,,,100812,,,N*47
463,
$GPRMC,171705.895,V,,,,,,,100812,,,N*46
463,
$GPRMC,171706.895,V,,,,,,,100812,,,N*45
463,
$GPRMC,171707.895,V,,,,,,,100812,,,N*44
463,
$GPRMC,171708.895,V,,,,,,,100812,,,N*4B
463,
$GPRMC,171709.895,V,,,,,,,100812,,,N*4A
462,
$GPRMC,171710.895,V,,,,,,,100812,,,N*42
463,
$GPRMC,171711.895,V,,,,,,,100812,,,N*43
462,
$GPRMC,171712.895,V,,,,,,,100812,,,N*40
463,
$GPRMC,171713.895,V,,,,,,,100812,,,N*41
463,
$GPRMC,171714.895,V,,,,,,,100812,,,N*46
463,
$GPRMC,171715.895,V,,,,,,,100812,,,N*47
463,
$GPRMC,171716.895,V,,,,,,,100812,,,N*44
463,
$GPRMC,171717.895,V,,,,,,,100812,,,N*45
462,
$GPRMC,171718.895,V,,,,,,,100812,,,N*4A
462,
$GPRMC,171719.895,V,,,,,,,100812,,,N*4B
462,
$GPRMC,171720.895,V,,,,,,,100812,,,N*41
462,
$GPRMC,171721.895,V,,,,,,,100812,,,N*40
463,
$GPRMC,171722.899,V,,,,,,,100812,,,N*4F
462,
$GPRMC,171723.895,V,,,,,,,100812,,,N*42
462,
$GPRMC,171724.895,V,,,,,,,100812,,,N*45
462,
$GPRMC,171725.895,V,,,,,,,100812,,,N*44
462,
$GPRMC,171726.895,V,,,,,,,100812,,,N*47
463,
$GPRMC,171727.895,V,,,,,,,100812,,,N*46
462,
$GPRMC,171728.895,V,,,,,,,100812,,,N*49
463,
$GPRMC,171729.895,V,,,,,,,100812,,,N*48
463,
$GPRMC,171730.895,V,,,,,,,100812,,,N*40
463,
$GPRMC,171731.895,V,,,,,,,100812,,,N*41
463,
$GPRMC,171732.895,V,,,,,,,100812,,,N*42
463,
$GPRMC,171733.895,V,,,,,,,100812,,,N*43
463,
$GPRMC,171734.895,V,,,,,,,100812,,,N*44
462,
$GPRMC,171735.895,V,,,,,,,100812,,,N*45
462,
$GPRMC,171736.895,V,,,,,,,100812,,,N*46
462,
$GPRMC,171737.895,V,,,,,,,100812,,,N*47
462,
$GPRMC,171738.895,V,,,,,,,100812,,,N*48
462,
$GPRMC,171739.895,V,,,,,,,100812,,,N*49
463,
$GPRMC,171740.895,V,,,,,,,100812,,,N*47
462,
$GPRMC,171741.895,V,,,,,,,100812,,,N*46
462,
$GPRMC,171742.895,V,,,,,,,100812,,,N*45
462,
$GPRMC,171743.895,V,,,,,,,100812,,,N*44
463,
$GPRMC,171744.895,V,,,,,,,100812,,,N*43
463,
$GPRMC,171745.895,V,,,,,,,100812,,,N*42
463,
$GPRMC,171746.895,V,,,,,,,100812,,,N*41
463,
$GPRMC,171747.895,V,,,,,,,100812,,,N*40
463,
$GPRMC,171748.895,V,,,,,,,100812,,,N*4F
463,
$GPRMC,171749.895,V,,,,,,,100812,,,N*4E
463,
$GPRMC,171750.895,V,,,,,,,100812,,,N*46
463,
$GPRMC,171751.895,V,,,,,,,100812,,,N*47
463,
$GPRMC,171752.895,V,,,,,,,100812,,,N*44
463,
$GPRMC,171753.895,V,,,,,,,100812,,,N*45
463,
$GPRMC,171754.895,V,,,,,,,100812,,,N*42
463,
$GPRMC,171755.895,V,,,,,,,100812,,,N*43
463,
$GPRMC,171756.895,V,,,,,,,100812,,,N*40
463,
$GPRMC,171757.895,V,,,,,,,100812,,,N*41
463,
$GPRMC,171758.895,V,,,,,,,100812,,,N*4E
463,
$GPRMC,171759.895,V,,,,,,,100812,,,N*4F
463,
$GPRMC,171800.895,V,,,,,,,100812,,,N*4C
462,
$GPRMC,171801.895,V,,,,,,,100812,,,N*4D
462,
$GPRMC,171802.895,V,,,,,,,100812,,,N*4E
462,
$GPRMC,171803.895,V,,,,,,,100812,,,N*4F
462,
$GPRMC,171804.899,V,,,,,,,100812,,,N*44
462,
$GPRMC,171805.895,V,,,,,,,100812,,,N*49
462,
$GPRMC,171806.895,V,,,,,,,100812,,,N*4A
462,
$GPRMC,171807.895,V,,,,,,,100812,,,N*4B
462,
$GPRMC,171808.895,V,,,,,,,100812,,,N*44
462,
$GPRMC,171809.899,V,,,,,,,100812,,,N*49
462,
$GPRMC,171810.895,V,,,,,,,100812,,,N*4D
462,
$GPRMC,171811.895,V,,,,,,,100812,,,N*4C
462,
$GPRMC,171812.895,V,,,,,,,100812,,,N*4F
462,
$GPRMC,171813.895,V,,,,,,,100812,,,N*4E
462,
$GPRMC,171814.895,V,,,,,,,100812,,,N*49
462,
$GPRMC,171815.895,V,,,,,,,100812,,,N*48
462,
$GPRMC,171816.895,V,,,,,,,100812,,,N*4B
462,
$GPRMC,171817.895,V,,,,,,,100812,,,N*4A
462,
$GPRMC,171818.895,V,,,,,,,100812,,,N*45
462,
$GPRMC,171819.895,V,,,,,,,100812,,,N*44
462,
$GPRMC,171820.895,V,,,,,,,100812,,,N*4E
462,
$GPRMC,171821.895,V,,,,,,,100812,,,N*4F
462,
$GPRMC,171822.895,V,,,,,,,100812,,,N*4C
462,
$GPRMC,171823.895,V,,,,,,,100812,,,N*4D
462,
$GPRMC,171824.895,V,,,,,,,100812,,,N*4A
462,
$GPRMC,171825.895,V,,,,,,,100812,,,N*4B
462,
$GPRMC,171826.895,V,,,,,,,100812,,,N*48
462,
$GPRMC,171827.895,V,,,,,,,100812,,,N*49
462,
$GPRMC,171828.895,V,,,,,,,100812,,,N*46
462,
$GPRMC,171829.895,V,,,,,,,100812,,,N*47
462,
$GPRMC,171830.895,V,,,,,,,100812,,,N*4F
462,
$GPRMC,171831.895,V,,,,,,,100812,,,N*4E
462,
$GPRMC,171832.895,V,,,,,,,100812,,,N*4D
462,
$GPRMC,171833.895,V,,,,,,,100812,,,N*4C
462,
$GPRMC,171834.895,V,,,,,,,100812,,,N*4B
462,
$GPRMC,171835.895,V,,,,,,,100812,,,N*4A
462,
$GPRMC,171836.895,V,,,,,,,100812,,,N*49
462,
$GPRMC,171837.895,V,,,,,,,100812,,,N*48
462,
$GPRMC,171838.895,V,,,,,,,100812,,,N*47
462,
$GPRMC,171839.895,V,,,,,,,100812,,,N*46
462,
$GPRMC,171840.895,V,,,,,,,100812,,,N*48
462,
$GPRMC,171841.895,V,,,,,,,100812,,,N*49
462,
$GPRMC,171842.895,V,,,,,,,100812,,,N*4A
462,
$GPRMC,171843.895,V,,,,,,,100812,,,N*4B
462,
$GPRMC,171844.895,V,,,,,,,100812,,,N*4C
462,
$GPRMC,171845.895,V,,,,,,,100812,,,N*4D
462,
$GPRMC,171846.895,V,,,,,,,100812,,,N*4E
462,
$GPRMC,171847.895,V,,,,,,,100812,,,N*4F
462,
$GPRMC,171848.895,V,,,,,,,100812,,,N*40
462,
$GPRMC,171849.895,V,,,,,,,100812,,,N*41
462,
$GPRMC,171850.895,V,,,,,,,100812,,,N*49
462,
$GPRMC,171851.895,V,,,,,,,100812,,,N*48
462,
$GPRMC,171852.895,V,,,,,,,100812,,,N*4B
462,
$GPRMC,171853.895,V,,,,,,,100812,,,N*4A
462,
$GPRMC,171854.895,V,,,,,,,100812,,,N*4D
462,
$GPRMC,171855.895,V,,,,,,,100812,,,N*4C
462,
$GPRMC,171856.895,V,,,,,,,100812,,,N*4F
462,
$GPRMC,171857.895,V,,,,,,,100812,,,N*4E
462,
$GPRMC,171858.895,V,,,,,,,100812,,,N*41
462,
$GPRMC,171859.895,V,,,,,,,100812,,,N*40
462,
$GPRMC,171900.895,V,,,,,,,100812,,,N*4D
462,
$GPRMC,171901.895,V,,,,,,,100812,,,N*4C
462,
$GPRMC,171902.895,V,,,,,,,100812,,,N*4F
462,
$GPRMC,171903.895,V,,,,,,,100812,,,N*4E
462,
$GPRMC,171904.895,V,,,,,,,100812,,,N*49
462,
$GPRMC,171905.895,V,,,,,,,100812,,,N*48
462,
$GPRMC,171906.895,V,,,,,,,100812,,,N*4B
462,
$GPRMC,171907.895,V,,,,,,,100812,,,N*4A
462,
$GPRMC,171908.895,V,,,,,,,100812,,,N*45
462,
$GPRMC,171909.895,V,,,,,,,100812,,,N*44
462,
$GPRMC,171910.895,V,,,,,,,100812,,,N*4C
462,
$GPRMC,171911.895,V,,,,,,,100812,,,N*4D
462,
$GPRMC,171912.895,V,,,,,,,100812,,,N*4E
462,
$GPRMC,171913.895,V,,,,,,,100812,,,N*4F
462,
$GPRMC,171914.895,V,,,,,,,100812,,,N*48
462,
$GPRMC,171915.895,V,,,,,,,100812,,,N*49
462,
$GPRMC,171916.895,V,,,,,,,100812,,,N*4A
462,
$GPRMC,171917.895,V,,,,,,,100812,,,N*4B
462,
$GPRMC,171918.895,V,,,,,,,100812,,,N*44
462,
$GPRMC,171919.895,V,,,,,,,100812,,,N*45
462,
$GPRMC,171920.895,V,,,,,,,100812,,,N*4F
462,
$GPRMC,171921.895,V,,,,,,,100812,,,N*4E
462,
$GPRMC,171922.895,V,,,,,,,100812,,,N*4D
462,
$GPRMC,171923.895,V,,,,,,,100812,,,N*4C
462,
$GPRMC,171924.895,V,,,,,,,100812,,,N*4B
462,
$GPRMC,171925.895,V,,,,,,,100812,,,N*4A
462,
$GPRMC,171926.895,V,,,,,,,100812,,,N*49
462,
$GPRMC,171927.895,V,,,,,,,100812,,,N*48
462,
$GPRMC,171928.895,V,,,,,,,100812,,,N*47
462,
$GPRMC,171929.895,V,,,,,,,100812,,,N*46
462,
$GPRMC,171930.895,V,,,,,,,100812,,,N*4E
462,
$GPRMC,171931.895,V,,,,,,,100812,,,N*4F
462,
$GPRMC,171932.895,V,,,,,,,100812,,,N*4C
462,
$GPRMC,171933.895,V,,,,,,,100812,,,N*4D
462,
$GPRMC,171934.895,V,,,,,,,100812,,,N*4A
462,
$GPRMC,171935.895,V,,,,,,,100812,,,N*4B
462,
$GPRMC,171936.895,V,,,,,,,100812,,,N*48
462,
$GPRMC,171937.895,V,,,,,,,100812,,,N*49
462,
$GPRMC,171938.895,V,,,,,,,100812,,,N*46
462,
$GPRMC,171939.895,V,,,,,,,100812,,,N*47
462,
$GPRMC,171940.895,V,,,,,,,100812,,,N*49
462,
$GPRMC,171941.895,V,,,,,,,100812,,,N*48
463,
$GPRMC,171942.895,V,,,,,,,100812,,,N*4B
469,
$GPRMC,171943.895,V,,,,,,,100812,,,N*4A
481,
$GPRMC,171944.895,V,,,,,,,100812,,,N*4D
485,
$GPRMC,171945.895,V,,,,,,,100812,,,N*4C
482,
$GPRMC,171946.895,V,,,,,,,100812,,,N*4F
476,
$GPRMC,171947.895,V,,,,,,,100812,,,N*4E
471,
$GPRMC,171948.895,V,,,,,,,100812,,,N*41
469,
$GPRMC,171949.895,V,,,,,,,100812,,,N*40
468,
$GPRMC,171950.895,V,,,,,,,100812,,,N*48
467,
$GPRMC,171951.898,V,,,,,,,100812,,,N*44
466,
$GPRMC,171952.895,V,,,,,,,100812,,,N*4A
465,
$GPRMC,171953.895,V,,,,,,,100812,,,N*4B
465,
$GPRMC,171954.895,V,,,,,,,100812,,,N*4C
464,
$GPRMC,171955.895,V,,,,,,,100812,,,N*4D
464,
$GPRMC,171956.895,V,,,,,,,100812,,,N*4E
463,
$GPRMC,171957.895,V,,,,,,,100812,,,N*4F
463,
$GPRMC,171958.895,V,,,,,,,100812,,,N*40
463,
$GPRMC,171959.895,V,,,,,,,100812,,,N*41
462,
$GPRMC,172000.895,V,,,,,,,100812,,,N*47
462,
$GPRMC,172001.895,V,,,,,,,100812,,,N*46
461,
$GPRMC,172002.895,V,,,,,,,100812,,,N*45
461,
$GPRMC,172003.895,V,,,,,,,100812,,,N*44
461,
$GPRMC,172004.895,V,,,,,,,100812,,,N*43
461,
$GPRMC,172005.895,V,,,,,,,100812,,,N*42
460,
$GPRMC,172006.895,V,,,,,,,100812,,,N*41
460,
$GPRMC,172007.894,V,,,,,,,100812,,,N*41
460,
$GPRMC,172008.894,V,,,,,,,100812,,,N*4E
459,
$GPRMC,172009.894,V,,,,,,,100812,,,N*4F
459,
$GPRMC,172010.894,V,,,,,,,100812,,,N*47
459,
$GPRMC,172011.894,V,,,,,,,100812,,,N*46
459,
$GPRMC,172012.894,V,,,,,,,100812,,,N*45
459,
$GPRMC,172013.898,V,,,,,,,100812,,,N*48
458,
$GPRMC,172014.894,V,,,,,,,100812,,,N*43
458,
$GPRMC,172015.894,V,,,,,,,100812,,,N*42
458,
$GPRMC,172016.893,V,,,,,,,100812,,,N*46
458,
$GPRMC,172017.893,V,,,,,,,100812,,,N*47
458,
$GPRMC,172018.895,V,,,,,,,100812,,,N*4E
457,
$GPRMC,172019.893,V,,,,,,,100812,,,N*49
457,
$GPRMC,172020.895,V,,,,,,,100812,,,N*45
457,
$GPRMC,172021.898,V,,,,,,,100812,,,N*49
457,
$GPRMC,172022.893,V,,,,,,,100812,,,N*41
457,
$GPRMC,172023.893,V,,,,,,,100812,,,N*40
457,
$GPRMC,172024.893,V,,,,,,,100812,,,N*47
457,
$GPRMC,172025.893,V,,,,,,,100812,,,N*46
457,
$GPRMC,172026.894,V,,,,,,,100812,,,N*42
456,
$GPRMC,172027.894,V,,,,,,,100812,,,N*43
456,
$GPRMC,172028.894,V,,,,,,,100812,,,N*4C
456,
$GPRMC,172029.894,V,,,,,,,100812,,,N*4D
456,
$GPRMC,172030.894,V,,,,,,,100812,,,N*45
456,
$GPRMC,172031.894,V,,,,,,,100812,,,N*44
456,
$GPRMC,172032.894,V,,,,,,,100812,,,N*47
455,
$GPRMC,172033.894,V,,,,,,,100812,,,N*46
455,
$GPRMC,172034.894,V,,,,,,,100812,,,N*41
455,
$GPRMC,172035.894,V,,,,,,,100812,,,N*40
455,
$GPRMC,172036.894,V,,,,,,,100812,,,N*43
455,
$GPRMC,172037.894,V,,,,,,,100812,,,N*42
455,
$GPRMC,172038.894,V,,,,,,,100812,,,N*4D
455,
$GPRMC,172039.894,V,,,,,,,100812,,,N*4C
455,
$GPRMC,172040.894,V,,,,,,,100812,,,N*42
455,
$GPRMC,172041.894,V,,,,,,,100812,,,N*43
455,
$GPRMC,172042.894,V,,,,,,,100812,,,N*40
455,
$GPRMC,172043.894,V,,,,,,,100812,,,N*41
455,
$GPRMC,172044.894,V,,,,,,,100812,,,N*46
454,
$GPRMC,172045.894,V,,,,,,,100812,,,N*47
454,
$GPRMC,172046.894,V,,,,,,,100812,,,N*44
454,
$GPRMC,172047.894,V,,,,,,,100812,,,N*45
454,
$GPRMC,172048.894,V,,,,,,,100812,,,N*4A
454,
$GPRMC,172049.894,V,,,,,,,100812,,,N*4B
454,
$GPRMC,172050.894,V,,,,,,,100812,,,N*43
454,
$GPRMC,172051.894,V,,,,,,,100812,,,N*42
454,
$GPRMC,172052.894,V,,,,,,,100812,,,N*41
454,
$GPRMC,172053.894,V,,,,,,,100812,,,N*40
454,
$GPRMC,172054.898,V,,,,,,,100812,,,N*4B
454,
$GPRMC,172055.894,V,,,,,,,100812,,,N*46
454,
$GPRMC,172056.894,V,,,,,,,100812,,,N*45
454,
$GPRMC,172057.894,V,,,,,,,100812,,,N*44
454,
$GPRMC,172058.894,V,,,,,,,100812,,,N*4B
453,
$GPRMC,172059.894,V,,,,,,,100812,,,N*4A
453,
$GPRMC,172100.895,V,,,,,,,100812,,,N*46
453,
$GPRMC,172101.894,V,,,,,,,100812,,,N*46
453,
$GPRMC,172102.894,V,,,,,,,100812,,,N*45
453,
$GPRMC,172103.894,V,,,,,,,100812,,,N*44
453,
$GPRMC,172104.894,V,,,,,,,100812,,,N*43
453,
$GPRMC,172105.894,V,,,,,,,100812,,,N*42
453,
$GPRMC,172106.898,V,,,,,,,100812,,,N*4D
453,
$GPRMC,172107.898,V,,,,,,,100812,,,N*4C
453,
$GPRMC,172108.898,V,,,,,,,100812,,,N*43
453,
$GPRMC,172109.898,V,,,,,,,100812,,,N*42
453,
$GPRMC,172110.898,V,,,,,,,100812,,,N*4A
452,
$GPRMC,172111.894,V,,,,,,,100812,,,N*47
452,
$GPRMC,172112.898,V,,,,,,,100812,,,N*48
452,
$GPRMC,172113.896,V,,,,,,,100812,,,N*47
452,
$GPRMC,172114.896,V,,,,,,,100812,,,N*40
452,
$GPRMC,172115.894,V,,,,,,,100812,,,N*43
452,
$GPRMC,172116.896,V,,,,,,,100812,,,N*42
452,
$GPRMC,172117.896,V,,,,,,,100812,,,N*43
452,
$GPRMC,172118.896,V,,,,,,,100812,,,N*4C
452,
$GPRMC,172119.893,V,,,,,,,100812,,,N*48
451,
$GPRMC,172120.896,V,,,,,,,100812,,,N*47
451,
$GPRMC,172121.898,V,,,,,,,100812,,,N*48
451,
$GPRMC,172122.896,V,,,,,,,100812,,,N*45
451,
$GPRMC,172123.896,V,,,,,,,100812,,,N*44
452,
$GPRMC,172124.898,V,,,,,,,100812,,,N*4D
451,
$GPRMC,172125.896,V,,,,,,,100812,,,N*42
451,
$GPRMC,172126.896,V,,,,,,,100812,,,N*41
451,
$GPRMC,172127.894,V,,,,,,,100812,,,N*42
451,
$GPRMC,172128.896,V,,,,,,,100812,,,N*4F
451,
$GPRMC,172129.896,V,,,,,,,100812,,,N*4E
451,
$GPRMC,172130.898,V,,,,,,,100812,,,N*48
451,
$GPRMC,172131.898,V,,,,,,,100812,,,N*49
451,
$GPRMC,172132.898,V,,,,,,,100812,,,N*4A
451,
$GPRMC,172133.896,V,,,,,,,100812,,,N*45
451,
$GPRMC,172134.896,V,,,,,,,100812,,,N*42
451,
$GPRMC,172135.894,V,,,,,,,100812,,,N*41
451,
$GPRMC,172136.898,V,,,,,,,100812,,,N*4E
451,
$GPRMC,172137.898,V,,,,,,,100812,,,N*4F
451,
$GPRMC,172138.898,V,,,,,,,100812,,,N*40
451,
$GPRMC,172139.894,V,,,,,,,100812,,,N*4D
451,
$GPRMC,172140.896,V,,,,,,,100812,,,N*41
451,
$GPRMC,172141.898,V,,,,,,,100812,,,N*4E
451,
$GPRMC,172142.898,V,,,,,,,100812,,,N*4D
451,
$GPRMC,172143.894,V,,,,,,,100812,,,N*40
451,
$GPRMC,172144.898,V,,,,,,,100812,,,N*4B
451,
$GPRMC,172145.898,V,,,,,,,100812,,,N*4A
451,
$GPRMC,172146.898,V,,,,,,,100812,,,N*49
451,
$GPRMC,172147.898,V,,,,,,,100812,,,N*48
451,
$GPRMC,172148.898,V,,,,,,,100812,,,N*47
451,
$GPRMC,172149.898,V,,,,,,,100812,,,N*46
451,
$GPRMC,172150.896,V,,,,,,,100812,,,N*40
451,
$GPRMC,172151.894,V,,,,,,,100812,,,N*43
451,
$GPRMC,172152.898,V,,,,,,,100812,,,N*4C
451,
$GPRMC,172153.898,V,,,,,,,100812,,,N*4D
451,
$GPRMC,172154.898,V,,,,,,,100812,,,N*4A
451,
$GPRMC,172155.894,A,3956.3440,N,11623.9328,E,1.50,36.25,100812,,,A*5F
451,
$GPRMC,172156.898,A,3956.3442,N,11623.9292,E,1.26,93.79,100812,,,A*55
451,
$GPRMC,172157.898,A,3956.3533,N,11623.9311,E,3.00,359.50,100812,,,A*61
451,
$GPRMC,172158.898,A,3956.3666,N,11623.9376,E,4.29,11.92,100812,,,A*51
451,
$GPRMC,172159.894,A,3956.3512,N,11623.9315,E,2.89,21.76,100812,,,A*5C
451,
$GPRMC,172200.898,A,3956.3577,N,11623.9259,E,1.82,28.60,100812,,,A*53
451,
$GPRMC,172201.898,A,3956.3673,N,11623.9261,E,0.45,177.29,100812,,,A*62
451,
$GPRMC,172202.898,A,3956.3457,N,11623.9357,E,2.67,192.85,100812,,,A*6E
450,
$GPRMC,172203.898,A,3956.3509,N,11623.9336,E,3.90,189.12,100812,,,A*6F
450,
$GPRMC,172204.897,A,3956.3382,N,11623.9336,E,4.16,190.09,100812,,,A*69
451,
$GPRMC,172205.897,A,3956.3407,N,11623.9387,E,3.71,195.50,100812,,,A*67
450,
$GPRMC,172206.898,A,3956.3456,N,11623.9319,E,3.18,185.90,100812,,,A*6A
450,
$GPRMC,172207.894,A,3956.3385,N,11623.9418,E,2.79,178.43,100812,,,A*62
450,
$GPRMC,172208.898,A,3956.3266,N,11623.9299,E,3.36,173.87,100812,,,A*6B
450,
$GPRMC,172209.898,A,3956.3381,N,11623.9280,E,2.25,171.73,100812,,,A*60
450,
$GPRMC,172210.898,A,3956.3456,N,11623.9291,E,2.50,159.49,100812,,,A*64
451,
$GPRMC,172211.894,A,3956.3375,N,11623.9329,E,1.91,120.21,100812,,,A*63
451,
$GPRMC,172212.898,A,3956.3472,N,11623.9378,E,1.79,100.23,100812,,,A*6E
451,
$GPRMC,172213.898,A,3956.3410,N,11623.9352,E,0.00,,100812,,,A*72
451,
$GPRMC,172214.898,A,3956.3622,N,11623.9327,E,0.00,,100812,,,A*74
451,
$GPRMC,172215.898,A,3956.3432,N,11623.9333,E,0.54,325.15,100812,,,A*6C
451,
$GPRMC,172216.898,A,3956.3378,N,11623.9300,E,2.88,327.99,100812,,,A*63
451,
$GPRMC,172217.898,V,,,,,,,100812,,,N*4E
451,
$GPRMC,172218.898,V,,,,,,,100812,,,N*41
451,
$GPRMC,172219.893,V,,,,,,,100812,,,N*4B
451,
$GPRMC,172220.898,V,,,,,,,100812,,,N*4A
451,
$GPRMC,172221.898,V,,,,,,,100812,,,N*4B
451,
$GPRMC,172222.896,V,,,,,,,100812,,,N*46
451,
$GPRMC,172223.893,V,,,,,,,100812,,,N*42
451,
$GPRMC,172224.896,V,,,,,,,100812,,,N*40
451,
$GPRMC,172225.896,V,,,,,,,100812,,,N*41
451,
$GPRMC,172226.896,V,,,,,,,100812,,,N*42
451,
$GPRMC,172227.896,V,,,,,,,100812,,,N*43
450,
$GPRMC,172228.898,V,,,,,,,100812,,,N*42
450,
$GPRMC,172229.896,V,,,,,,,100812,,,N*4D
450,
$GPRMC,172230.898,V,,,,,,,100812,,,N*4B
450,
$GPRMC,172231.894,V,,,,,,,100812,,,N*46
450,
$GPRMC,172232.898,V,,,,,,,100812,,,N*49
450,
$GPRMC,172233.896,V,,,,,,,100812,,,N*46
450,
$GPRMC,172234.896,V,,,,,,,100812,,,N*41
450,
$GPRMC,172235.894,V,,,,,,,100812,,,N*42
450,
$GPRMC,172236.896,V,,,,,,,100812,,,N*43
450,
$GPRMC,172237.896,V,,,,,,,100812,,,N*42
450,
$GPRMC,172238.896,V,,,,,,,100812,,,N*4D
450,
$GPRMC,172239.894,V,,,,,,,100812,,,N*4E
450,
$GPRMC,172240.896,V,,,,,,,100812,,,N*42
450,
$GPRMC,172241.898,V,,,,,,,100812,,,N*4D
450,
$GPRMC,172242.898,V,,,,,,,100812,,,N*4E
450,
$GPRMC,172243.894,V,,,,,,,100812,,,N*43
450,
$GPRMC,172244.896,V,,,,,,,100812,,,N*46
450,
$GPRMC,172245.898,V,,,,,,,100812,,,N*49
450,
$GPRMC,172246.898,V,,,,,,,100812,,,N*4A
450,
$GPRMC,172247.894,V,,,,,,,100812,,,N*47
450,
$GPRMC,172248.898,V,,,,,,,100812,,,N*44
450,
$GPRMC,172249.898,V,,,,,,,100812,,,N*45
450,
$GPRMC,172250.898,V,,,,,,,100812,,,N*4D
449,
$GPRMC,172251.898,V,,,,,,,100812,,,N*4C
449,
$GPRMC,172252.898,V,,,,,,,100812,,,N*4F
449,
$GPRMC,172253.898,V,,,,,,,100812,,,N*4E
449,
$GPRMC,172254.898,V,,,,,,,100812,,,N*49
449,
$GPRMC,172255.894,V,,,,,,,100812,,,N*44
449,
$GPRMC,172256.896,V,,,,,,,100812,,,N*45
449,
$GPRMC,172257.898,V,,,,,,,100812,,,N*4A
449,
$GPRMC,172258.898,V,,,,,,,100812,,,N*45
449,
$GPRMC,172259.894,V,,,,,,,100812,,,N*48
449,
$GPRMC,172300.898,V,,,,,,,100812,,,N*49
449,
$GPRMC,172301.898,V,,,,,,,100812,,,N*48
449,
$GPRMC,172302.898,V,,,,,,,100812,,,N*4B
449,
$GPRMC,172303.898,V,,,,,,,100812,,,N*4A
449,
$GPRMC,172304.897,V,,,,,,,100812,,,N*42
449,
$GPRMC,172305.897,V,,,,,,,100812,,,N*43
449,
$GPRMC,172306.896,V,,,,,,,100812,,,N*41
449,
$GPRMC,172307.894,V,,,,,,,100812,,,N*42
450,
$GPRMC,172308.896,V,,,,,,,100812,,,N*4F
450,
$GPRMC,172309.896,V,,,,,,,100812,,,N*4E
450,
$GPRMC,172310.898,V,,,,,,,100812,,,N*48
452,
$GPRMC,172311.894,V,,,,,,,100812,,,N*45
457,
$GPRMC,172312.898,V,,,,,,,100812,,,N*4A
456,
$GPRMC,172313.898,V,,,,,,,100812,,,N*4B
454,
