$PSRFTXT,Version:GSW3.5.0_3.5.00.00-SDK-3EP2.01 *46
343,
$GPRMC,040419.927,V,,,,,,,110812,,,N*42
341,
$GPRMC,040420.927,V,,,,,,,110812,,,N*48
339,
$GPRMC,040421.927,V,,,,,,,110812,,,N*49
338,
$GPRMC,040422.927,V,,,,,,,110812,,,N*4A
336,
$GPRMC,040423.927,V,,,,,,,110812,,,N*4B
334,
$GPRMC,040424.927,V,,,,,,,110812,,,N*4C
332,
$GPRMC,040425.927,V,,,,,,,110812,,,N*4D
331,
$GPRMC,040426.927,V,,,,,,,110812,,,N*4E
329,
$GPRMC,040427.927,V,,,,,,,110812,,,N*4F
328,
$GPRMC,040428.927,V,,,,,,,110812,,,N*40
326,
$GPRMC,040429.927,V,,,,,,,110812,,,N*41
324,
$GPRMC,040430.927,V,,,,,,,110812,,,N*49
323,
$GPRMC,040431.927,V,,,,,,,110812,,,N*48
321,
$GPRMC,040432.926,V,,,,,,,110812,,,N*4A
319,
$GPRMC,040433.926,V,,,,,,,110812,,,N*4B
317,
$GPRMC,040434.928,V,,,,,,,110812,,,N*42
315,
$GPRMC,040435.928,V,,,,,,,110812,,,N*43
313,
$GPRMC,040436.928,V,,,,,,,110812,,,N*40
311,
$GPRMC,040437.928,V,,,,,,,110812,,,N*41
309,
$GPRMC,040438.928,V,,,,,,,110812,,,N*4E
306,
$GPRMC,040439.928,V,,,,,,,110812,,,N*4F
304,
$GPRMC,040440.928,V,,,,,,,110812,,,N*41
302,
$GPRMC,040441.928,V,,,,,,,110812,,,N*40
300,
$GPRMC,040442.928,V,,,,,,,110812,,,N*43
298,
$GPRMC,040443.928,V,,,,,,,110812,,,N*42
296,
$GPRMC,040444.928,V,,,,,,,110812,,,N*45
294,
$GPRMC,040445.928,V,,,,,,,110812,,,N*44
292,
$GPRMC,040446.928,V,,,,,,,110812,,,N*47
290,
$GPRMC,040447.928,V,,,,,,,110812,,,N*46
288,
$GPRMC,040448.928,V,,,,,,,110812,,,N*49
286,
$GPRMC,040449.928,V,,,,,,,110812,,,N*48
284,
$GPRMC,040450.932,A,3956.3537,N,11623.9365,E,0.11,284.74,110812,,,A*60
282,
$GPRMC,040451.932,A,3956.3538,N,11623.9366,E,0.11,307.47,110812,,,A*67
280,
$GPRMC,040452.932,A,3956.3539,N,11623.9365,E,0.08,307.92,110812,,,A*66
279,
$GPRMC,040453.932,A,3956.3539,N,11623.9365,E,0.07,299.62,110812,,,A*61
277,
$GPRMC,040454.932,A,3956.3539,N,11623.9365,E,0.08,303.08,110812,,,A*67
275,
$GPRMC,040455.932,A,3956.3540,N,11623.9365,E,0.07,297.31,110812,,,A*61
273,
$GPRMC,040456.932,A,3956.3541,N,11623.9366,E,0.09,316.12,110812,,,A*67
272,
$GPRMC,040457.932,A,3956.3542,N,11623.9366,E,0.10,317.13,110812,,,A*6D
270,
$GPRMC,040459.000,A,3956.3542,N,11623.9367,E,0.06,296.39,110812,,,A*6D
267,
$GPRMC,040500.000,A,3956.3543,N,11623.9367,E,0.09,305.03,110812,,,A*6C
266,
$GPRMC,040501.000,A,3956.3543,N,11623.9367,E,0.09,313.20,110812,,,A*6B
263,
$GPRMC,040502.000,A,3956.3544,N,11623.9363,E,0.09,311.51,110812,,,A*6F
262,
$GPRMC,040503.000,A,3956.3545,N,11623.9360,E,0.13,310.25,110812,,,A*65
260,
$GPRMC,040504.000,A,3956.3546,N,11623.9359,E,0.09,323.06,110812,,,A*61
258,
$GPRMC,040505.000,A,3956.3546,N,11623.9358,E,0.12,308.26,110812,,,A*60
256,
$GPRMC,040506.000,A,3956.3547,N,11623.9357,E,0.12,320.65,110812,,,A*60
254,
$GPRMC,040507.000,A,3956.3547,N,11623.9357,E,0.11,305.68,110812,,,A*68
252,
$GPRMC,040508.000,A,3956.3548,N,11623.9356,E,0.10,319.16,110812,,,A*6C
250,
$GPRMC,040509.000,A,3956.3548,N,11623.9356,E,0.11,310.05,110812,,,A*67
248,
$GPRMC,040510.000,A,3956.3548,N,11623.9355,E,0.10,315.31,110812,,,A*6F
247,
$GPRMC,040511.000,A,3956.3548,N,11623.9355,E,0.11,313.54,110812,,,A*6A
244,
$GPRMC,040512.000,A,3956.3549,N,11623.9355,E,0.10,314.19,110812,,,A*67
243,
$GPRMC,040513.000,A,3956.3549,N,11623.9355,E,0.10,316.09,110812,,,A*65
241,
$GPRMC,040514.000,A,3956.3549,N,11623.9355,E,0.10,309.76,110812,,,A*64
239,
$GPRMC,040515.000,A,3956.3549,N,11623.9354,E,0.11,310.57,110812,,,A*6E
236,
$GPRMC,040516.000,A,3956.3550,N,11623.9354,E,0.10,304.49,110812,,,A*6E
235,
$GPRMC,040517.000,A,3956.3550,N,11623.9354,E,0.11,311.91,110812,,,A*6F
232,
$GPRMC,040518.000,A,3956.3550,N,11623.9354,E,0.10,309.95,110812,,,A*6C
230,
$GPRMC,040519.000,A,3956.3550,N,11623.9354,E,0.09,307.09,110812,,,A*6E
228,
$GPRMC,040520.000,A,3956.3550,N,11623.9354,E,0.10,310.71,110812,,,A*65
226,
$GPRMC,040521.000,A,3956.3550,N,11623.9353,E,0.10,307.06,110812,,,A*65
224,
$GPRMC,040522.000,A,3956.3550,N,11623.9353,E,0.10,307.07,110812,,,A*67
222,
$GPRMC,040523.000,A,3956.3550,N,11623.9353,E,0.10,307.96,110812,,,A*6E
220,
