$GPRMC,084708.801,A,3955.9037,N,11623.3779,E,0.18,32.29,110812,,,A*56
223,
$GPRMC,084709.802,A,3955.9015,N,11623.3719,E,0.58,13.38,110812,,,A*55
222,
$GPRMC,084710.802,A,3955.9038,N,11623.3757,E,0.29,283.32,110812,,,A*6F
223,
$GPRMC,084711.802,A,3955.9007,N,11623.3736,E,1.00,172.18,110812,,,A*6A
222,
$GPRMC,084712.000,A,3955.9025,N,11623.3745,E,0.76,152.66,110812,,,A*6C
222,
$GPRMC,084713.000,A,3955.9037,N,11623.3758,E,0.73,151.95,110812,,,A*68
221,
$GPRMC,084714.000,A,3955.9057,N,11623.3766,E,0.34,218.34,110812,,,A*62
221,
$GPRMC,084715.000,A,3955.9078,N,11623.3763,E,0.35,152.74,110812,,,A*63
220,
$GPRMC,084716.000,A,3955.9091,N,11623.3768,E,0.30,89.32,110812,,,A*5C
221,
$GPRMC,084717.000,A,3955.9094,N,11623.3770,E,0.32,23.02,110812,,,A*50
221,
$GPRMC,084718.000,A,3955.9094,N,11623.3767,E,0.43,105.57,110812,,,A*6A
220,
$GPRMC,084719.000,A,3955.9092,N,11623.3770,E,0.06,113.80,110812,,,A*67
219,
$GPRMC,084720.000,A,3955.9092,N,11623.3767,E,0.61,200.65,110812,,,A*60
218,
$GPRMC,084721.000,A,3955.9089,N,11623.3767,E,0.31,29.74,110812,,,A*57
218,
$GPRMC,084722.000,A,3955.9089,N,11623.3771,E,0.95,61.14,110812,,,A*57
218,
$GPRMC,084723.000,A,3955.9093,N,11623.3776,E,2.15,44.95,110812,,,A*5E
218,
$GPRMC,084724.000,A,3955.9091,N,11623.3782,E,1.36,43.68,110812,,,A*57
219,
$GPRMC,084725.000,A,3955.9096,N,11623.3780,E,2.35,24.21,110812,,,A*5F
219,
$GPRMC,084726.000,A,3955.9100,N,11623.3781,E,1.39,7.75,110812,,,A*6C
220,
$GPRMC,084727.000,A,3955.9104,N,11623.3782,E,1.17,357.22,110812,,,A*62
219,
$GPRMC,084728.000,A,3955.9103,N,11623.3782,E,0.04,201.81,110812,,,A*62
219,
$GPRMC,084729.000,A,3955.9099,N,11623.3783,E,0.28,170.51,110812,,,A*66
218,
$GPRMC,084730.000,A,3955.9097,N,11623.3782,E,1.08,181.71,110812,,,A*6E
218,
$GPRMC,084731.000,A,3955.9094,N,11623.3782,E,0.17,59.87,110812,,,A*5E
217,
$GPRMC,084732.000,A,3955.9091,N,11623.3784,E,0.42,163.62,110812,,,A*6D
217,
$GPRMC,084733.000,A,3955.9087,N,11623.3786,E,0.53,22.19,110812,,,A*51
218,
$GPRMC,084734.000,A,3955.9086,N,11623.3786,E,0.24,196.04,110812,,,A*65
218,
$GPRMC,084735.000,A,3955.9084,N,11623.3786,E,0.44,123.17,110812,,,A*6C
218,
$GPRMC,084736.000,A,3955.9083,N,11623.3785,E,0.69,171.44,110812,,,A*65
218,
$GPRMC,084737.000,A,3955.9080,N,11623.3785,E,1.24,142.15,110812,,,A*6B
218,
$GPRMC,084738.000,A,3955.9076,N,11623.3786,E,1.04,149.06,110812,,,A*65
219,
$GPRMC,084739.000,A,3955.9083,N,11623.3783,E,0.22,25.13,110812,,,A*51
219,
$GPRMC,084740.000,A,3955.9085,N,11623.3779,E,0.05,289.67,110812,,,A*6E
218,
$GPRMC,084741.000,A,3955.9091,N,11623.3775,E,0.03,193.94,110812,,,A*64
217,
$GPRMC,084742.000,A,3955.9089,N,11623.3776,E,0.71,110.36,110812,,,A*6B
216,
$GPRMC,084743.000,A,3955.9089,N,11623.3778,E,0.54,133.02,110812,,,A*65
216,
$GPRMC,084744.000,A,3955.9090,N,11623.3780,E,0.81,100.76,110812,,,A*66
215,
$GPRMC,084745.000,A,3955.9089,N,11623.3783,E,0.63,82.35,110812,,,A*5C
215,
$GPRMC,084746.000,A,3955.9085,N,11623.3782,E,0.24,319.79,110812,,,A*68
215,
$GPRMC,084747.000,A,3955.9083,N,11623.3780,E,0.38,312.10,110812,,,A*64
214,
$GPRMC,084748.000,A,3955.9079,N,11623.3781,E,0.36,153.94,110812,,,A*6A
214,
$GPRMC,084749.000,A,3955.9078,N,11623.3781,E,0.89,151.19,110812,,,A*69
213,
$GPRMC,084750.000,A,3955.9079,N,11623.3780,E,0.61,158.41,110812,,,A*63
213,
$GPRMC,084751.000,A,3955.9080,N,11623.3780,E,0.21,338.09,110812,,,A*68
212,
$GPRMC,084752.000,A,3955.9080,N,11623.3780,E,0.41,170.12,110812,,,A*69
213,
$GPRMC,084753.000,A,3955.9081,N,11623.3778,E,0.57,216.72,110812,,,A*6C
212,
$GPRMC,084754.000,A,3955.9082,N,11623.3776,E,0.44,219.25,110812,,,A*69
212,
$GPRMC,084755.000,A,3955.9085,N,11623.3774,E,0.49,178.64,110812,,,A*61
211,
$GPRMC,084756.000,A,3955.9081,N,11623.3774,E,0.38,163.81,110812,,,A*61
210,
$GPRMC,084757.000,A,3955.9080,N,11623.3773,E,0.21,37.33,110812,,,A*57
210,
$GPRMC,084758.000,A,3955.9081,N,11623.3772,E,0.26,13.30,110812,,,A*5A
210,
$GPRMC,084759.000,A,3955.9081,N,11623.3771,E,0.21,111.27,110812,,,A*6A
210,
$GPRMC,084800.000,A,3955.9081,N,11623.3771,E,0.54,148.19,110812,,,A*6A
209,
$GPRMC,084801.000,A,3955.9081,N,11623.3771,E,0.55,157.13,110812,,,A*6E
209,
$GPRMC,084802.000,A,3955.9080,N,11623.3771,E,0.28,161.36,110812,,,A*64
209,
$GPRMC,084803.000,A,3955.9080,N,11623.3771,E,0.19,359.63,110812,,,A*6E
209,
$GPRMC,084804.000,A,3955.9081,N,11623.3771,E,0.07,43.47,110812,,,A*59
208,
$GPRMC,084805.000,A,3955.9080,N,11623.3770,E,0.13,35.39,110812,,,A*55
208,
$GPRMC,084806.000,A,3955.9080,N,11623.3770,E,0.14,36.54,110812,,,A*59
208,
$GPRMC,084807.000,A,3955.9081,N,11623.3770,E,0.11,52.02,110812,,,A*5D
208,
$GPRMC,084808.000,A,3955.9082,N,11623.3769,E,0.18,17.07,110812,,,A*54
208,
$GPRMC,084809.000,A,3955.9083,N,11623.3768,E,0.17,9.56,110812,,,A*61
208,
$GPRMC,084810.000,A,3955.9083,N,11623.3768,E,0.07,19.78,110812,,,A*55
208,
$GPRMC,084811.000,A,3955.9082,N,11623.3768,E,0.04,99.21,110812,,,A*52
208,
$GPRMC,084812.000,A,3955.9082,N,11623.3768,E,0.08,114.88,110812,,,A*6A
208,
$GPRMC,084813.000,A,3955.9080,N,11623.3768,E,0.11,102.01,110812,,,A*67
208,
$GPRMC,084814.000,A,3955.9078,N,11623.3768,E,0.19,77.49,110812,,,A*50
208,
$GPRMC,084815.000,A,3955.9076,N,11623.3769,E,0.13,112.38,110812,,,A*60
207,
$GPRMC,084816.000,A,3955.9071,N,11623.3769,E,0.24,159.12,110812,,,A*67
207,
$GPRMC,084817.000,A,3955.9065,N,11623.3770,E,0.23,130.68,110812,,,A*6E
207,
$GPRMC,084818.000,A,3955.9058,N,11623.3772,E,0.35,157.05,110812,,,A*60
208,
$GPRMC,084819.000,A,3955.9057,N,11623.3772,E,0.64,157.64,110812,,,A*6D
208,
$GPRMC,084820.000,A,3955.9055,N,11623.3772,E,0.61,156.33,110812,,,A*63
208,
$GPRMC,084821.000,A,3955.9057,N,11623.3771,E,0.16,26.07,110812,,,A*52
210,
$GPRMC,084822.000,A,3955.9058,N,11623.3772,E,0.22,41.80,110812,,,A*54
212,
$GPRMC,084823.000,A,3955.9058,N,11623.3772,E,0.10,155.78,110812,,,A*67
213,
$GPRMC,084824.000,A,3955.9060,N,11623.3772,E,0.18,42.98,110812,,,A*5A
214,
$GPRMC,084825.000,A,3955.9060,N,11623.3772,E,0.36,5.12,110812,,,A*66
213,
$GPRMC,084826.000,A,3955.9062,N,11623.3771,E,0.21,53.82,110812,,,A*58
212,
$GPRMC,084827.000,A,3955.9065,N,11623.3771,E,0.20,102.61,110812,,,A*67
212,
$GPRMC,084828.000,A,3955.9067,N,11623.3772,E,0.21,118.47,110812,,,A*67
211,
$GPRMC,084829.000,A,3955.9071,N,11623.3771,E,0.18,78.33,110812,,,A*5C
211,
$GPRMC,084830.000,A,3955.9072,N,11623.3770,E,0.22,144.67,110812,,,A*60
211,
$GPRMC,084831.000,A,3955.9075,N,11623.3770,E,0.46,356.06,110812,,,A*62
210,
$GPRMC,084832.000,A,3955.9078,N,11623.3768,E,0.45,355.48,110812,,,A*6F
210,
$GPRMC,084833.000,A,3955.9082,N,11623.3767,E,0.40,344.58,110812,,,A*60
209,
$GPRMC,084834.000,A,3955.9082,N,11623.3767,E,0.17,353.27,110812,,,A*6B
210,
$GPRMC,084835.000,A,3955.9080,N,11623.3768,E,0.06,49.80,110812,,,A*52
209,
$GPRMC,084836.000,A,3955.9079,N,11623.3769,E,0.13,74.66,110812,,,A*54
210,
$GPRMC,084837.000,A,3955.9078,N,11623.3770,E,0.28,145.73,110812,,,A*63
210,
$GPRMC,084838.000,A,3955.9077,N,11623.3771,E,0.36,172.46,110812,,,A*6F
210,
$GPRMC,084839.000,A,3955.9077,N,11623.3771,E,0.27,125.28,110812,,,A*64
211,
$GPRMC,084840.000,A,3955.9076,N,11623.3771,E,0.48,168.04,110812,,,A*65
211,
$GPRMC,084841.000,A,3955.9075,N,11623.3771,E,0.64,168.29,110812,,,A*66
213,
$GPRMC,084842.000,A,3955.9077,N,11623.3770,E,0.27,142.77,110812,,,A*62
213,
$GPRMC,084843.000,A,3955.9076,N,11623.3770,E,0.40,184.47,110812,,,A*6A
214,
$GPRMC,084844.000,A,3955.9076,N,11623.3771,E,0.34,121.26,110812,,,A*67
215,
$GPRMC,084845.000,A,3955.9079,N,11623.3772,E,0.37,45.08,110812,,,A*56
216,
$GPRMC,084846.000,A,3955.9080,N,11623.3773,E,0.24,49.05,110812,,,A*51
217,
$GPRMC,084847.000,A,3955.9081,N,11623.3774,E,0.46,5.15,110812,,,A*6B
217,
$GPRMC,084848.000,A,3955.9084,N,11623.3773,E,0.11,338.37,110812,,,A*69
218,
$GPRMC,084849.000,A,3955.9085,N,11623.3776,E,0.70,25.58,110812,,,A*5D
218,
$GPRMC,084850.000,A,3955.9083,N,11623.3779,E,0.82,157.24,110812,,,A*6E
219,
$GPRMC,084851.000,A,3955.9083,N,11623.3781,E,0.42,147.85,110812,,,A*6E
218,
$GPRMC,084852.000,A,3955.9081,N,11623.3781,E,0.71,177.79,110812,,,A*6F
218,
$GPRMC,084853.000,A,3955.9080,N,11623.3782,E,0.64,357.06,110812,,,A*60
218,
$GPRMC,084854.000,A,3955.9083,N,11623.3783,E,0.77,12.50,110812,,,A*56
218,
$GPRMC,084855.000,A,3955.9085,N,11623.3783,E,0.67,4.84,110812,,,A*6E
218,
$GPRMC,084856.000,A,3955.9086,N,11623.3782,E,0.16,4.31,110812,,,A*67
217,
$GPRMC,084857.000,A,3955.9087,N,11623.3782,E,0.03,72.73,110812,,,A*54
220,
$GPRMC,084858.000,A,3955.9081,N,11623.3784,E,0.26,126.24,110812,,,A*6E
223,
$GPRMC,084859.000,A,3955.9081,N,11623.3784,E,0.26,130.04,110812,,,A*6A
223,
$GPRMC,084900.000,A,3955.9079,N,11623.3783,E,0.48,177.11,110812,,,A*68
222,
$GPRMC,084901.000,A,3955.9077,N,11623.3783,E,0.70,170.55,110812,,,A*6B
221,
$GPRMC,084902.000,A,3955.9076,N,11623.3782,E,0.83,169.37,110812,,,A*68
221,
$GPRMC,084903.000,A,3955.9078,N,11623.3782,E,0.21,62.29,110812,,,A*5A
222,
$GPRMC,084904.000,A,3955.9080,N,11623.3782,E,0.27,66.49,110812,,,A*5E
237,
$GPRMC,084905.000,A,3955.9083,N,11623.3783,E,0.86,27.43,110812,,,A*59
259,
$GPRMC,084906.000,A,3955.9087,N,11623.3783,E,0.85,22.57,110812,,,A*5D
261,
$GPRMC,084907.000,A,3955.9095,N,11623.3783,E,1.05,12.01,110812,,,A*56
258,
$GPRMC,084908.000,A,3955.9099,N,11623.3783,E,0.49,18.17,110812,,,A*51
256,
$GPRMC,084909.000,A,3955.9101,N,11623.3784,E,0.12,121.14,110812,,,A*61
252,
$GPRMC,084910.000,A,3955.9103,N,11623.3784,E,0.40,139.22,110812,,,A*60
250,
$GPRMC,084911.000,A,3955.9101,N,11623.3785,E,0.32,146.23,110812,,,A*6E
248,
$GPRMC,084912.000,A,3955.9098,N,11623.3785,E,0.26,211.73,110812,,,A*6D
246,
$GPRMC,084913.000,A,3955.9097,N,11623.3785,E,0.27,154.09,110812,,,A*6D
243,
