$GPRMC,084230.571,V,,,,,,,110812,,,N*48
320,
$GPRMC,084231.571,V,,,,,,,110812,,,N*49
318,
$GPRMC,084232.571,V,,,,,,,110812,,,N*4A
316,
$GPRMC,084233.571,V,,,,,,,110812,,,N*4B
314,
$GPRMC,084234.571,V,,,,,,,110812,,,N*4C
313,
$GPRMC,084235.571,V,,,,,,,110812,,,N*4D
311,
$GPRMC,084236.571,V,,,,,,,110812,,,N*4E
309,
$GPRMC,084237.571,V,,,,,,,110812,,,N*4F
308,
$GPRMC,084238.571,V,,,,,,,110812,,,N*40
306,
$GPRMC,084239.569,V,,,,,,,110812,,,N*48
305,
$GPRMC,084240.569,V,,,,,,,110812,,,N*46
304,
$GPRMC,084241.569,V,,,,,,,110812,,,N*47
302,
$GPRMC,084242.569,V,,,,,,,110812,,,N*44
301,
$GPRMC,084243.569,V,,,,,,,110812,,,N*45
301,
$GPRMC,084244.569,V,,,,,,,110812,,,N*42
299,
$GPRMC,084245.569,V,,,,,,,110812,,,N*43
298,
$GPRMC,084246.569,V,,,,,,,110812,,,N*40
296,
$GPRMC,084247.569,V,,,,,,,110812,,,N*41
295,
$GPRMC,084248.569,V,,,,,,,110812,,,N*4E
293,
$GPRMC,084249.569,V,,,,,,,110812,,,N*4F
292,
$GPRMC,084250.569,V,,,,,,,110812,,,N*47
291,
$GPRMC,084251.569,V,,,,,,,110812,,,N*46
290,
$GPRMC,084252.569,V,,,,,,,110812,,,N*45
288,
$GPRMC,084253.569,V,,,,,,,110812,,,N*44
287,
$GPRMC,084254.569,V,,,,,,,110812,,,N*43
287,
$GPRMC,084255.569,V,,,,,,,110812,,,N*42
285,
$GPRMC,084256.569,V,,,,,,,110812,,,N*41
285,
$GPRMC,084257.569,V,,,,,,,110812,,,N*40
284,
$GPRMC,084258.569,V,,,,,,,110812,,,N*4F
283,
$GPRMC,084259.569,V,,,,,,,110812,,,N*4E
282,
$GPRMC,084300.569,V,,,,,,,110812,,,N*43
281,
$GPRMC,084301.569,V,,,,,,,110812,,,N*42
280,
$GPRMC,084302.569,V,,,,,,,110812,,,N*41
279,
$GPRMC,084303.569,V,,,,,,,110812,,,N*40
278,
$GPRMC,084304.568,V,,,,,,,110812,,,N*46
277,
$GPRMC,084305.568,V,,,,,,,110812,,,N*47
276,
$GPRMC,084306.569,V,,,,,,,110812,,,N*45
276,
$GPRMC,084307.569,V,,,,,,,110812,,,N*44
275,
$GPRMC,084308.569,V,,,,,,,110812,,,N*4B
275,
$GPRMC,084309.569,V,,,,,,,110812,,,N*4A
275,
$GPRMC,084310.569,V,,,,,,,110812,,,N*42
275,
$GPRMC,084311.569,V,,,,,,,110812,,,N*43
276,
$GPRMC,084312.569,V,,,,,,,110812,,,N*40
276,
$GPRMC,084313.569,V,,,,,,,110812,,,N*41
276,
$GPRMC,084314.569,V,,,,,,,110812,,,N*46
275,
$GPRMC,084315.569,V,,,,,,,110812,,,N*47
274,
$GPRMC,084316.569,V,,,,,,,110812,,,N*44
273,
$GPRMC,084317.569,V,,,,,,,110812,,,N*45
272,
$GPRMC,084318.569,V,,,,,,,110812,,,N*4A
271,
$GPRMC,084319.569,V,,,,,,,110812,,,N*4B
271,
$GPRMC,084320.569,V,,,,,,,110812,,,N*41
270,
$GPRMC,084321.569,V,,,,,,,110812,,,N*40
269,
$GPRMC,084322.569,V,,,,,,,110812,,,N*43
269,
$GPRMC,084323.569,V,,,,,,,110812,,,N*42
268,
$GPRMC,084324.569,V,,,,,,,110812,,,N*45
267,
$GPRMC,084325.569,V,,,,,,,110812,,,N*44
266,
$GPRMC,084326.569,V,,,,,,,110812,,,N*47
266,
$GPRMC,084327.569,V,,,,,,,110812,,,N*46
265,
$GPRMC,084328.569,V,,,,,,,110812,,,N*49
264,
$GPRMC,084329.569,V,,,,,,,110812,,,N*48
264,
$GPRMC,084330.569,V,,,,,,,110812,,,N*40
263,
$GPRMC,084331.569,V,,,,,,,110812,,,N*41
262,
$GPRMC,084332.569,V,,,,,,,110812,,,N*42
262,
$GPRMC,084333.569,V,,,,,,,110812,,,N*43
261,
$GPRMC,084334.569,V,,,,,,,110812,,,N*44
261,
$GPRMC,084335.569,V,,,,,,,110812,,,N*45
261,
$GPRMC,084336.569,V,,,,,,,110812,,,N*46
260,
$GPRMC,084337.569,V,,,,,,,110812,,,N*47
260,
$GPRMC,084338.569,V,,,,,,,110812,,,N*48
260,
$GPRMC,084339.569,V,,,,,,,110812,,,N*49
259,
$GPRMC,084340.569,V,,,,,,,110812,,,N*47
259,
$GPRMC,084341.569,V,,,,,,,110812,,,N*46
258,
$GPRMC,084342.569,V,,,,,,,110812,,,N*45
258,
$GPRMC,084343.569,V,,,,,,,110812,,,N*44
258,
$GPRMC,084344.569,V,,,,,,,110812,,,N*43
258,
$GPRMC,084345.569,V,,,,,,,110812,,,N*42
257,
$GPRMC,084346.569,V,,,,,,,110812,,,N*41
257,
$GPRMC,084347.569,V,,,,,,,110812,,,N*40
256,
$GPRMC,084348.569,V,,,,,,,110812,,,N*4F
256,
$GPRMC,084349.569,V,,,,,,,110812,,,N*4E
255,
$GPRMC,084350.569,V,,,,,,,110812,,,N*46
255,
$GPRMC,084351.569,V,,,,,,,110812,,,N*47
254,
$GPRMC,084352.569,V,,,,,,,110812,,,N*44
254,
$GPRMC,084353.569,V,,,,,,,110812,,,N*45
254,
$GPRMC,084354.569,V,,,,,,,110812,,,N*42
253,
$GPRMC,084355.569,V,,,,,,,110812,,,N*43
253,
$GPRMC,084356.569,V,,,,,,,110812,,,N*40
252,
$GPRMC,084357.569,V,,,,,,,110812,,,N*41
252,
$GPRMC,084358.569,V,,,,,,,110812,,,N*4E
252,
$GPRMC,084359.569,V,,,,,,,110812,,,N*4F
252,
$GPRMC,084400.569,V,,,,,,,110812,,,N*44
251,
$GPRMC,084401.569,V,,,,,,,110812,,,N*45
251,
$GPRMC,084402.573,A,3955.9092,N,11623.3804,E,0.12,130.21,110812,,,A*6C
251,
$GPRMC,084403.574,A,3955.9004,N,11623.3792,E,0.00,,110812,,,A*79
250,
$GPRMC,084404.577,A,3955.9043,N,11623.3797,E,2.05,5.20,110812,,,A*65
250,
$GPRMC,084405.573,V,,,,,,,110812,,,N*4A
250,
$GPRMC,084406.577,A,3955.9107,N,11623.3809,E,0.09,137.19,110812,,,A*6A
249,
$GPRMC,084407.573,A,3955.8985,N,11623.3777,E,0.13,89.58,110812,,,A*50
250,
$GPRMC,084408.573,A,3955.9101,N,11623.3805,E,0.13,139.59,110812,,,A*6B
249,
$GPRMC,084409.573,A,3955.9179,N,11623.3805,E,0.13,54.53,110812,,,A*55
249,
$GPRMC,084410.573,A,3955.9180,N,11623.3808,E,0.08,74.12,110812,,,A*5B
248,
$GPRMC,084411.573,A,3955.9115,N,11623.3786,E,0.11,120.09,110812,,,A*6D
248,
$GPRMC,084412.573,A,3955.9093,N,11623.3793,E,0.10,121.92,110812,,,A*67
248,
$GPRMC,084413.573,A,3955.9189,N,11623.3833,E,0.13,99.84,110812,,,A*5F
247,
$GPRMC,084414.573,A,3955.9173,N,11623.3812,E,0.10,69.73,110812,,,A*5A
247,
$GPRMC,084415.577,A,3955.9166,N,11623.3809,E,0.06,107.67,110812,,,A*6A
246,
$GPRMC,084416.573,A,3955.9163,N,11623.3806,E,0.14,71.52,110812,,,A*52
246,
$GPRMC,084417.573,A,3955.9147,N,11623.3805,E,0.16,41.22,110812,,,A*50
246,
$GPRMC,084418.577,A,3955.9143,N,11623.3805,E,0.05,109.32,110812,,,A*61
246,
$GPRMC,084419.573,A,3955.9146,N,11623.3809,E,0.10,84.61,110812,,,A*5B
245,
$GPRMC,084420.573,A,3955.9144,N,11623.3809,E,0.16,41.53,110812,,,A*5D
245,
$GPRMC,084421.573,A,3955.9144,N,11623.3809,E,0.08,76.82,110812,,,A*5B
245,
$GPRMC,084422.573,A,3955.9143,N,11623.3809,E,0.11,96.75,110812,,,A*51
245,
$GPRMC,084423.577,A,3955.9144,N,11623.3808,E,0.24,170.33,110812,,,A*6F
244,
$GPRMC,084424.573,A,3955.9144,N,11623.3809,E,0.19,40.80,110812,,,A*59
244,
$GPRMC,084425.573,A,3955.9142,N,11623.3809,E,0.16,151.93,110812,,,A*62
244,
$GPRMC,084426.573,A,3955.9098,N,11623.3760,E,0.20,33.83,110812,,,A*56
244,
$GPRMC,084427.573,A,3955.9097,N,11623.3760,E,0.18,76.10,110812,,,A*58
243,
$GPRMC,084428.573,A,3955.9097,N,11623.3761,E,0.16,70.89,110812,,,A*5E
243,
$GPRMC,084429.573,A,3955.9098,N,11623.3761,E,0.14,87.44,110812,,,A*5B
243,
$GPRMC,084430.573,A,3955.9098,N,11623.3762,E,0.13,94.95,110812,,,A*59
243,
$GPRMC,084431.573,A,3955.9097,N,11623.3762,E,0.14,93.74,110812,,,A*58
243,
$GPRMC,084432.573,A,3955.9099,N,11623.3766,E,0.16,132.03,110812,,,A*69
243,
$GPRMC,084433.573,A,3955.9099,N,11623.3768,E,0.13,112.37,110812,,,A*66
242,
$GPRMC,084434.573,A,3955.9099,N,11623.3768,E,0.13,120.60,110812,,,A*62
242,
$GPRMC,084435.000,A,3955.9099,N,11623.3768,E,0.11,127.26,110812,,,A*65
242,
$GPRMC,084436.000,A,3955.9098,N,11623.3769,E,0.11,115.74,110812,,,A*60
242,
$GPRMC,084437.000,A,3955.9098,N,11623.3769,E,0.12,113.53,110812,,,A*61
241,
$GPRMC,084438.000,A,3955.9098,N,11623.3770,E,0.12,112.45,110812,,,A*60
240,
$GPRMC,084439.000,A,3955.9098,N,11623.3770,E,0.11,107.46,110812,,,A*65
240,
$GPRMC,084440.000,A,3955.9097,N,11623.3770,E,0.15,128.06,110812,,,A*69
240,
$GPRMC,084441.000,A,3955.9097,N,11623.3770,E,0.11,113.06,110812,,,A*64
239,
$GPRMC,084442.000,A,3955.9097,N,11623.3770,E,0.13,122.26,110812,,,A*65
239,
$GPRMC,084443.000,A,3955.9097,N,11623.3771,E,0.12,105.61,110812,,,A*62
238,
$GPRMC,084444.000,A,3955.9096,N,11623.3771,E,0.13,120.04,110812,,,A*61
238,
$GPRMC,084445.000,A,3955.9096,N,11623.3771,E,0.12,117.57,110812,,,A*63
237,
$GPRMC,084446.000,A,3955.9096,N,11623.3771,E,0.14,124.16,110812,,,A*63
237,
$GPRMC,084447.000,A,3955.9096,N,11623.3771,E,0.12,123.49,110812,,,A*69
236,
$GPRMC,084448.000,A,3955.9096,N,11623.3772,E,0.14,108.75,110812,,,A*65
236,
$GPRMC,084449.000,A,3955.9095,N,11623.3772,E,0.11,116.29,110812,,,A*64
236,
$GPRMC,084450.000,A,3955.9095,N,11623.3772,E,0.14,129.67,110812,,,A*6F
235,
$GPRMC,084451.000,A,3955.9095,N,11623.3772,E,0.13,124.75,110812,,,A*67
235,
$GPRMC,084452.000,A,3955.9095,N,11623.3772,E,0.12,103.87,110812,,,A*6D
235,
$GPRMC,084453.000,A,3955.9094,N,11623.3773,E,0.12,124.22,110812,,,A*66
234,
$GPRMC,084454.000,A,3955.9094,N,11623.3773,E,0.11,100.32,110812,,,A*65
234,
$GPRMC,084455.000,A,3955.9094,N,11623.3773,E,0.15,131.81,110812,,,A*6A
234,
$GPRMC,084456.000,A,3955.9094,N,11623.3773,E,0.13,107.66,110812,,,A*63
233,
$GPRMC,084457.000,A,3955.9093,N,11623.3773,E,0.12,132.24,110812,,,A*64
233,
$GPRMC,084458.000,A,3955.9093,N,11623.3773,E,0.13,103.51,110812,,,A*6A
232,
$GPRMC,084459.000,A,3955.9093,N,11623.3773,E,0.13,114.81,110812,,,A*60
232,
$GPRMC,084500.000,A,3955.9093,N,11623.3774,E,0.11,134.67,110812,,,A*62
232,
$GPRMC,084501.000,A,3955.9092,N,11623.3774,E,0.14,115.34,110812,,,A*62
231,
$GPRMC,084502.000,A,3955.9092,N,11623.3774,E,0.08,117.65,110812,,,A*6A
231,
$GPRMC,084503.000,A,3955.9092,N,11623.3774,E,0.12,118.63,110812,,,A*69
231,
$GPRMC,084504.000,A,3955.9091,N,11623.3774,E,0.12,111.22,110812,,,A*61
230,
$GPRMC,084505.000,A,3955.9091,N,11623.3774,E,0.12,131.41,110812,,,A*67
230,
$GPRMC,084506.000,A,3955.9091,N,11623.3774,E,0.13,111.02,110812,,,A*60
230,
$GPRMC,084507.000,A,3955.9090,N,11623.3774,E,0.10,115.66,110812,,,A*65
229,
$GPRMC,084508.000,A,3955.9090,N,11623.3775,E,0.11,125.64,110812,,,A*6B
229,
$GPRMC,084509.000,A,3955.9090,N,11623.3775,E,0.11,109.95,110812,,,A*6A
229,
$GPRMC,084510.000,A,3955.9089,N,11623.3775,E,0.12,129.83,110812,,,A*6C
228,
$GPRMC,084511.000,A,3955.9089,N,11623.3775,E,0.12,118.84,110812,,,A*68
227,
$GPRMC,084512.000,A,3955.9089,N,11623.3775,E,0.11,113.30,110812,,,A*6C
227,
$GPRMC,084513.000,A,3955.9088,N,11623.3775,E,0.10,114.19,110812,,,A*61
227,
$GPRMC,084514.000,A,3955.9088,N,11623.3775,E,0.11,130.48,110812,,,A*65
227,
$GPRMC,084515.000,A,3955.9088,N,11623.3776,E,0.14,110.23,110812,,,A*6D
226,
$GPRMC,084516.000,A,3955.9088,N,11623.3776,E,0.10,111.98,110812,,,A*6B
226,
$GPRMC,084517.000,A,3955.9088,N,11623.3776,E,0.11,116.30,110812,,,A*6E
226,
$GPRMC,084518.000,A,3955.9087,N,11623.3776,E,0.11,120.30,110812,,,A*6B
226,
$GPRMC,084519.000,A,3955.9087,N,11623.3776,E,0.09,100.01,110812,,,A*63
225,
$GPRMC,084520.000,A,3955.9087,N,11623.3776,E,0.13,131.71,110812,,,A*67
225,
$GPRMC,084521.000,A,3955.9087,N,11623.3776,E,0.10,113.89,110812,,,A*62
225,
$GPRMC,084522.000,A,3955.9087,N,11623.3776,E,0.11,116.16,110812,,,A*63
225,
$GPRMC,084523.000,A,3955.9086,N,11623.3776,E,0.10,101.27,110812,,,A*66
224,
$GPRMC,084524.000,A,3955.9086,N,11623.3777,E,0.13,125.13,110812,,,A*62
224,
$GPRMC,084525.000,A,3955.9086,N,11623.3777,E,0.11,126.26,110812,,,A*64
224,
$GPRMC,084526.000,A,3955.9086,N,11623.3777,E,0.12,103.21,110812,,,A*64
224,
$GPRMC,084527.000,A,3955.9086,N,11623.3777,E,0.10,115.87,110812,,,A*6C
224,
$GPRMC,084528.000,A,3955.9086,N,11623.3777,E,0.13,123.77,110812,,,A*6A
224,
$GPRMC,084529.000,A,3955.9085,N,11623.3777,E,0.11,107.36,110812,,,A*69
224,
$GPRMC,084530.000,A,3955.9085,N,11623.3777,E,0.14,129.11,110812,,,A*6D
223,
$GPRMC,084531.000,A,3955.9085,N,11623.3777,E,0.12,123.24,110812,,,A*66
224,
$GPRMC,084532.000,A,3955.9088,N,11623.3777,E,0.28,23.21,110812,,,A*55
224,
$GPRMC,084533.000,A,3955.9087,N,11623.3777,E,0.42,166.43,110812,,,A*63
224,
$GPRMC,084534.000,A,3955.9087,N,11623.3778,E,0.25,29.35,110812,,,A*51
224,
$GPRMC,084535.000,A,3955.9088,N,11623.3778,E,0.33,159.53,110812,,,A*6E
224,
$GPRMC,084536.000,A,3955.9089,N,11623.3778,E,0.10,98.77,110812,,,A*57
224,
$GPRMC,084537.000,A,3955.9089,N,11623.3778,E,0.20,140.70,110812,,,A*66
224,
$GPRMC,084538.000,A,3955.9088,N,11623.3778,E,0.10,73.61,110812,,,A*5A
224,
$GPRMC,084539.000,A,3955.9089,N,11623.3778,E,0.13,121.38,110812,,,A*63
224,
$GPRMC,084540.000,A,3955.9089,N,11623.3778,E,0.14,137.33,110812,,,A*66
224,
$GPRMC,084541.000,A,3955.9087,N,11623.3778,E,0.18,140.25,110812,,,A*62
224,
$GPRMC,084542.000,A,3955.9085,N,11623.3778,E,0.14,59.34,110812,,,A*56
224,
$GPRMC,084543.000,A,3955.9080,N,11623.3778,E,0.47,172.97,110812,,,A*65
224,
$GPRMC,084544.000,A,3955.9078,N,11623.3778,E,0.36,162.85,110812,,,A*61
225,
$GPRMC,084545.000,A,3955.9077,N,11623.3777,E,0.16,130.23,110812,,,A*69
225,
$GPRMC,084546.000,A,3955.9076,N,11623.3777,E,0.12,127.10,110812,,,A*69
227,
$GPRMC,084547.000,A,3955.9075,N,11623.3777,E,0.26,160.70,110812,,,A*69
229,
$GPRMC,084548.000,A,3955.9073,N,11623.3777,E,0.47,166.66,110812,,,A*66
227,
$GPRMC,084549.000,A,3955.9072,N,11623.3777,E,0.18,141.97,110812,,,A*67
226,
$GPRMC,084550.000,A,3955.9071,N,11623.3777,E,0.14,123.04,110812,,,A*6E
226,
$GPRMC,084551.000,A,3955.9070,N,11623.3777,E,0.42,165.73,110812,,,A*6F
227,
$GPRMC,084552.000,A,3955.9069,N,11623.3778,E,0.59,169.87,110812,,,A*66
228,
$GPRMC,084553.000,A,3955.9069,N,11623.3778,E,0.55,171.22,110812,,,A*6D
231,
$GPRMC,084554.000,A,3955.9068,N,11623.3778,E,0.24,151.66,110812,,,A*6F
232,
$GPRMC,084555.000,A,3955.9067,N,11623.3779,E,0.52,170.28,110812,,,A*68
229,
$GPRMC,084556.000,A,3955.9065,N,11623.3779,E,0.56,165.23,110812,,,A*62
227,
$GPRMC,084557.000,A,3955.9065,N,11623.3779,E,0.16,56.41,110812,,,A*52
226,
$GPRMC,084558.000,A,3955.9065,N,11623.3779,E,0.41,168.45,110812,,,A*67
225,
$GPRMC,084559.000,A,3955.9064,N,11623.3779,E,0.62,171.93,110812,,,A*65
224,
$GPRMC,084600.000,A,3955.9064,N,11623.3779,E,0.14,78.61,110812,,,A*5E
224,
$GPRMC,084601.000,A,3955.9064,N,11623.3779,E,0.35,161.59,110812,,,A*6E
224,
$GPRMC,084602.000,A,3955.9064,N,11623.3779,E,0.14,65.61,110812,,,A*50
224,
$GPRMC,084603.000,A,3955.9064,N,11623.3780,E,0.30,159.72,110812,,,A*6D
224,
$GPRMC,084604.000,A,3955.9063,N,11623.3779,E,0.65,171.50,110812,,,A*61
224,
$GPRMC,084605.000,A,3955.9062,N,11623.3779,E,0.27,159.12,110812,,,A*6B
224,
$GPRMC,084606.000,A,3955.9060,N,11623.3779,E,0.48,168.97,110812,,,A*6C
224,
$GPRMC,084607.000,A,3955.9059,N,11623.3778,E,0.76,177.65,110812,,,A*68
223,
$GPRMC,084608.000,A,3955.9058,N,11623.3777,E,0.44,165.41,110812,,,A*6D
223,
$GPRMC,084609.000,A,3955.9056,N,11623.3777,E,0.42,164.41,110812,,,A*65
223,
$GPRMC,084610.000,A,3955.9056,N,11623.3777,E,0.26,154.61,110812,,,A*6E
222,
$GPRMC,084611.000,A,3955.9057,N,11623.3776,E,0.27,23.02,110812,,,A*5A
222,
$GPRMC,084612.000,A,3955.9058,N,11623.3776,E,0.13,145.70,110812,,,A*65
222,
$GPRMC,084613.000,A,3955.9058,N,11623.3776,E,0.43,170.13,110812,,,A*62
221,
$GPRMC,084614.000,A,3955.9058,N,11623.3776,E,0.46,169.65,110812,,,A*69
221,
$GPRMC,084615.000,A,3955.9058,N,11623.3776,E,0.28,18.10,110812,,,A*55
221,
$GPRMC,084616.000,A,3955.9060,N,11623.3776,E,0.34,21.57,110812,,,A*59
221,
$GPRMC,084617.000,A,3955.9062,N,11623.3776,E,0.14,55.40,110812,,,A*5D
221,
$GPRMC,084618.000,A,3955.9063,N,11623.3776,E,0.17,30.03,110812,,,A*54
221,
$GPRMC,084619.000,A,3955.9065,N,11623.3776,E,0.46,15.31,110812,,,A*51
221,
$GPRMC,084620.000,A,3955.9067,N,11623.3777,E,0.32,20.67,110812,,,A*5E
221,
$GPRMC,084621.000,A,3955.9067,N,11623.3777,E,0.11,124.46,110812,,,A*68
221,
$GPRMC,084622.000,A,3955.9068,N,11623.3777,E,0.29,21.83,110812,,,A*52
221,
$GPRMC,084623.000,A,3955.9069,N,11623.3777,E,0.26,24.91,110812,,,A*5B
221,
