$PSRFTXT,Version:GSW3.5.0_3.5.00.00-SDK-3EP2.01 *46
323,
$GPRMC,042245.005,V,,,,,,,110812,,,N*46
356,
$GPRMC,042246.005,V,,,,,,,110812,,,N*45
370,
$GPRMC,042247.005,A,3956.3604,N,11623.9276,E,1.67,331.77,110812,,,A*63
374,
$GPRMC,042248.007,A,3956.3592,N,11623.9258,E,1.52,346.16,110812,,,A*6F
373,
$GPRMC,042249.007,A,3956.3521,N,11623.9388,E,0.90,115.62,110812,,,A*62
371,
$GPRMC,042250.007,A,3956.3560,N,11623.9360,E,0.45,79.58,110812,,,A*53
367,
$GPRMC,042251.000,A,3956.3549,N,11623.9350,E,0.33,39.12,110812,,,A*56
362,
$GPRMC,042252.000,A,3956.3565,N,11623.9341,E,0.41,8.77,110812,,,A*6F
358,
$GPRMC,042253.000,A,3956.3559,N,11623.9346,E,0.50,292.87,110812,,,A*68
354,
$GPRMC,042254.000,A,3956.3551,N,11623.9345,E,0.48,305.10,110812,,,A*6C
350,
$GPRMC,042255.000,A,3956.3542,N,11623.9347,E,0.05,94.01,110812,,,A*5F
346,
$GPRMC,042256.000,A,3956.3542,N,11623.9347,E,0.25,115.54,110812,,,A*66
343,
$GPRMC,042257.000,A,3956.3542,N,11623.9343,E,0.27,307.06,110812,,,A*67
339,
$GPRMC,042258.000,A,3956.3538,N,11623.9341,E,0.10,269.65,110812,,,A*6F
336,
$GPRMC,042259.000,A,3956.3537,N,11623.9342,E,0.10,316.62,110812,,,A*6C
333,
$GPRMC,042300.000,A,3956.3536,N,11623.9342,E,0.34,284.66,110812,,,A*68
330,
$GPRMC,042301.000,A,3956.3535,N,11623.9343,E,0.09,107.16,110812,,,A*6A
328,
$GPRMC,042302.000,A,3956.3535,N,11623.9342,E,0.45,132.99,110812,,,A*61
325,
$GPRMC,042303.000,A,3956.3535,N,11623.9341,E,0.33,302.40,110812,,,A*67
323,
$GPRMC,042304.000,A,3956.3536,N,11623.9339,E,0.46,333.81,110812,,,A*61
321,
$GPRMC,042305.000,A,3956.3536,N,11623.9338,E,0.27,72.82,110812,,,A*53
319,
$GPRMC,042306.000,A,3956.3537,N,11623.9339,E,0.25,23.88,110812,,,A*5C
317,
$GPRMC,042307.000,A,3956.3537,N,11623.9340,E,0.16,290.84,110812,,,A*65
315,
$GPRMC,042308.000,A,3956.3537,N,11623.9339,E,0.09,259.24,110812,,,A*65
314,
$GPRMC,042309.000,A,3956.3536,N,11623.9338,E,0.45,275.72,110812,,,A*61
312,
$GPRMC,042310.000,A,3956.3537,N,11623.9337,E,0.23,343.21,110812,,,A*65
310,
$GPRMC,042311.000,A,3956.3537,N,11623.9336,E,0.21,276.99,110812,,,A*63
308,
$GPRMC,042312.000,A,3956.3537,N,11623.9335,E,0.16,315.28,110812,,,A*69
307,
$GPRMC,042313.000,A,3956.3538,N,11623.9335,E,0.04,173.46,110812,,,A*6E
305,
$GPRMC,042314.000,A,3956.3538,N,11623.9335,E,0.24,325.61,110812,,,A*6F
304,
$GPRMC,042315.000,A,3956.3538,N,11623.9335,E,0.16,193.57,110812,,,A*65
302,
$GPRMC,042316.000,A,3956.3539,N,11623.9335,E,0.15,336.41,110812,,,A*6E
301,
$GPRMC,042317.000,A,3956.3540,N,11623.9336,E,0.33,79.67,110812,,,A*5A
300,
$GPRMC,042318.000,A,3956.3540,N,11623.9338,E,0.20,6.06,110812,,,A*66
298,
$GPRMC,042319.000,A,3956.3541,N,11623.9339,E,0.17,359.15,110812,,,A*68
297,
$GPRMC,042320.000,A,3956.3541,N,11623.9341,E,0.12,61.12,110812,,,A*57
296,
$GPRMC,042321.000,A,3956.3541,N,11623.9343,E,0.09,68.33,110812,,,A*54
294,
$GPRMC,042322.000,A,3956.3541,N,11623.9346,E,0.22,103.91,110812,,,A*6F
293,
$GPRMC,042323.000,A,3956.3541,N,11623.9347,E,0.13,275.49,110812,,,A*6A
292,
$GPRMC,042324.000,A,3956.3542,N,11623.9347,E,0.18,284.52,110812,,,A*61
291,
$GPRMC,042325.000,A,3956.3542,N,11623.9347,E,0.37,277.68,110812,,,A*68
289,
$GPRMC,042326.000,A,3956.3542,N,11623.9347,E,0.28,289.42,110812,,,A*6C
288,
$GPRMC,042327.000,A,3956.3542,N,11623.9347,E,0.21,183.93,110812,,,A*61
287,
$GPRMC,042328.000,A,3956.3542,N,11623.9347,E,0.21,152.64,110812,,,A*6A
286,
$GPRMC,042329.000,A,3956.3542,N,11623.9347,E,0.16,271.39,110812,,,A*65
285,
$GPRMC,042330.000,A,3956.3542,N,11623.9348,E,0.33,137.91,110812,,,A*66
284,
$GPRMC,042331.000,A,3956.3541,N,11623.9348,E,0.26,159.69,110812,,,A*6F
283,
$GPRMC,042332.000,A,3956.3541,N,11623.9349,E,0.12,219.39,110812,,,A*68
282,
$GPRMC,042333.000,A,3956.3541,N,11623.9348,E,0.38,276.72,110812,,,A*66
281,
$GPRMC,042334.000,A,3956.3541,N,11623.9346,E,0.31,259.62,110812,,,A*6A
281,
$GPRMC,042335.000,A,3956.3541,N,11623.9345,E,0.19,266.10,110812,,,A*6B
280,
$GPRMC,042336.000,A,3956.3542,N,11623.9344,E,0.21,145.94,110812,,,A*6F
279,
$GPRMC,042337.000,A,3956.3541,N,11623.9344,E,0.17,180.55,110812,,,A*6C
278,
$GPRMC,042338.000,A,3956.3541,N,11623.9345,E,0.12,169.76,110812,,,A*61
277,
$GPRMC,042339.000,A,3956.3541,N,11623.9345,E,0.12,274.67,110812,,,A*6F
276,
$GPRMC,042340.000,A,3956.3542,N,11623.9344,E,0.12,282.05,110812,,,A*6E
275,
$GPRMC,042341.000,A,3956.3542,N,11623.9344,E,0.18,286.24,110812,,,A*62
274,
$GPRMC,042342.000,A,3956.3542,N,11623.9344,E,0.37,120.87,110812,,,A*6A
274,
$GPRMC,042343.000,A,3956.3542,N,11623.9344,E,0.21,153.41,110812,,,A*62
273,
$GPRMC,042344.000,A,3956.3542,N,11623.9344,E,0.08,133.35,110812,,,A*6B
272,
$GPRMC,042345.000,A,3956.3542,N,11623.9344,E,0.12,195.27,110812,,,A*6E
271,
$GPRMC,042346.000,A,3956.3542,N,11623.9344,E,0.14,190.74,110812,,,A*68
270,
$GPRMC,042347.000,A,3956.3541,N,11623.9343,E,0.16,206.99,110812,,,A*60
269,
$GPRMC,042348.000,A,3956.3541,N,11623.9343,E,0.28,123.94,110812,,,A*6B
268,
$GPRMC,042349.000,A,3956.3541,N,11623.9342,E,0.32,120.72,110812,,,A*6B
267,
$GPRMC,042350.000,A,3956.3541,N,11623.9342,E,0.04,225.58,110812,,,A*68
266,
$GPRMC,042351.000,A,3956.3541,N,11623.9340,E,0.28,264.89,110812,,,A*6C
265,
$GPRMC,042352.000,A,3956.3541,N,11623.9340,E,0.10,218.34,110812,,,A*69
264,
$GPRMC,042353.000,A,3956.3541,N,11623.9338,E,0.19,282.37,110812,,,A*6E
263,
$GPRMC,042354.000,A,3956.3541,N,11623.9338,E,0.22,119.53,110812,,,A*62
262,
$GPRMC,042355.000,A,3956.3541,N,11623.9338,E,0.13,269.24,110812,,,A*65
261,
$GPRMC,042356.000,A,3956.3541,N,11623.9338,E,0.11,268.60,110812,,,A*65
259,
$GPRMC,042357.000,A,3956.3541,N,11623.9338,E,0.01,191.64,110812,,,A*64
258,
$GPRMC,042358.000,A,3956.3541,N,11623.9338,E,0.21,155.74,110812,,,A*60
257,
$GPRMC,042359.000,A,3956.3541,N,11623.9338,E,0.06,170.21,110812,,,A*63
255,
$GPRMC,042400.000,A,3956.3542,N,11623.9339,E,0.08,244.52,110812,,,A*64
254,
$GPRMC,042401.000,A,3956.3542,N,11623.9339,E,0.13,290.41,110812,,,A*64
252,
$GPRMC,042402.000,A,3956.3543,N,11623.9339,E,0.15,285.66,110812,,,A*61
251,
$GPRMC,042403.000,A,3956.3544,N,11623.9340,E,0.11,134.27,110812,,,A*61
250,
$GPRMC,042404.000,A,3956.3544,N,11623.9340,E,0.04,224.89,110812,,,A*64
249,
$GPRMC,042405.000,A,3956.3544,N,11623.9339,E,0.31,260.16,110812,,,A*6B
248,
$GPRMC,042406.000,A,3956.3544,N,11623.9339,E,0.23,138.89,110812,,,A*63
247,
$GPRMC,042407.000,A,3956.3544,N,11623.9340,E,0.11,160.03,110812,,,A*62
245,
$GPRMC,042408.000,A,3956.3544,N,11623.9339,E,0.19,271.57,110812,,,A*69
244,
$GPRMC,042409.000,A,3956.3544,N,11623.9340,E,0.13,137.36,110812,,,A*6A
242,
$GPRMC,042410.000,A,3956.3545,N,11623.9341,E,0.32,121.06,110812,,,A*65
241,
$GPRMC,042411.000,A,3956.3545,N,11623.9341,E,0.08,276.86,110812,,,A*64
240,
$GPRMC,042412.000,A,3956.3545,N,11623.9340,E,0.11,195.42,110812,,,A*68
238,
$GPRMC,042413.000,A,3956.3545,N,11623.9339,E,0.12,205.20,110812,,,A*6A
237,
$GPRMC,042414.000,A,3956.3545,N,11623.9338,E,0.12,272.94,110812,,,A*63
236,
$GPRMC,042415.000,A,3956.3545,N,11623.9337,E,0.18,268.50,110812,,,A*64
235,
$GPRMC,042416.000,A,3956.3545,N,11623.9336,E,0.22,144.42,110812,,,A*61
233,
$GPRMC,042417.000,A,3956.3545,N,11623.9335,E,0.15,240.44,110812,,,A*66
232,
$GPRMC,042418.000,A,3956.3545,N,11623.9334,E,0.17,125.75,110812,,,A*68
231,
$GPRMC,042419.000,A,3956.3545,N,11623.9334,E,0.12,179.48,110812,,,A*6B
229,
$GPRMC,042420.000,A,3956.3545,N,11623.9333,E,0.20,153.48,110812,,,A*6F
228,
$GPRMC,042421.000,A,3956.3544,N,11623.9331,E,0.18,249.82,110812,,,A*68
227,
$GPRMC,042422.000,A,3956.3544,N,11623.9330,E,0.14,261.27,110812,,,A*63
225,
$GPRMC,042423.000,A,3956.3544,N,11623.9329,E,0.35,278.97,110812,,,A*6A
224,
$GPRMC,042424.000,A,3956.3544,N,11623.9328,E,0.18,162.95,110812,,,A*69
223,
$GPRMC,042425.000,A,3956.3545,N,11623.9329,E,0.10,139.17,110812,,,A*64
221,
$GPRMC,042426.000,A,3956.3544,N,11623.9328,E,0.25,154.12,110812,,,A*6F
220,
$GPRMC,042427.000,A,3956.3544,N,11623.9327,E,0.25,134.09,110812,,,A*6D
218,
$GPRMC,042428.000,A,3956.3544,N,11623.9326,E,0.05,81.56,110812,,,A*54
217,
$GPRMC,042429.000,A,3956.3544,N,11623.9326,E,0.33,270.63,110812,,,A*6A
215,
$GPRMC,042430.000,A,3956.3544,N,11623.9325,E,0.17,258.89,110812,,,A*69
213,
$GPRMC,042431.000,A,3956.3544,N,11623.9324,E,0.08,213.14,110812,,,A*6C
212,
$GPRMC,042432.000,A,3956.3544,N,11623.9325,E,0.29,129.80,110812,,,A*6A
210,
$GPRMC,042433.000,A,3956.3544,N,11623.9326,E,0.35,124.75,110812,,,A*62
209,
$GPRMC,042434.000,A,3956.3544,N,11623.9328,E,0.13,142.01,110812,,,A*6C
206,
$GPRMC,042435.000,A,3956.3544,N,11623.9328,E,0.11,227.32,110812,,,A*6F
205,
$GPRMC,042436.000,A,3956.3544,N,11623.9327,E,0.07,230.53,110812,,,A*65
204,
$GPRMC,042437.000,A,3956.3544,N,11623.9327,E,0.22,253.65,110812,,,A*63
201,
$GPRMC,042438.000,A,3956.3544,N,11623.9328,E,0.08,226.08,110812,,,A*62
200,
$GPRMC,042439.000,A,3956.3544,N,11623.9328,E,0.08,203.88,110812,,,A*6C
198,
$GPRMC,042440.000,A,3956.3545,N,11623.9330,E,0.08,203.13,110812,,,A*68
196,
$GPRMC,042441.000,A,3956.3545,N,11623.9332,E,0.14,92.00,110812,,,A*5E
194,
$GPRMC,042442.000,A,3956.3546,N,11623.9333,E,0.06,312.23,110812,,,A*66
193,
$GPRMC,042443.000,A,3956.3546,N,11623.9333,E,0.02,231.86,110812,,,A*6C
191,
