$GPRMC,160439.000,V,,,,,,,100812,,,N*4E
$GPRMC,160440.000,V,,,,,,,100812,,,N*40
$GPRMC,160441.000,V,,,,,,,100812,,,N*41
$GPRMC,160442.000,V,,,,,,,100812,,,N*42
$GPRMC,160443.000,V,,,,,,,100812,,,N*43
$GPRMC,160444.000,V,,,,,,,100812,,,N*44
$GPRMC,160445.000,V,,,,,,,100812,,,N*45
$GPRMC,160446.000,V,,,,,,,100812,,,N*46
$GPRMC,160447.000,V,,,,,,,100812,,,N*47
$GPRMC,160448.000,V,,,,,,,100812,,,N*48
$GPRMC,160449.000,A,3956.3996,N,11623.8855,E,4.56,164.79,100812,,,A*6B
$GPRMC,160450.000,A,3956.3788,N,11623.9110,E,1.30,211.05,100812,,,A*64
$GPRMC,160451.000,A,3956.3632,N,11623.9285,E,2.11,153.23,100812,,,A*6B
$GPRMC,160452.000,A,3956.3563,N,11623.9267,E,2.43,118.40,100812,,,A*6E
$GPRMC,160453.000,A,3956.3647,N,11623.9210,E,1.32,52.40,100812,,,A*50
$GPRMC,160454.000,A,3956.3676,N,11623.9194,E,1.51,20.32,100812,,,A*5F
$GPRMC,160455.000,A,3956.3722,N,11623.9167,E,1.01,75.92,100812,,,A*5D
$GPRMC,160456.000,A,3956.3758,N,11623.9148,E,0.87,104.85,100812,,,A*60
$GPRMC,160457.000,A,3956.3780,N,11623.9147,E,2.69,120.73,100812,,,A*66
$GPRMC,160458.000,A,3956.3780,N,11623.9160,E,3.52,131.78,100812,,,A*6E
$GPRMC,160459.000,A,3956.3752,N,11623.9179,E,3.64,135.96,100812,,,A*69
$GPRMC,160500.000,A,3956.3734,N,11623.9191,E,4.06,129.13,100812,,,A*61
$GPRMC,160501.000,A,3956.3720,N,11623.9206,E,4.93,143.26,100812,,,A*6E
$GPRMC,160502.000,A,3956.3684,N,11623.9230,E,5.91,144.31,100812,,,A*65
$GPRMC,160503.000,A,3956.3649,N,11623.9260,E,7.67,138.62,100812,,,A*66
$GPRMC,160504.000,A,3956.3603,N,11623.9295,E,8.10,139.48,100812,,,A*63
$GPRMC,160505.000,A,3956.3552,N,11623.9336,E,7.72,143.55,100812,,,A*67
$GPRMC,160506.000,A,3956.3530,N,11623.9357,E,5.82,149.53,100812,,,A*66
$GPRMC,160507.000,A,3956.3505,N,11623.9376,E,4.80,145.30,100812,,,A*68
$GPRMC,160508.000,A,3956.3482,N,11623.9393,E,4.51,148.75,100812,,,A*62
$GPRMC,160509.000,A,3956.3489,N,11623.9386,E,3.26,147.90,100812,,,A*6F
$GPRMC,160510.000,A,3956.3482,N,11623.9391,E,2.04,149.69,100812,,,A*63
$GPRMC,160511.000,A,3956.3501,N,11623.9379,E,0.57,49.46,100812,,,A*56
$GPRMC,160512.000,A,3956.3501,N,11623.9380,E,1.27,104.57,100812,,,A*6D
$GPRMC,160513.000,A,3956.3504,N,11623.9379,E,1.30,119.70,100812,,,A*60
$GPRMC,160514.000,A,3956.3520,N,11623.9365,E,0.72,60.31,100812,,,A*51
$GPRMC,160515.000,A,3956.3523,N,11623.9358,E,1.08,12.68,100812,,,A*58
$GPRMC,160516.000,A,3956.3543,N,11623.9342,E,2.20,343.41,100812,,,A*63
$GPRMC,160517.000,A,3956.3566,N,11623.9323,E,3.77,331.75,100812,,,A*63
$GPRMC,160518.000,A,3956.3580,N,11623.9312,E,3.22,343.15,100812,,,A*65
$GPRMC,160519.000,A,3956.3595,N,11623.9301,E,2.69,333.99,100812,,,A*6F
$GPRMC,160520.000,A,3956.3598,N,11623.9297,E,1.89,342.04,100812,,,A*69
$GPRMC,160521.000,A,3956.3598,N,11623.9298,E,0.86,329.96,100812,,,A*6F
$GPRMC,160522.000,A,3956.3584,N,11623.9312,E,0.61,170.37,100812,,,A*6E
$GPRMC,160523.000,A,3956.3567,N,11623.9322,E,0.58,232.61,100812,,,A*6D
$GPRMC,160524.000,A,3956.3553,N,11623.9330,E,1.40,330.07,100812,,,A*65
$GPRMC,160525.000,A,3956.3559,N,11623.9327,E,1.69,326.45,100812,,,A*62
$GPRMC,160526.000,A,3956.3563,N,11623.9324,E,1.69,326.45,100812,,,E*6F
$GPRMC,160527.000,A,3956.3567,N,11623.9321,E,1.69,326.45,100812,,,E*6F
$GPRMC,160528.000,A,3956.3571,N,11623.9317,E,1.69,326.45,100812,,,E*62
$GPRMC,160529.000,A,3956.3575,N,11623.9314,E,1.69,326.45,100812,,,E*64
$GPRMC,160530.000,A,3956.3579,N,11623.9311,E,1.69,326.45,100812,,,E*65
$GPRMC,160531.000,A,3956.3581,N,11623.9318,E,0.79,308.91,100812,,,A*6B
$GPRMC,160532.000,A,3956.3530,N,11623.9339,E,1.35,143.91,100812,,,A*65
$GPRMC,160533.000,A,3956.3521,N,11623.9344,E,0.98,122.97,100812,,,A*69
$GPRMC,160534.000,A,3956.3541,N,11623.9316,E,2.33,305.12,100812,,,A*66
$GPRMC,160535.000,A,3956.3572,N,11623.9275,E,5.62,317.52,100812,,,A*67
$GPRMC,160536.000,A,3956.3586,N,11623.9258,E,5.75,316.57,100812,,,A*62
$GPRMC,160537.000,A,3956.3600,N,11623.9239,E,5.07,318.04,100812,,,A*64
$GPRMC,160538.000,A,3956.3596,N,11623.9244,E,2.94,314.53,100812,,,A*6E
$GPRMC,160539.000,A,3956.3581,N,11623.9254,E,0.49,274.18,100812,,,A*62
$GPRMC,160540.000,A,3956.3570,N,11623.9262,E,0.55,162.97,100812,,,A*69
$GPRMC,160541.000,A,3956.3566,N,11623.9267,E,0.82,114.13,100812,,,A*6D
$GPRMC,160542.000,A,3956.3562,N,11623.9267,E,1.10,108.96,100812,,,A*60
$GPRMC,160543.000,A,3956.3557,N,11623.9273,E,1.12,128.55,100812,,,A*6D
$GPRMC,160544.000,A,3956.3541,N,11623.9290,E,1.11,134.09,100812,,,A*67
$GPRMC,160545.000,A,3956.3540,N,11623.9296,E,1.16,226.14,100812,,,A*6A
$GPRMC,160546.000,A,3956.3549,N,11623.9294,E,1.55,288.98,100812,,,A*65
$GPRMC,160547.000,A,3956.3558,N,11623.9286,E,1.82,309.62,100812,,,A*60
$GPRMC,160548.000,A,3956.3551,N,11623.9291,E,0.62,329.24,100812,,,A*6F
$GPRMC,160549.000,A,3956.3535,N,11623.9304,E,0.79,139.98,100812,,,A*6F
$GPRMC,160550.000,A,3956.3524,N,11623.9311,E,2.39,149.74,100812,,,A*60
$GPRMC,160551.000,A,3956.3515,N,11623.9316,E,3.38,142.37,100812,,,A*68
$GPRMC,160552.000,A,3956.3518,N,11623.9318,E,3.75,134.51,100812,,,A*60
$GPRMC,160553.000,A,3956.3512,N,11623.9332,E,4.43,137.78,100812,,,A*69
$GPRMC,160554.000,A,3956.3488,N,11623.9354,E,4.58,137.71,100812,,,A*6F
$GPRMC,160555.000,A,3956.3476,N,11623.9363,E,3.54,141.71,100812,,,A*61
$GPRMC,160556.000,A,3956.3459,N,11623.9377,E,2.57,135.71,100812,,,A*6B
$GPRMC,160557.000,A,3956.3453,N,11623.9386,E,1.15,132.14,100812,,,A*6F
$GPRMC,160558.000,A,3956.3440,N,11623.9396,E,1.04,174.73,100812,,,A*60
$GPRMC,160559.000,A,3956.3438,N,11623.9395,E,0.40,210.94,100812,,,A*64
$GPRMC,160600.000,A,3956.3450,N,11623.9388,E,1.82,329.27,100812,,,A*65
$GPRMC,160601.000,A,3956.3466,N,11623.9377,E,2.37,326.59,100812,,,A*6A
$GPRMC,160602.000,A,3956.3483,N,11623.9365,E,2.76,332.58,100812,,,A*60
$GPRMC,160603.000,A,3956.3497,N,11623.9354,E,2.35,316.98,100812,,,A*6B
$GPRMC,160604.000,A,3956.3519,N,11623.9338,E,2.37,331.48,100812,,,A*6B
$GPRMC,160605.000,A,3956.3525,N,11623.9336,E,0.88,323.01,100812,,,A*63
$GPRMC,160606.000,A,3956.3533,N,11623.9331,E,0.84,306.71,100812,,,A*6C
$GPRMC,160607.000,A,3956.3531,N,11623.9331,E,1.19,266.18,100812,,,A*62
$GPRMC,160608.000,A,3956.3536,N,11623.9325,E,2.15,308.60,100812,,,A*66
$GPRMC,160609.000,A,3956.3549,N,11623.9312,E,3.87,314.51,100812,,,A*6E
$GPRMC,160610.000,A,3956.3567,N,11623.9297,E,4.67,322.65,100812,,,A*6D
$GPRMC,160611.000,A,3956.3577,N,11623.9287,E,4.48,313.76,100812,,,A*61
$GPRMC,160612.000,A,3956.3589,N,11623.9278,E,4.02,332.25,100812,,,A*68
$GPRMC,160613.000,A,3956.3588,N,11623.9279,E,2.38,328.01,100812,,,A*6B
$GPRMC,160614.000,A,3956.3580,N,11623.9285,E,0.54,339.77,100812,,,A*6E
