$GPRMC,085050.234,V,,,,,,,110812,,,N*4B
231,
$GPRMC,085051.215,V,,,,,,,110812,,,N*49
235,
$GPRMC,085052.215,V,,,,,,,110812,,,N*4A
240,
$GPRMC,085053.216,V,,,,,,,110812,,,N*48
243,
$GPRMC,085054.212,V,,,,,,,110812,,,N*4B
245,
$GPRMC,085055.213,V,,,,,,,110812,,,N*4B
247,
$GPRMC,085056.214,V,,,,,,,110812,,,N*4F
248,
$GPRMC,085057.220,V,,,,,,,110812,,,N*49
249,
$GPRMC,085058.217,V,,,,,,,110812,,,N*42
250,
$GPRMC,085059.211,V,,,,,,,110812,,,N*45
250,
$GPRMC,085100.213,V,,,,,,,110812,,,N*4A
250,
$GPRMC,085101.213,V,,,,,,,110812,,,N*4B
251,
$GPRMC,085102.213,V,,,,,,,110812,,,N*48
251,
$GPRMC,085103.216,V,,,,,,,110812,,,N*4C
251,
$GPRMC,085104.215,V,,,,,,,110812,,,N*48
251,
$GPRMC,085105.214,V,,,,,,,110812,,,N*48
251,
$GPRMC,085106.212,V,,,,,,,110812,,,N*4D
250,
$GPRMC,085107.211,V,,,,,,,110812,,,N*4F
250,
$GPRMC,085108.215,V,,,,,,,110812,,,N*44
250,
$GPRMC,085109.217,V,,,,,,,110812,,,N*47
250,
$GPRMC,085110.215,V,,,,,,,110812,,,N*4D
250,
$GPRMC,085111.215,V,,,,,,,110812,,,N*4C
249,
$GPRMC,085112.213,V,,,,,,,110812,,,N*49
250,
$GPRMC,085113.214,V,,,,,,,110812,,,N*4F
249,
$GPRMC,085114.212,V,,,,,,,110812,,,N*4E
249,
$GPRMC,085115.217,V,,,,,,,110812,,,N*4A
249,
$GPRMC,085116.216,V,,,,,,,110812,,,N*48
249,
$GPRMC,085117.214,V,,,,,,,110812,,,N*4B
249,
$GPRMC,085118.212,V,,,,,,,110812,,,N*42
249,
$GPRMC,085119.211,V,,,,,,,110812,,,N*40
249,
$GPRMC,085120.214,V,,,,,,,110812,,,N*4F
249,
$GPRMC,085121.216,V,,,,,,,110812,,,N*4C
249,
$GPRMC,085122.218,V,,,,,,,110812,,,N*41
248,
$GPRMC,085123.212,V,,,,,,,110812,,,N*4A
248,
$GPRMC,085124.216,V,,,,,,,110812,,,N*49
247,
$GPRMC,085125.202,V,,,,,,,110812,,,N*4D
247,
$GPRMC,085126.199,V,,,,,,,110812,,,N*4F
246,
$GPRMC,085127.203,V,,,,,,,110812,,,N*4E
246,
$GPRMC,085128.199,V,,,,,,,110812,,,N*41
245,
$GPRMC,085129.199,V,,,,,,,110812,,,N*40
244,
$GPRMC,085130.203,V,,,,,,,110812,,,N*48
245,
$GPRMC,085131.203,V,,,,,,,110812,,,N*49
245,
$GPRMC,085132.199,V,,,,,,,110812,,,N*4A
244,
$GPRMC,085133.203,V,,,,,,,110812,,,N*4B
244,
$GPRMC,085134.203,V,,,,,,,110812,,,N*4C
245,
$GPRMC,085135.203,V,,,,,,,110812,,,N*4D
245,
$GPRMC,085136.199,V,,,,,,,110812,,,N*4E
245,
$GPRMC,085137.203,V,,,,,,,110812,,,N*4F
245,
$GPRMC,085138.203,V,,,,,,,110812,,,N*40
245,
$GPRMC,085139.203,V,,,,,,,110812,,,N*41
246,
$GPRMC,085140.203,V,,,,,,,110812,,,N*4F
245,
$GPRMC,085141.203,V,,,,,,,110812,,,N*4E
246,
$GPRMC,085142.203,V,,,,,,,110812,,,N*4D
246,
$GPRMC,085143.199,V,,,,,,,110812,,,N*4C
245,
$GPRMC,085144.203,V,,,,,,,110812,,,N*4B
245,
$GPRMC,085145.202,A,3955.8930,N,11623.3797,E,1.79,153.13,110812,,,A*67
245,
$GPRMC,085146.202,V,,,,,,,110812,,,N*48
245,
$GPRMC,085147.202,A,3955.8942,N,11623.3836,E,2.98,100.27,110812,,,A*69
245,
$GPRMC,085148.202,A,3955.8851,N,11623.3901,E,2.42,111.71,110812,,,A*64
245,
$GPRMC,085149.199,A,3955.8883,N,11623.3896,E,1.97,114.00,110812,,,A*6C
245,
$GPRMC,085150.202,A,3955.8885,N,11623.3911,E,1.44,78.85,110812,,,A*55
245,
$GPRMC,085151.202,A,3955.8892,N,11623.3908,E,1.35,125.27,110812,,,A*6D
245,
$GPRMC,085152.202,A,3955.8912,N,11623.3881,E,0.35,189.65,110812,,,A*66
244,
$GPRMC,085153.202,A,3955.8916,N,11623.3861,E,0.27,282.14,110812,,,A*60
245,
$GPRMC,085154.199,A,3955.8921,N,11623.3838,E,1.22,303.84,110812,,,A*6B
244,
$GPRMC,085155.199,A,3955.8920,N,11623.3829,E,0.36,309.02,110812,,,A*6B
245,
$GPRMC,085156.199,A,3955.8930,N,11623.3817,E,1.05,249.64,110812,,,A*60
245,
$GPRMC,085157.199,A,3955.8924,N,11623.3817,E,0.46,205.14,110812,,,A*6D
245,
$GPRMC,085158.203,A,3955.8922,N,11623.3823,E,1.32,80.57,110812,,,A*59
244,
$GPRMC,085159.203,A,3955.8904,N,11623.3844,E,1.65,92.48,110812,,,A*52
245,
$GPRMC,085200.203,A,3955.8883,N,11623.3862,E,2.36,130.51,110812,,,A*63
244,
$GPRMC,085201.202,A,3955.8883,N,11623.3863,E,1.35,99.55,110812,,,A*54
244,
$GPRMC,085202.203,A,3955.8896,N,11623.3857,E,1.47,21.11,110812,,,A*53
244,
$GPRMC,085203.203,A,3955.8909,N,11623.3849,E,2.66,337.67,110812,,,A*6F
243,
$GPRMC,085204.203,A,3955.8893,N,11623.3855,E,0.52,356.38,110812,,,A*6F
243,
$GPRMC,085205.203,A,3955.8859,N,11623.3869,E,1.56,145.30,110812,,,A*6A
243,
$GPRMC,085206.203,A,3955.8844,N,11623.3876,E,3.09,145.98,110812,,,A*61
243,
$GPRMC,085207.203,A,3955.8841,N,11623.3883,E,3.79,137.56,110812,,,A*6F
243,
$GPRMC,085208.203,A,3955.8829,N,11623.3896,E,2.69,134.75,110812,,,A*68
243,
$GPRMC,085209.203,A,3955.8832,N,11623.3895,E,2.36,141.05,110812,,,A*6F
243,
$GPRMC,085210.203,A,3955.8827,N,11623.3896,E,2.13,146.59,110812,,,A*69
242,
$GPRMC,085211.203,A,3955.8828,N,11623.3893,E,2.44,169.05,110812,,,A*64
242,
$GPRMC,085212.203,A,3955.8833,N,11623.3887,E,1.97,181.42,110812,,,A*60
242,
$GPRMC,085213.203,A,3955.8839,N,11623.3883,E,1.16,149.58,110812,,,A*69
242,
$GPRMC,085214.203,A,3955.8849,N,11623.3880,E,0.34,27.85,110812,,,A*52
241,
$GPRMC,085215.203,A,3955.8857,N,11623.3878,E,0.94,353.40,110812,,,A*68
241,
$GPRMC,085216.202,A,3955.8864,N,11623.3876,E,0.25,60.74,110812,,,A*5A
241,
$GPRMC,085217.202,A,3955.8881,N,11623.3868,E,0.75,155.06,110812,,,A*68
240,
$GPRMC,085218.202,A,3955.8891,N,11623.3863,E,0.95,127.62,110812,,,A*64
240,
$GPRMC,085219.202,A,3955.8902,N,11623.3864,E,1.19,54.89,110812,,,A*5C
239,
$GPRMC,085220.000,A,3955.8911,N,11623.3863,E,1.95,353.89,110812,,,A*63
239,
$GPRMC,085221.000,A,3955.8917,N,11623.3863,E,1.95,349.69,110812,,,A*61
239,
$GPRMC,085222.000,A,3955.8919,N,11623.3866,E,1.73,7.54,110812,,,A*66
238,
$GPRMC,085223.000,A,3955.8934,N,11623.3857,E,1.97,345.48,110812,,,A*68
237,
$GPRMC,085224.000,A,3955.8937,N,11623.3853,E,0.42,346.36,110812,,,A*6B
237,
$GPRMC,085225.000,A,3955.8944,N,11623.3847,E,0.46,305.70,110812,,,A*6A
236,
$GPRMC,085226.000,A,3955.8949,N,11623.3843,E,0.84,293.71,110812,,,A*61
235,
$GPRMC,085227.000,A,3955.8959,N,11623.3833,E,1.27,326.62,110812,,,A*63
234,
$GPRMC,085228.000,A,3955.8967,N,11623.3825,E,1.44,349.96,110812,,,A*61
233,
$GPRMC,085229.000,A,3955.8975,N,11623.3819,E,0.39,6.69,110812,,,A*6F
231,
$GPRMC,085230.000,A,3955.8982,N,11623.3812,E,1.28,11.90,110812,,,A*55
229,
$GPRMC,085231.000,A,3955.8986,N,11623.3809,E,1.75,18.67,110812,,,A*53
227,
$GPRMC,085232.000,A,3955.8994,N,11623.3800,E,1.78,1.06,110812,,,A*68
225,
$GPRMC,085233.000,A,3955.8993,N,11623.3802,E,0.59,69.42,110812,,,A*50
222,
$GPRMC,085234.000,A,3955.8997,N,11623.3800,E,1.47,8.71,110812,,,A*68
218,
